{
  "departement": {
    "code": "01",
    "nom": "Ain",
    "slug": "ain",
    "population_totale": 665468
  },
  "region": {
    "id": 2,
    "code": "01",
    "nom": "Auvergne-Rhône-Alpes",
    "slug": "auvergne-rhone-alpes"
  },
  "voisins": [
    {
      "dep_code": "03",
      "dep_nom": "Allier",
      "dep_slug": "allier"
    },
    {
      "dep_code": "07",
      "dep_nom": "Ardèche",
      "dep_slug": "ardeche"
    },
    {
      "dep_code": "15",
      "dep_nom": "Cantal",
      "dep_slug": "cantal"
    },
    {
      "dep_code": "26",
      "dep_nom": "Drôme",
      "dep_slug": "drome"
    }
  ],
  "communes_count": 391,
  "communes": [
    {
      "code_insee": "01006",
      "nom": "Ambléon",
      "nom_a": null,
      "nom_de": null,
      "slug": "ambleon",
      "code_postal": "01300",
      "population": 115,
      "superficie_km2": 604.01,
      "latitude": 45.7483,
      "longitude": 5.5928,
      "villes_proches": [
        {
          "code_insee": "01117",
          "nom": "Conzieu",
          "slug": "conzieu",
          "code_postal": "01300",
          "population": 155,
          "superficie_km2": 713.11,
          "latitude": 45.7246,
          "longitude": 5.602,
          "distance_km": 2.73
        },
        {
          "code_insee": "01110",
          "nom": "Colomieu",
          "slug": "colomieu",
          "code_postal": "01300",
          "population": 159,
          "superficie_km2": 588.34,
          "latitude": 45.7338,
          "longitude": 5.6269,
          "distance_km": 3.1
        },
        {
          "code_insee": "01358",
          "nom": "Saint-Germain-les-Paroisses",
          "slug": "saint-germain-les-paroisses",
          "code_postal": "01300",
          "population": 422,
          "superficie_km2": 1637.52,
          "latitude": 45.773,
          "longitude": 5.6191,
          "distance_km": 3.42
        },
        {
          "code_insee": "01216",
          "nom": "Lhuis",
          "slug": "lhuis",
          "code_postal": "01680",
          "population": 886,
          "superficie_km2": 2465.17,
          "latitude": 45.7469,
          "longitude": 5.5398,
          "distance_km": 4.12
        },
        {
          "code_insee": "01233",
          "nom": "Marchamp",
          "slug": "marchamp",
          "code_postal": "01680",
          "population": 137,
          "superficie_km2": 1321.22,
          "latitude": 45.7762,
          "longitude": 5.5509,
          "distance_km": 4.49
        },
        {
          "code_insee": "01190",
          "nom": "Innimond",
          "slug": "innimond",
          "code_postal": "01680",
          "population": 95,
          "superficie_km2": 1324.75,
          "latitude": 45.7875,
          "longitude": 5.5723,
          "distance_km": 4.64
        },
        {
          "code_insee": "01015",
          "nom": "Arboys en Bugey",
          "slug": "arboys-en-bugey",
          "code_postal": "01300",
          "population": 710,
          "superficie_km2": 2260.53,
          "latitude": 45.7189,
          "longitude": 5.6404,
          "distance_km": 4.93
        },
        {
          "code_insee": "01338",
          "nom": "Groslée-Saint-Benoit",
          "slug": "groslee-saint-benoit",
          "code_postal": "01300",
          "population": 1227,
          "superficie_km2": 2868.44,
          "latitude": 45.7011,
          "longitude": 5.5823,
          "distance_km": 5.31
        },
        {
          "code_insee": "01116",
          "nom": "Contrevoz",
          "slug": "contrevoz",
          "code_postal": "01300",
          "population": 494,
          "superficie_km2": 1423.66,
          "latitude": 45.7971,
          "longitude": 5.6164,
          "distance_km": 5.73
        },
        {
          "code_insee": "01009",
          "nom": "Andert-et-Condon",
          "slug": "andert-et-condon",
          "code_postal": "01300",
          "population": 348,
          "superficie_km2": 700.67,
          "latitude": 45.7841,
          "longitude": 5.6607,
          "distance_km": 6.6
        },
        {
          "code_insee": "38055",
          "nom": "Brangues",
          "slug": "brangues",
          "code_postal": "38510",
          "population": 614,
          "superficie_km2": 1162.08,
          "latitude": 45.6952,
          "longitude": 5.5422,
          "distance_km": 7.09
        },
        {
          "code_insee": "01034",
          "nom": "Belley",
          "slug": "belley",
          "code_postal": "01300",
          "population": 9388,
          "superficie_km2": 2254.61,
          "latitude": 45.743,
          "longitude": 5.6927,
          "distance_km": 7.77
        },
        {
          "code_insee": "01098",
          "nom": "Chazey-Bons",
          "slug": "chazey-bons",
          "code_postal": "01300",
          "population": 1142,
          "superficie_km2": 1557.0,
          "latitude": 45.8007,
          "longitude": 5.6678,
          "distance_km": 8.23
        },
        {
          "code_insee": "01310",
          "nom": "Prémeyzel",
          "slug": "premeyzel",
          "code_postal": "01300",
          "population": 244,
          "superficie_km2": 762.42,
          "latitude": 45.6827,
          "longitude": 5.6423,
          "distance_km": 8.24
        },
        {
          "code_insee": "01061",
          "nom": "Brens",
          "slug": "brens",
          "code_postal": "01300",
          "population": 1123,
          "superficie_km2": 688.48,
          "latitude": 45.7163,
          "longitude": 5.69,
          "distance_km": 8.34
        },
        {
          "code_insee": "01100",
          "nom": "Cheignieu-la-Balme",
          "slug": "cheignieu-la-balme",
          "code_postal": "01510",
          "population": 131,
          "superficie_km2": 596.09,
          "latitude": 45.8233,
          "longitude": 5.6022,
          "distance_km": 8.37
        },
        {
          "code_insee": "01219",
          "nom": "Lompnas",
          "slug": "lompnas",
          "code_postal": "01680",
          "population": 171,
          "superficie_km2": 1264.32,
          "latitude": 45.8118,
          "longitude": 5.5263,
          "distance_km": 8.74
        },
        {
          "code_insee": "01329",
          "nom": "Rossillon",
          "slug": "rossillon",
          "code_postal": "01510",
          "population": 166,
          "superficie_km2": 807.91,
          "latitude": 45.8359,
          "longitude": 5.5987,
          "distance_km": 9.75
        },
        {
          "code_insee": "38050",
          "nom": "Le Bouchage",
          "slug": "le-bouchage",
          "code_postal": "38510",
          "population": 655,
          "superficie_km2": 1127.82,
          "latitude": 45.6689,
          "longitude": 5.5288,
          "distance_km": 10.13
        },
        {
          "code_insee": "01280",
          "nom": "Ordonnaz",
          "slug": "ordonnaz",
          "code_postal": "01510",
          "population": 151,
          "superficie_km2": 1479.23,
          "latitude": 45.8357,
          "longitude": 5.5439,
          "distance_km": 10.43
        }
      ],
      "zonage_abc": "C",
      "reclassement_abc": "Non",
      "codes_postaux": [
        {
          "code_postal": "01300",
          "libelle_acheminement": "AMBLEON"
        }
      ],
      "logement": {
        "logements_total": 71,
        "residences_principales": 57,
        "logements_vacants": 6,
        "residences_secondaires": 8,
        "maisons": 68,
        "appartements": 3,
        "proprietaires": 41,
        "locataires": 15,
        "hlm": 1,
        "construits_avant_1919": 16,
        "construits_1919_1945": 5,
        "construits_1946_1970": 5,
        "construits_1971_1990": 10,
        "construits_1991_2005": 9,
        "construits_2006_2019": 12,
        "chauffage_electrique": 15,
        "chauffage_fioul": 17,
        "chauffage_gaz_ville": 1,
        "chauffage_gaz_bouteille": 6,
        "chauffage_autre": 18,
        "menages": 57,
        "logements_avant_1990": 36
      },
      "artisans": {
        "monte_escalier": 0,
        "chauffage_pac_clim": 1,
        "isolation": 1,
        "menuiserie": 0,
        "fenetres_velux": 0,
        "couverture_toiture": 0,
        "facade_peinture": 0,
        "portes_volets": 0,
        "piscine": 0,
        "vmc_ventilation": 1,
        "assainissement": 1
      },
      "revenus": {
        "revenu_median": null,
        "part_menages_imposes": null,
        "taux_pauvrete": null
      },
      "aides_etat": {
        "zone_climatique": "H1",
        "qpv": false,
        "action_coeur_de_ville": false,
        "petites_villes_de_demain": false
      }
    },
    {
      "code_insee": "01007",
      "nom": "Ambronay",
      "nom_a": null,
      "nom_de": null,
      "slug": "ambronay",
      "code_postal": "01500",
      "population": 2833,
      "superficie_km2": 34.0,
      "latitude": 46.0060005,
      "longitude": 5.3579998,
      "villes_proches": [
        {
          "code_insee": "01149",
          "nom": "Douvres",
          "slug": "douvres",
          "code_postal": "01500",
          "population": 1094,
          "superficie_km2": 5.0,
          "latitude": 45.9840012,
          "longitude": 5.3709998,
          "distance_km": 2.64
        },
        {
          "code_insee": "01363",
          "nom": "Saint-Jean-le-Vieux",
          "slug": "saint-jean-le-vieux",
          "code_postal": "01640",
          "population": 1786,
          "superficie_km2": 15.0,
          "latitude": 46.0289993,
          "longitude": 5.382,
          "distance_km": 3.16
        },
        {
          "code_insee": "01004",
          "nom": "Ambérieu-en-Bugey",
          "slug": "amberieu-en-bugey",
          "code_postal": "01500",
          "population": 14854,
          "superficie_km2": 24.0,
          "latitude": 45.9609985,
          "longitude": 5.3730001,
          "distance_km": 5.14
        },
        {
          "code_insee": "01089",
          "nom": "Château-Gaillard",
          "slug": "chateau-gaillard",
          "code_postal": "01500",
          "population": 2287,
          "superficie_km2": 16.0,
          "latitude": 45.9729996,
          "longitude": 5.3080001,
          "distance_km": 5.33
        },
        {
          "code_insee": "01304",
          "nom": "Pont-d'Ain",
          "slug": "pont-d-ain",
          "code_postal": "01160",
          "population": 2871,
          "superficie_km2": 11.0,
          "latitude": 46.0540009,
          "longitude": 5.3470001,
          "distance_km": 5.4
        },
        {
          "code_insee": "01314",
          "nom": "Priay",
          "slug": "priay",
          "code_postal": "01160",
          "population": 1764,
          "superficie_km2": 16.0,
          "latitude": 46.0200005,
          "longitude": 5.2849998,
          "distance_km": 5.85
        },
        {
          "code_insee": "01199",
          "nom": "Jujurieux",
          "slug": "jujurieux",
          "code_postal": "01640",
          "population": 2124,
          "superficie_km2": 15.0,
          "latitude": 46.0499992,
          "longitude": 5.4109998,
          "distance_km": 6.38
        },
        {
          "code_insee": "01345",
          "nom": "Saint-Denis-en-Bugey",
          "slug": "saint-denis-en-bugey",
          "code_postal": "01500",
          "population": 2240,
          "superficie_km2": 3.0,
          "latitude": 45.9490013,
          "longitude": 5.3239999,
          "distance_km": 6.86
        },
        {
          "code_insee": "01151",
          "nom": "Druillat",
          "slug": "druillat",
          "code_postal": "01160",
          "population": 1139,
          "superficie_km2": 21.0,
          "latitude": 46.0680008,
          "longitude": 5.2940001,
          "distance_km": 8.48
        },
        {
          "code_insee": "01384",
          "nom": "Saint-Rambert-en-Bugey",
          "slug": "saint-rambert-en-bugey",
          "code_postal": "01230",
          "population": 2173,
          "superficie_km2": 29.0,
          "latitude": 45.9500008,
          "longitude": 5.4400001,
          "distance_km": 8.88
        },
        {
          "code_insee": "01273",
          "nom": "Neuville-sur-Ain",
          "slug": "neuville-sur-ain",
          "code_postal": "01160",
          "population": 1799,
          "superficie_km2": 20.0,
          "latitude": 46.0909996,
          "longitude": 5.3740001,
          "distance_km": 9.53
        },
        {
          "code_insee": "01431",
          "nom": "Vaux-en-Bugey",
          "slug": "vaux-en-bugey",
          "code_postal": "01150",
          "population": 1234,
          "superficie_km2": 8.0,
          "latitude": 45.9199982,
          "longitude": 5.3639998,
          "distance_km": 9.57
        },
        {
          "code_insee": "01092",
          "nom": "Châtillon-la-Palud",
          "slug": "chatillon-la-palud",
          "code_postal": "01320",
          "population": 1649,
          "superficie_km2": 14.0,
          "latitude": 45.9749985,
          "longitude": 5.2420001,
          "distance_km": 9.6
        },
        {
          "code_insee": "01213",
          "nom": "Leyment",
          "slug": "leyment",
          "code_postal": "01150",
          "population": 1392,
          "superficie_km2": 14.0,
          "latitude": 45.9269981,
          "longitude": 5.2950001,
          "distance_km": 10.04
        },
        {
          "code_insee": "01303",
          "nom": "Poncin",
          "slug": "poncin",
          "code_postal": "01450",
          "population": 1729,
          "superficie_km2": 20.0,
          "latitude": 46.0900002,
          "longitude": 5.4169998,
          "distance_km": 10.39
        },
        {
          "code_insee": "01374",
          "nom": "Saint-Martin-du-Mont",
          "slug": "saint-martin-du-mont",
          "code_postal": "01160",
          "population": 1899,
          "superficie_km2": 28.0,
          "latitude": 46.105999,
          "longitude": 5.3260002,
          "distance_km": 11.39
        },
        {
          "code_insee": "01145",
          "nom": "Dompierre-sur-Veyle",
          "slug": "dompierre-sur-veyle",
          "code_postal": "01240",
          "population": 1207,
          "superficie_km2": 29.0,
          "latitude": 46.0670013,
          "longitude": 5.217,
          "distance_km": 12.82
        },
        {
          "code_insee": "01450",
          "nom": "Villieu-Loyes-Mollon",
          "slug": "villieu-loyes-mollon",
          "code_postal": "01800",
          "population": 3793,
          "superficie_km2": 16.0,
          "latitude": 45.9319992,
          "longitude": 5.23,
          "distance_km": 12.87
        },
        {
          "code_insee": "01202",
          "nom": "Lagnieu",
          "slug": "lagnieu",
          "code_postal": "01150",
          "population": 7268,
          "superficie_km2": 27.0,
          "latitude": 45.8919983,
          "longitude": 5.329,
          "distance_km": 12.87
        },
        {
          "code_insee": "01386",
          "nom": "Saint-Sorlin-en-Bugey",
          "slug": "saint-sorlin-en-bugey",
          "code_postal": "01150",
          "population": 1125,
          "superficie_km2": 9.0,
          "latitude": 45.8860016,
          "longitude": 5.3759999,
          "distance_km": 13.42
        }
      ],
      "zonage_abc": "C",
      "reclassement_abc": "Non",
      "codes_postaux": [
        {
          "code_postal": "01500",
          "libelle_acheminement": "AMBRONAY"
        }
      ],
      "logement": {
        "logements_total": 1302,
        "residences_principales": 1207,
        "logements_vacants": 52,
        "residences_secondaires": 42,
        "maisons": 1101,
        "appartements": 198,
        "proprietaires": 881,
        "locataires": 314,
        "hlm": 109,
        "construits_avant_1919": 226,
        "construits_1919_1945": 60,
        "construits_1946_1970": 155,
        "construits_1971_1990": 326,
        "construits_1991_2005": 168,
        "construits_2006_2019": 270,
        "chauffage_electrique": 426,
        "chauffage_fioul": 206,
        "chauffage_gaz_ville": 215,
        "chauffage_gaz_bouteille": 26,
        "chauffage_autre": 332,
        "menages": 1207,
        "logements_avant_1990": 767
      },
      "artisans": {
        "monte_escalier": 0,
        "chauffage_pac_clim": 7,
        "isolation": 4,
        "menuiserie": 6,
        "fenetres_velux": 6,
        "couverture_toiture": 3,
        "facade_peinture": 5,
        "portes_volets": 6,
        "piscine": 0,
        "vmc_ventilation": 3,
        "assainissement": 5
      },
      "revenus": {
        "revenu_median": 24330.0,
        "part_menages_imposes": 57.0,
        "taux_pauvrete": 7.0
      },
      "aides_etat": {
        "zone_climatique": "H1",
        "qpv": false,
        "action_coeur_de_ville": false,
        "petites_villes_de_demain": false
      }
    },
    {
      "code_insee": "01008",
      "nom": "Ambutrix",
      "nom_a": null,
      "nom_de": null,
      "slug": "ambutrix",
      "code_postal": "01500",
      "population": 760,
      "superficie_km2": 518.27,
      "latitude": 45.9347,
      "longitude": 5.3359,
      "villes_proches": [
        {
          "code_insee": "01345",
          "nom": "Saint-Denis-en-Bugey",
          "slug": "saint-denis-en-bugey",
          "code_postal": "01500",
          "population": 2246,
          "superficie_km2": 261.36,
          "latitude": 45.9497,
          "longitude": 5.326,
          "distance_km": 1.84
        },
        {
          "code_insee": "01041",
          "nom": "Bettant",
          "slug": "bettant",
          "code_postal": "01500",
          "population": 774,
          "superficie_km2": 343.27,
          "latitude": 45.9366,
          "longitude": 5.3648,
          "distance_km": 2.24
        },
        {
          "code_insee": "01431",
          "nom": "Vaux-en-Bugey",
          "slug": "vaux-en-bugey",
          "code_postal": "01150",
          "population": 1201,
          "superficie_km2": 829.94,
          "latitude": 45.9184,
          "longitude": 5.3612,
          "distance_km": 2.67
        },
        {
          "code_insee": "01213",
          "nom": "Leyment",
          "slug": "leyment",
          "code_postal": "01150",
          "population": 1441,
          "superficie_km2": 1429.88,
          "latitude": 45.9287,
          "longitude": 5.2927,
          "distance_km": 3.41
        },
        {
          "code_insee": "01004",
          "nom": "Ambérieu-en-Bugey",
          "slug": "amberieu-en-bugey",
          "code_postal": "01500",
          "population": 15934,
          "superficie_km2": 2454.8,
          "latitude": 45.9575,
          "longitude": 5.3706,
          "distance_km": 3.69
        },
        {
          "code_insee": "01089",
          "nom": "Château-Gaillard",
          "slug": "chateau-gaillard",
          "code_postal": "01500",
          "population": 2443,
          "superficie_km2": 1606.78,
          "latitude": 45.9723,
          "longitude": 5.3091,
          "distance_km": 4.67
        },
        {
          "code_insee": "01202",
          "nom": "Lagnieu",
          "slug": "lagnieu",
          "code_postal": "01150",
          "population": 7411,
          "superficie_km2": 2737.06,
          "latitude": 45.8863,
          "longitude": 5.3396,
          "distance_km": 5.39
        },
        {
          "code_insee": "01379",
          "nom": "Saint-Maurice-de-Rémens",
          "slug": "saint-maurice-de-remens",
          "code_postal": "01500",
          "population": 756,
          "superficie_km2": 1034.05,
          "latitude": 45.9542,
          "longitude": 5.2706,
          "distance_km": 5.49
        },
        {
          "code_insee": "01421",
          "nom": "Torcieu",
          "slug": "torcieu",
          "code_postal": "01230",
          "population": 739,
          "superficie_km2": 1095.67,
          "latitude": 45.9189,
          "longitude": 5.4056,
          "distance_km": 5.67
        },
        {
          "code_insee": "01386",
          "nom": "Saint-Sorlin-en-Bugey",
          "slug": "saint-sorlin-en-bugey",
          "code_postal": "01150",
          "population": 1152,
          "superficie_km2": 917.06,
          "latitude": 45.8863,
          "longitude": 5.369,
          "distance_km": 5.96
        },
        {
          "code_insee": "01149",
          "nom": "Douvres",
          "slug": "douvres",
          "code_postal": "01500",
          "population": 1104,
          "superficie_km2": 519.78,
          "latitude": 45.9847,
          "longitude": 5.3724,
          "distance_km": 6.23
        },
        {
          "code_insee": "01366",
          "nom": "Sainte-Julie",
          "slug": "sainte-julie",
          "code_postal": "01150",
          "population": 1094,
          "superficie_km2": 1144.59,
          "latitude": 45.8802,
          "longitude": 5.2837,
          "distance_km": 7.28
        },
        {
          "code_insee": "01099",
          "nom": "Chazey-sur-Ain",
          "slug": "chazey-sur-ain",
          "code_postal": "01150",
          "population": 1632,
          "superficie_km2": 2208.0,
          "latitude": 45.8937,
          "longitude": 5.2604,
          "distance_km": 7.41
        },
        {
          "code_insee": "38539",
          "nom": "Vertrieu",
          "slug": "vertrieu",
          "code_postal": "38390",
          "population": 608,
          "superficie_km2": 445.03,
          "latitude": 45.8692,
          "longitude": 5.3703,
          "distance_km": 7.75
        },
        {
          "code_insee": "01092",
          "nom": "Châtillon-la-Palud",
          "slug": "chatillon-la-palud",
          "code_postal": "01320",
          "population": 1698,
          "superficie_km2": 1409.8,
          "latitude": 45.9757,
          "longitude": 5.246,
          "distance_km": 8.31
        },
        {
          "code_insee": "01007",
          "nom": "Ambronay",
          "slug": "ambronay",
          "code_postal": "01500",
          "population": 2841,
          "superficie_km2": 3370.53,
          "latitude": 46.0099,
          "longitude": 5.3627,
          "distance_km": 8.61
        },
        {
          "code_insee": "01396",
          "nom": "Sault-Brénaz",
          "slug": "sault-brenaz",
          "code_postal": "01150",
          "population": 1021,
          "superficie_km2": 567.79,
          "latitude": 45.8612,
          "longitude": 5.4007,
          "distance_km": 9.59
        },
        {
          "code_insee": "38026",
          "nom": "La Balme-les-Grottes",
          "slug": "la-balme-les-grottes",
          "code_postal": "38390",
          "population": 1146,
          "superficie_km2": 1450.33,
          "latitude": 45.8435,
          "longitude": 5.3196,
          "distance_km": 10.22
        },
        {
          "code_insee": "01314",
          "nom": "Priay",
          "slug": "priay",
          "code_postal": "01160",
          "population": 1842,
          "superficie_km2": 1573.54,
          "latitude": 46.019,
          "longitude": 5.2829,
          "distance_km": 10.23
        },
        {
          "code_insee": "38295",
          "nom": "Parmilieu",
          "slug": "parmilieu",
          "code_postal": "38390",
          "population": 723,
          "superficie_km2": 1283.98,
          "latitude": 45.8437,
          "longitude": 5.3595,
          "distance_km": 10.28
        }
      ],
      "zonage_abc": "C",
      "reclassement_abc": "Non",
      "codes_postaux": [
        {
          "code_postal": "01500",
          "libelle_acheminement": "AMBUTRIX"
        }
      ],
      "logement": {
        "logements_total": 365,
        "residences_principales": 332,
        "logements_vacants": 21,
        "residences_secondaires": 11,
        "maisons": 332,
        "appartements": 33,
        "proprietaires": 248,
        "locataires": 80,
        "hlm": 14,
        "construits_avant_1919": 50,
        "construits_1919_1945": 12,
        "construits_1946_1970": 35,
        "construits_1971_1990": 114,
        "construits_1991_2005": 41,
        "construits_2006_2019": 70,
        "chauffage_electrique": 156,
        "chauffage_fioul": 29,
        "chauffage_gaz_ville": 41,
        "chauffage_gaz_bouteille": 3,
        "chauffage_autre": 100,
        "menages": 332,
        "logements_avant_1990": 211
      },
      "artisans": {
        "monte_escalier": 0,
        "chauffage_pac_clim": 6,
        "isolation": 0,
        "menuiserie": 2,
        "fenetres_velux": 2,
        "couverture_toiture": 1,
        "facade_peinture": 3,
        "portes_volets": 2,
        "piscine": 1,
        "vmc_ventilation": 2,
        "assainissement": 4
      },
      "revenus": {
        "revenu_median": 26120.0,
        "part_menages_imposes": null,
        "taux_pauvrete": null
      },
      "aides_etat": {
        "zone_climatique": "H1",
        "qpv": false,
        "action_coeur_de_ville": false,
        "petites_villes_de_demain": false
      }
    },
    {
      "code_insee": "01004",
      "nom": "Ambérieu-en-Bugey",
      "nom_a": null,
      "nom_de": null,
      "slug": "amberieu-en-bugey",
      "code_postal": "01500",
      "population": 14854,
      "superficie_km2": 24.0,
      "latitude": 45.9609985,
      "longitude": 5.3730001,
      "villes_proches": [
        {
          "code_insee": "01149",
          "nom": "Douvres",
          "slug": "douvres",
          "code_postal": "01500",
          "population": 1094,
          "superficie_km2": 5.0,
          "latitude": 45.9840012,
          "longitude": 5.3709998,
          "distance_km": 2.56
        },
        {
          "code_insee": "01345",
          "nom": "Saint-Denis-en-Bugey",
          "slug": "saint-denis-en-bugey",
          "code_postal": "01500",
          "population": 2240,
          "superficie_km2": 3.0,
          "latitude": 45.9490013,
          "longitude": 5.3239999,
          "distance_km": 4.02
        },
        {
          "code_insee": "01431",
          "nom": "Vaux-en-Bugey",
          "slug": "vaux-en-bugey",
          "code_postal": "01150",
          "population": 1234,
          "superficie_km2": 8.0,
          "latitude": 45.9199982,
          "longitude": 5.3639998,
          "distance_km": 4.61
        },
        {
          "code_insee": "01007",
          "nom": "Ambronay",
          "slug": "ambronay",
          "code_postal": "01500",
          "population": 2833,
          "superficie_km2": 34.0,
          "latitude": 46.0060005,
          "longitude": 5.3579998,
          "distance_km": 5.14
        },
        {
          "code_insee": "01089",
          "nom": "Château-Gaillard",
          "slug": "chateau-gaillard",
          "code_postal": "01500",
          "population": 2287,
          "superficie_km2": 16.0,
          "latitude": 45.9729996,
          "longitude": 5.3080001,
          "distance_km": 5.2
        },
        {
          "code_insee": "01384",
          "nom": "Saint-Rambert-en-Bugey",
          "slug": "saint-rambert-en-bugey",
          "code_postal": "01230",
          "population": 2173,
          "superficie_km2": 29.0,
          "latitude": 45.9500008,
          "longitude": 5.4400001,
          "distance_km": 5.32
        },
        {
          "code_insee": "01213",
          "nom": "Leyment",
          "slug": "leyment",
          "code_postal": "01150",
          "population": 1392,
          "superficie_km2": 14.0,
          "latitude": 45.9269981,
          "longitude": 5.2950001,
          "distance_km": 7.12
        },
        {
          "code_insee": "01363",
          "nom": "Saint-Jean-le-Vieux",
          "slug": "saint-jean-le-vieux",
          "code_postal": "01640",
          "population": 1786,
          "superficie_km2": 15.0,
          "latitude": 46.0289993,
          "longitude": 5.382,
          "distance_km": 7.59
        },
        {
          "code_insee": "01386",
          "nom": "Saint-Sorlin-en-Bugey",
          "slug": "saint-sorlin-en-bugey",
          "code_postal": "01150",
          "population": 1125,
          "superficie_km2": 9.0,
          "latitude": 45.8860016,
          "longitude": 5.3759999,
          "distance_km": 8.34
        },
        {
          "code_insee": "01202",
          "nom": "Lagnieu",
          "slug": "lagnieu",
          "code_postal": "01150",
          "population": 7268,
          "superficie_km2": 27.0,
          "latitude": 45.8919983,
          "longitude": 5.329,
          "distance_km": 8.39
        },
        {
          "code_insee": "01314",
          "nom": "Priay",
          "slug": "priay",
          "code_postal": "01160",
          "population": 1764,
          "superficie_km2": 16.0,
          "latitude": 46.0200005,
          "longitude": 5.2849998,
          "distance_km": 9.45
        },
        {
          "code_insee": "01092",
          "nom": "Châtillon-la-Palud",
          "slug": "chatillon-la-palud",
          "code_postal": "01320",
          "population": 1649,
          "superficie_km2": 14.0,
          "latitude": 45.9749985,
          "longitude": 5.2420001,
          "distance_km": 10.24
        },
        {
          "code_insee": "01199",
          "nom": "Jujurieux",
          "slug": "jujurieux",
          "code_postal": "01640",
          "population": 2124,
          "superficie_km2": 15.0,
          "latitude": 46.0499992,
          "longitude": 5.4109998,
          "distance_km": 10.32
        },
        {
          "code_insee": "01304",
          "nom": "Pont-d'Ain",
          "slug": "pont-d-ain",
          "code_postal": "01160",
          "population": 2871,
          "superficie_km2": 11.0,
          "latitude": 46.0540009,
          "longitude": 5.3470001,
          "distance_km": 10.53
        },
        {
          "code_insee": "01366",
          "nom": "Sainte-Julie",
          "slug": "sainte-julie",
          "code_postal": "01150",
          "population": 1090,
          "superficie_km2": 11.0,
          "latitude": 45.882,
          "longitude": 5.2839999,
          "distance_km": 11.16
        },
        {
          "code_insee": "01450",
          "nom": "Villieu-Loyes-Mollon",
          "slug": "villieu-loyes-mollon",
          "code_postal": "01800",
          "population": 3793,
          "superficie_km2": 16.0,
          "latitude": 45.9319992,
          "longitude": 5.23,
          "distance_km": 11.52
        },
        {
          "code_insee": "01416",
          "nom": "Tenay",
          "slug": "tenay",
          "code_postal": "01230",
          "population": 1013,
          "superficie_km2": 13.0,
          "latitude": 45.9230003,
          "longitude": 5.5139999,
          "distance_km": 11.69
        },
        {
          "code_insee": "01099",
          "nom": "Chazey-sur-Ain",
          "slug": "chazey-sur-ain",
          "code_postal": "01150",
          "population": 1600,
          "superficie_km2": 22.0,
          "latitude": 45.8930016,
          "longitude": 5.2550001,
          "distance_km": 11.85
        },
        {
          "code_insee": "01151",
          "nom": "Druillat",
          "slug": "druillat",
          "code_postal": "01160",
          "population": 1139,
          "superficie_km2": 21.0,
          "latitude": 46.0680008,
          "longitude": 5.2940001,
          "distance_km": 13.37
        },
        {
          "code_insee": "01444",
          "nom": "Villebois",
          "slug": "villebois",
          "code_postal": "01150",
          "population": 1197,
          "superficie_km2": 14.0,
          "latitude": 45.848999,
          "longitude": 5.447,
          "distance_km": 13.71
        }
      ],
      "zonage_abc": "B1",
      "reclassement_abc": "Non",
      "codes_postaux": [
        {
          "code_postal": "01500",
          "libelle_acheminement": "AMBERIEU EN BUGEY"
        }
      ],
      "logement": {
        "logements_total": 7973,
        "residences_principales": 7107,
        "logements_vacants": 741,
        "residences_secondaires": 125,
        "maisons": 3578,
        "appartements": 4311,
        "proprietaires": 3202,
        "locataires": 3775,
        "hlm": 1492,
        "construits_avant_1919": 340,
        "construits_1919_1945": 382,
        "construits_1946_1970": 1353,
        "construits_1971_1990": 1759,
        "construits_1991_2005": 1412,
        "construits_2006_2019": 1760,
        "chauffage_electrique": 2326,
        "chauffage_fioul": 528,
        "chauffage_gaz_ville": 3701,
        "chauffage_gaz_bouteille": 38,
        "chauffage_autre": 511,
        "menages": 7107,
        "logements_avant_1990": 3834
      },
      "artisans": {
        "monte_escalier": 2,
        "chauffage_pac_clim": 32,
        "isolation": 26,
        "menuiserie": 13,
        "fenetres_velux": 13,
        "couverture_toiture": 9,
        "facade_peinture": 11,
        "portes_volets": 13,
        "piscine": 2,
        "vmc_ventilation": 19,
        "assainissement": 14
      },
      "revenus": {
        "revenu_median": 21070.0,
        "part_menages_imposes": 48.0,
        "taux_pauvrete": 17.0
      },
      "aides_etat": {
        "zone_climatique": "H1",
        "qpv": true,
        "action_coeur_de_ville": true,
        "petites_villes_de_demain": false
      }
    },
    {
      "code_insee": "01005",
      "nom": "Ambérieux-en-Dombes",
      "nom_a": null,
      "nom_de": null,
      "slug": "amberieux-en-dombes",
      "code_postal": "01330",
      "population": 1897,
      "superficie_km2": 16.0,
      "latitude": 45.9959984,
      "longitude": 4.9120002,
      "villes_proches": [
        {
          "code_insee": "01398",
          "nom": "Savigneux",
          "slug": "savigneux",
          "code_postal": "01480",
          "population": 1449,
          "superficie_km2": 15.0,
          "latitude": 45.9970017,
          "longitude": 4.8579998,
          "distance_km": 4.17
        },
        {
          "code_insee": "01446",
          "nom": "Villeneuve",
          "slug": "villeneuve",
          "code_postal": "01480",
          "population": 1569,
          "superficie_km2": 27.0,
          "latitude": 46.0320015,
          "longitude": 4.8520002,
          "distance_km": 6.12
        },
        {
          "code_insee": "01021",
          "nom": "Ars-sur-Formans",
          "slug": "ars-sur-formans",
          "code_postal": "01480",
          "population": 1498,
          "superficie_km2": 6.0,
          "latitude": 45.9939995,
          "longitude": 4.822,
          "distance_km": 6.96
        },
        {
          "code_insee": "01389",
          "nom": "Saint-Trivier-sur-Moignans",
          "slug": "saint-trivier-sur-moignans",
          "code_postal": "01990",
          "population": 1857,
          "superficie_km2": 42.0,
          "latitude": 46.0620003,
          "longitude": 4.902,
          "distance_km": 7.38
        },
        {
          "code_insee": "01423",
          "nom": "Toussieux",
          "slug": "toussieux",
          "code_postal": "01600",
          "population": 1198,
          "superficie_km2": 5.0,
          "latitude": 45.9599991,
          "longitude": 4.829,
          "distance_km": 7.56
        },
        {
          "code_insee": "01371",
          "nom": "Saint-Marcel",
          "slug": "saint-marcel",
          "code_postal": "01390",
          "population": 1261,
          "superficie_km2": 12.0,
          "latitude": 45.9490013,
          "longitude": 4.9899998,
          "distance_km": 7.98
        },
        {
          "code_insee": "01250",
          "nom": "Misérieux",
          "slug": "miserieux",
          "code_postal": "01600",
          "population": 1994,
          "superficie_km2": 7.0,
          "latitude": 45.9760017,
          "longitude": 4.8099999,
          "distance_km": 8.19
        },
        {
          "code_insee": "01333",
          "nom": "Saint-André-de-Corcy",
          "slug": "saint-andre-de-corcy",
          "code_postal": "01390",
          "population": 3368,
          "superficie_km2": 21.0,
          "latitude": 45.9269981,
          "longitude": 4.954,
          "distance_km": 8.33
        },
        {
          "code_insee": "01105",
          "nom": "Civrieux",
          "slug": "civrieux",
          "code_postal": "01390",
          "population": 1916,
          "superficie_km2": 20.0,
          "latitude": 45.9220009,
          "longitude": 4.8860002,
          "distance_km": 8.47
        },
        {
          "code_insee": "01322",
          "nom": "Reyrieux",
          "slug": "reyrieux",
          "code_postal": "01600",
          "population": 5098,
          "superficie_km2": 16.0,
          "latitude": 45.9370003,
          "longitude": 4.8280001,
          "distance_km": 9.23
        },
        {
          "code_insee": "01353",
          "nom": "Sainte-Euphémie",
          "slug": "sainte-euphemie",
          "code_postal": "01600",
          "population": 1730,
          "superficie_km2": 5.0,
          "latitude": 45.9669991,
          "longitude": 4.7950001,
          "distance_km": 9.6
        },
        {
          "code_insee": "01075",
          "nom": "Chaleins",
          "slug": "chaleins",
          "code_postal": "01480",
          "population": 1430,
          "superficie_km2": 17.0,
          "latitude": 46.0340004,
          "longitude": 4.7979999,
          "distance_km": 9.76
        },
        {
          "code_insee": "01166",
          "nom": "Frans",
          "slug": "frans",
          "code_postal": "01480",
          "population": 2482,
          "superficie_km2": 8.0,
          "latitude": 45.9939995,
          "longitude": 4.7800002,
          "distance_km": 10.2
        },
        {
          "code_insee": "01443",
          "nom": "Villars-les-Dombes",
          "slug": "villars-les-dombes",
          "code_postal": "01330",
          "population": 4954,
          "superficie_km2": 25.0,
          "latitude": 45.993,
          "longitude": 5.0450001,
          "distance_km": 10.28
        },
        {
          "code_insee": "01285",
          "nom": "Parcieux",
          "slug": "parcieux",
          "code_postal": "01600",
          "population": 1319,
          "superficie_km2": 3.0,
          "latitude": 45.9179993,
          "longitude": 4.8280001,
          "distance_km": 10.83
        },
        {
          "code_insee": "01248",
          "nom": "Mionnay",
          "slug": "mionnay",
          "code_postal": "01390",
          "population": 2227,
          "superficie_km2": 20.0,
          "latitude": 45.8959999,
          "longitude": 4.9239998,
          "distance_km": 11.16
        },
        {
          "code_insee": "01347",
          "nom": "Saint-Didier-de-Formans",
          "slug": "saint-didier-de-formans",
          "code_postal": "01600",
          "population": 2141,
          "superficie_km2": 7.0,
          "latitude": 45.9560013,
          "longitude": 4.7779999,
          "distance_km": 11.27
        },
        {
          "code_insee": "01165",
          "nom": "Francheleins",
          "slug": "francheleins",
          "code_postal": "01090",
          "population": 1585,
          "superficie_km2": 14.0,
          "latitude": 46.0740013,
          "longitude": 4.8130002,
          "distance_km": 11.56
        },
        {
          "code_insee": "01238",
          "nom": "Massieux",
          "slug": "massieux",
          "code_postal": "01600",
          "population": 2721,
          "superficie_km2": 3.0,
          "latitude": 45.9090004,
          "longitude": 4.8280001,
          "distance_km": 11.65
        },
        {
          "code_insee": "01083",
          "nom": "Chaneins",
          "slug": "chaneins",
          "code_postal": "01990",
          "population": 1003,
          "superficie_km2": 13.0,
          "latitude": 46.0940018,
          "longitude": 4.855,
          "distance_km": 11.75
        }
      ],
      "zonage_abc": "C",
      "reclassement_abc": "Non",
      "codes_postaux": [
        {
          "code_postal": "01330",
          "libelle_acheminement": "AMBERIEUX EN DOMBES"
        }
      ],
      "logement": {
        "logements_total": 920,
        "residences_principales": 814,
        "logements_vacants": 98,
        "residences_secondaires": 7,
        "maisons": 673,
        "appartements": 243,
        "proprietaires": 594,
        "locataires": 205,
        "hlm": 76,
        "construits_avant_1919": 111,
        "construits_1919_1945": 36,
        "construits_1946_1970": 83,
        "construits_1971_1990": 217,
        "construits_1991_2005": 149,
        "construits_2006_2019": 212,
        "chauffage_electrique": 294,
        "chauffage_fioul": 174,
        "chauffage_gaz_ville": 54,
        "chauffage_gaz_bouteille": 90,
        "chauffage_autre": 200,
        "menages": 814,
        "logements_avant_1990": 447
      },
      "artisans": {
        "monte_escalier": 0,
        "chauffage_pac_clim": 6,
        "isolation": 4,
        "menuiserie": 6,
        "fenetres_velux": 6,
        "couverture_toiture": 0,
        "facade_peinture": 6,
        "portes_volets": 6,
        "piscine": 1,
        "vmc_ventilation": 1,
        "assainissement": 6
      },
      "revenus": {
        "revenu_median": 24380.0,
        "part_menages_imposes": null,
        "taux_pauvrete": null
      },
      "aides_etat": {
        "zone_climatique": "H1",
        "qpv": false,
        "action_coeur_de_ville": false,
        "petites_villes_de_demain": false
      }
    },
    {
      "code_insee": "01009",
      "nom": "Andert-et-Condon",
      "nom_a": null,
      "nom_de": null,
      "slug": "andert-et-condon",
      "code_postal": "01300",
      "population": 348,
      "superficie_km2": 700.67,
      "latitude": 45.7841,
      "longitude": 5.6607,
      "villes_proches": [
        {
          "code_insee": "01098",
          "nom": "Chazey-Bons",
          "slug": "chazey-bons",
          "code_postal": "01300",
          "population": 1142,
          "superficie_km2": 1557.0,
          "latitude": 45.8007,
          "longitude": 5.6678,
          "distance_km": 1.93
        },
        {
          "code_insee": "01358",
          "nom": "Saint-Germain-les-Paroisses",
          "slug": "saint-germain-les-paroisses",
          "code_postal": "01300",
          "population": 422,
          "superficie_km2": 1637.52,
          "latitude": 45.773,
          "longitude": 5.6191,
          "distance_km": 3.45
        },
        {
          "code_insee": "01116",
          "nom": "Contrevoz",
          "slug": "contrevoz",
          "code_postal": "01300",
          "population": 494,
          "superficie_km2": 1423.66,
          "latitude": 45.7971,
          "longitude": 5.6164,
          "distance_km": 3.73
        },
        {
          "code_insee": "01141",
          "nom": "Cuzieu",
          "slug": "cuzieu",
          "code_postal": "01300",
          "population": 424,
          "superficie_km2": 486.45,
          "latitude": 45.8216,
          "longitude": 5.6802,
          "distance_km": 4.44
        },
        {
          "code_insee": "01227",
          "nom": "Magnieu",
          "slug": "magnieu",
          "code_postal": "01300",
          "population": 651,
          "superficie_km2": 1145.92,
          "latitude": 45.7763,
          "longitude": 5.7197,
          "distance_km": 4.66
        },
        {
          "code_insee": "01234",
          "nom": "Marignieu",
          "slug": "marignieu",
          "code_postal": "01300",
          "population": 162,
          "superficie_km2": 350.47,
          "latitude": 45.8023,
          "longitude": 5.718,
          "distance_km": 4.88
        },
        {
          "code_insee": "01034",
          "nom": "Belley",
          "slug": "belley",
          "code_postal": "01300",
          "population": 9388,
          "superficie_km2": 2254.61,
          "latitude": 45.743,
          "longitude": 5.6927,
          "distance_km": 5.2
        },
        {
          "code_insee": "01456",
          "nom": "Vongnes",
          "slug": "vongnes",
          "code_postal": "01350",
          "population": 75,
          "superficie_km2": 210.19,
          "latitude": 45.8122,
          "longitude": 5.7255,
          "distance_km": 5.92
        },
        {
          "code_insee": "01110",
          "nom": "Colomieu",
          "slug": "colomieu",
          "code_postal": "01300",
          "population": 159,
          "superficie_km2": 588.34,
          "latitude": 45.7338,
          "longitude": 5.6269,
          "distance_km": 6.18
        },
        {
          "code_insee": "01100",
          "nom": "Cheignieu-la-Balme",
          "slug": "cheignieu-la-balme",
          "code_postal": "01510",
          "population": 131,
          "superficie_km2": 596.09,
          "latitude": 45.8233,
          "longitude": 5.6022,
          "distance_km": 6.29
        },
        {
          "code_insee": "01006",
          "nom": "Ambléon",
          "slug": "ambleon",
          "code_postal": "01300",
          "population": 115,
          "superficie_km2": 604.01,
          "latitude": 45.7483,
          "longitude": 5.5928,
          "distance_km": 6.6
        },
        {
          "code_insee": "01302",
          "nom": "Pollieu",
          "slug": "pollieu",
          "code_postal": "01350",
          "population": 167,
          "superficie_km2": 364.81,
          "latitude": 45.7953,
          "longitude": 5.7463,
          "distance_km": 6.75
        },
        {
          "code_insee": "01372",
          "nom": "Saint-Martin-de-Bavel",
          "slug": "saint-martin-de-bavel",
          "code_postal": "01510",
          "population": 428,
          "superficie_km2": 858.82,
          "latitude": 45.8467,
          "longitude": 5.6779,
          "distance_km": 7.09
        },
        {
          "code_insee": "01452",
          "nom": "Virieu-le-Grand",
          "slug": "virieu-le-grand",
          "code_postal": "01510",
          "population": 1111,
          "superficie_km2": 1265.38,
          "latitude": 45.8465,
          "longitude": 5.639,
          "distance_km": 7.14
        },
        {
          "code_insee": "01015",
          "nom": "Arboys en Bugey",
          "slug": "arboys-en-bugey",
          "code_postal": "01300",
          "population": 710,
          "superficie_km2": 2260.53,
          "latitude": 45.7189,
          "longitude": 5.6404,
          "distance_km": 7.42
        },
        {
          "code_insee": "01073",
          "nom": "Ceyzérieu",
          "slug": "ceyzerieu",
          "code_postal": "01350",
          "population": 1064,
          "superficie_km2": 1985.6,
          "latitude": 45.8368,
          "longitude": 5.7197,
          "distance_km": 7.43
        },
        {
          "code_insee": "01454",
          "nom": "Virignin",
          "slug": "virignin",
          "code_postal": "01300",
          "population": 1144,
          "superficie_km2": 786.98,
          "latitude": 45.7282,
          "longitude": 5.7149,
          "distance_km": 7.5
        },
        {
          "code_insee": "01329",
          "nom": "Rossillon",
          "slug": "rossillon",
          "code_postal": "01510",
          "population": 166,
          "superficie_km2": 807.91,
          "latitude": 45.8359,
          "longitude": 5.5987,
          "distance_km": 7.5
        },
        {
          "code_insee": "01061",
          "nom": "Brens",
          "slug": "brens",
          "code_postal": "01300",
          "population": 1123,
          "superficie_km2": 688.48,
          "latitude": 45.7163,
          "longitude": 5.69,
          "distance_km": 7.87
        },
        {
          "code_insee": "01117",
          "nom": "Conzieu",
          "slug": "conzieu",
          "code_postal": "01300",
          "population": 155,
          "superficie_km2": 713.11,
          "latitude": 45.7246,
          "longitude": 5.602,
          "distance_km": 8.03
        }
      ],
      "zonage_abc": "C",
      "reclassement_abc": "Non",
      "codes_postaux": [
        {
          "code_postal": "01300",
          "libelle_acheminement": "ANDERT ET CONDON"
        }
      ],
      "logement": {
        "logements_total": 198,
        "residences_principales": 154,
        "logements_vacants": 19,
        "residences_secondaires": 24,
        "maisons": 180,
        "appartements": 18,
        "proprietaires": 132,
        "locataires": 19,
        "hlm": 0,
        "construits_avant_1919": 42,
        "construits_1919_1945": 7,
        "construits_1946_1970": 13,
        "construits_1971_1990": 37,
        "construits_1991_2005": 25,
        "construits_2006_2019": 21,
        "chauffage_electrique": 57,
        "chauffage_fioul": 31,
        "chauffage_gaz_ville": 0,
        "chauffage_gaz_bouteille": 1,
        "chauffage_autre": 63,
        "menages": 154,
        "logements_avant_1990": 99
      },
      "artisans": {
        "monte_escalier": 0,
        "chauffage_pac_clim": 0,
        "isolation": 0,
        "menuiserie": 0,
        "fenetres_velux": 0,
        "couverture_toiture": 0,
        "facade_peinture": 0,
        "portes_volets": 0,
        "piscine": 0,
        "vmc_ventilation": 0,
        "assainissement": 1
      },
      "revenus": {
        "revenu_median": 24410.0,
        "part_menages_imposes": null,
        "taux_pauvrete": null
      },
      "aides_etat": {
        "zone_climatique": "H1",
        "qpv": false,
        "action_coeur_de_ville": false,
        "petites_villes_de_demain": false
      }
    },
    {
      "code_insee": "01010",
      "nom": "Anglefort",
      "nom_a": null,
      "nom_de": null,
      "slug": "anglefort",
      "code_postal": "01350",
      "population": 1125,
      "superficie_km2": 29.0,
      "latitude": 45.9090004,
      "longitude": 5.7950001,
      "villes_proches": [
        {
          "code_insee": "73286",
          "nom": "Serrières-en-Chautagne",
          "slug": "serrieres-en-chautagne",
          "code_postal": "73310",
          "population": 1159,
          "superficie_km2": 19.0,
          "latitude": 45.8810005,
          "longitude": 5.8429999,
          "distance_km": 4.85
        },
        {
          "code_insee": "01407",
          "nom": "Seyssel",
          "slug": "seyssel",
          "code_postal": "01420",
          "population": 1001,
          "superficie_km2": 2.0,
          "latitude": 45.9480019,
          "longitude": 5.8260002,
          "distance_km": 4.96
        },
        {
          "code_insee": "01138",
          "nom": "Culoz-Béon",
          "slug": "culoz-beon",
          "code_postal": "01350",
          "population": 3426,
          "superficie_km2": 19.0,
          "latitude": 45.855999,
          "longitude": 5.7839999,
          "distance_km": 5.95
        },
        {
          "code_insee": "01118",
          "nom": "Corbonod",
          "slug": "corbonod",
          "code_postal": "01420",
          "population": 1296,
          "superficie_km2": 32.0,
          "latitude": 45.9659996,
          "longitude": 5.79,
          "distance_km": 6.35
        },
        {
          "code_insee": "74269",
          "nom": "Seyssel",
          "slug": "seyssel",
          "code_postal": "74910",
          "population": 2342,
          "superficie_km2": 17.0,
          "latitude": 45.9599991,
          "longitude": 5.8530002,
          "distance_km": 7.23
        },
        {
          "code_insee": "01022",
          "nom": "Artemare",
          "slug": "artemare",
          "code_postal": "01510",
          "population": 1177,
          "superficie_km2": 3.0,
          "latitude": 45.8699989,
          "longitude": 5.691,
          "distance_km": 9.14
        },
        {
          "code_insee": "73085",
          "nom": "Chindrieux",
          "slug": "chindrieux",
          "code_postal": "73310",
          "population": 1445,
          "superficie_km2": 20.0,
          "latitude": 45.8129997,
          "longitude": 5.8449998,
          "distance_km": 11.36
        },
        {
          "code_insee": "74289",
          "nom": "Vallières-sur-Fier",
          "slug": "vallieres-sur-fier",
          "code_postal": "74150",
          "population": 2618,
          "superficie_km2": 9.0,
          "latitude": 45.9049988,
          "longitude": 5.9419999,
          "distance_km": 11.38
        },
        {
          "code_insee": "01036",
          "nom": "Valromey-sur-Séran",
          "slug": "valromey-sur-seran",
          "code_postal": "01260",
          "population": 1342,
          "superficie_km2": 20.0,
          "latitude": 45.8849983,
          "longitude": 5.651,
          "distance_km": 11.46
        },
        {
          "code_insee": "74225",
          "nom": "Rumilly",
          "slug": "rumilly",
          "code_postal": "74150",
          "population": 15998,
          "superficie_km2": 17.0,
          "latitude": 45.855999,
          "longitude": 5.941,
          "distance_km": 12.75
        },
        {
          "code_insee": "74255",
          "nom": "Sales",
          "slug": "sales",
          "code_postal": "74150",
          "population": 2210,
          "superficie_km2": 9.0,
          "latitude": 45.882,
          "longitude": 5.96,
          "distance_km": 13.12
        },
        {
          "code_insee": "74283",
          "nom": "Thusy",
          "slug": "thusy",
          "code_postal": "74150",
          "population": 1157,
          "superficie_km2": 11.0,
          "latitude": 45.9500008,
          "longitude": 5.9640002,
          "distance_km": 13.84
        },
        {
          "code_insee": "01452",
          "nom": "Virieu-le-Grand",
          "slug": "virieu-le-grand",
          "code_postal": "01510",
          "population": 1118,
          "superficie_km2": 13.0,
          "latitude": 45.8460007,
          "longitude": 5.6399999,
          "distance_km": 13.89
        },
        {
          "code_insee": "74141",
          "nom": "Hauteville-sur-Fier",
          "slug": "hauteville-sur-fier",
          "code_postal": "74150",
          "population": 1034,
          "superficie_km2": 5.0,
          "latitude": 45.9049988,
          "longitude": 5.9780002,
          "distance_km": 14.17
        },
        {
          "code_insee": "74075",
          "nom": "Chilly",
          "slug": "chilly",
          "code_postal": "74270",
          "population": 1577,
          "superficie_km2": 19.0,
          "latitude": 45.9889984,
          "longitude": 5.9569998,
          "distance_km": 15.36
        },
        {
          "code_insee": "01098",
          "nom": "Chazey-Bons",
          "slug": "chazey-bons",
          "code_postal": "01300",
          "population": 1188,
          "superficie_km2": 11.0,
          "latitude": 45.7929993,
          "longitude": 5.6849999,
          "distance_km": 15.46
        },
        {
          "code_insee": "74292",
          "nom": "Vaulx",
          "slug": "vaulx",
          "code_postal": "74150",
          "population": 1050,
          "superficie_km2": 11.0,
          "latitude": 45.9259987,
          "longitude": 5.9990001,
          "distance_km": 15.89
        },
        {
          "code_insee": "01189",
          "nom": "Injoux-Génissiat",
          "slug": "injoux-genissiat",
          "code_postal": "01200",
          "population": 1123,
          "superficie_km2": 30.0,
          "latitude": 46.0499992,
          "longitude": 5.7600002,
          "distance_km": 15.91
        },
        {
          "code_insee": "74131",
          "nom": "Frangy",
          "slug": "frangy",
          "code_postal": "74270",
          "population": 2049,
          "superficie_km2": 10.0,
          "latitude": 46.0229988,
          "longitude": 5.9229999,
          "distance_km": 16.08
        },
        {
          "code_insee": "74161",
          "nom": "Marcellaz-Albanais",
          "slug": "marcellaz-albanais",
          "code_postal": "74150",
          "population": 1957,
          "superficie_km2": 15.0,
          "latitude": 45.8709984,
          "longitude": 6.0,
          "distance_km": 16.42
        }
      ],
      "zonage_abc": "C",
      "reclassement_abc": "Non",
      "codes_postaux": [
        {
          "code_postal": "01350",
          "libelle_acheminement": "ANGLEFORT"
        }
      ],
      "logement": {
        "logements_total": 615,
        "residences_principales": 495,
        "logements_vacants": 51,
        "residences_secondaires": 68,
        "maisons": 543,
        "appartements": 58,
        "proprietaires": 394,
        "locataires": 92,
        "hlm": 37,
        "construits_avant_1919": 71,
        "construits_1919_1945": 37,
        "construits_1946_1970": 65,
        "construits_1971_1990": 108,
        "construits_1991_2005": 99,
        "construits_2006_2019": 97,
        "chauffage_electrique": 168,
        "chauffage_fioul": 69,
        "chauffage_gaz_ville": 12,
        "chauffage_gaz_bouteille": 10,
        "chauffage_autre": 234,
        "menages": 495,
        "logements_avant_1990": 281
      },
      "artisans": {
        "monte_escalier": 0,
        "chauffage_pac_clim": 1,
        "isolation": 0,
        "menuiserie": 3,
        "fenetres_velux": 3,
        "couverture_toiture": 1,
        "facade_peinture": 1,
        "portes_volets": 3,
        "piscine": 0,
        "vmc_ventilation": 0,
        "assainissement": 1
      },
      "revenus": {
        "revenu_median": 24700.0,
        "part_menages_imposes": null,
        "taux_pauvrete": null
      },
      "aides_etat": {
        "zone_climatique": "H1",
        "qpv": false,
        "action_coeur_de_ville": false,
        "petites_villes_de_demain": false
      }
    },
    {
      "code_insee": "01011",
      "nom": "Apremont",
      "nom_a": null,
      "nom_de": null,
      "slug": "apremont",
      "code_postal": "01100",
      "population": 415,
      "superficie_km2": 1507.23,
      "latitude": 46.2045,
      "longitude": 5.6619,
      "villes_proches": [
        {
          "code_insee": "01087",
          "nom": "Charix",
          "slug": "charix",
          "code_postal": "01130",
          "population": 280,
          "superficie_km2": 1861.16,
          "latitude": 46.1893,
          "longitude": 5.6773,
          "distance_km": 2.06
        },
        {
          "code_insee": "01237",
          "nom": "Martignat",
          "slug": "martignat",
          "code_postal": "01100",
          "population": 1664,
          "superficie_km2": 1308.09,
          "latitude": 46.203,
          "longitude": 5.6099,
          "distance_km": 4.01
        },
        {
          "code_insee": "01181",
          "nom": "Groissiat",
          "slug": "groissiat",
          "code_postal": "01100",
          "population": 1205,
          "superficie_km2": 619.27,
          "latitude": 46.227,
          "longitude": 5.6179,
          "distance_km": 4.21
        },
        {
          "code_insee": "01031",
          "nom": "Bellignat",
          "slug": "bellignat",
          "code_postal": "01100",
          "population": 3525,
          "superficie_km2": 781.94,
          "latitude": 46.2402,
          "longitude": 5.6371,
          "distance_km": 4.4
        },
        {
          "code_insee": "01298",
          "nom": "Plagne",
          "slug": "plagne",
          "code_postal": "01130",
          "population": 159,
          "superficie_km2": 605.52,
          "latitude": 46.1889,
          "longitude": 5.7179,
          "distance_km": 4.65
        },
        {
          "code_insee": "01265",
          "nom": "Montréal-la-Cluse",
          "slug": "montreal-la-cluse",
          "code_postal": "01460",
          "population": 3568,
          "superficie_km2": 1246.11,
          "latitude": 46.181,
          "longitude": 5.5976,
          "distance_km": 5.6
        },
        {
          "code_insee": "01283",
          "nom": "Oyonnax",
          "slug": "oyonnax",
          "code_postal": "01100",
          "population": 22480,
          "superficie_km2": 3612.33,
          "latitude": 46.2599,
          "longitude": 5.6517,
          "distance_km": 6.21
        },
        {
          "code_insee": "01152",
          "nom": "Échallon",
          "slug": "echallon",
          "code_postal": "01130",
          "population": 784,
          "superficie_km2": 2815.41,
          "latitude": 46.2293,
          "longitude": 5.7346,
          "distance_km": 6.24
        },
        {
          "code_insee": "01171",
          "nom": "Géovreisset",
          "slug": "geovreisset",
          "code_postal": "01100",
          "population": 852,
          "superficie_km2": 327.86,
          "latitude": 46.2518,
          "longitude": 5.6163,
          "distance_km": 6.32
        },
        {
          "code_insee": "01357",
          "nom": "Saint-Germain-de-Joux",
          "slug": "saint-germain-de-joux",
          "code_postal": "01130",
          "population": 507,
          "superficie_km2": 1147.81,
          "latitude": 46.1812,
          "longitude": 5.7435,
          "distance_km": 6.79
        },
        {
          "code_insee": "01269",
          "nom": "Nantua",
          "slug": "nantua",
          "code_postal": "01130",
          "population": 3416,
          "superficie_km2": 1453.12,
          "latitude": 46.1486,
          "longitude": 5.6079,
          "distance_km": 7.48
        },
        {
          "code_insee": "01204",
          "nom": "Le Poizat-Lalleyriat",
          "slug": "le-poizat-lalleyriat",
          "code_postal": "01130",
          "population": 732,
          "superficie_km2": 3319.16,
          "latitude": 46.1392,
          "longitude": 5.6955,
          "distance_km": 7.71
        },
        {
          "code_insee": "01274",
          "nom": "Les Neyrolles",
          "slug": "les-neyrolles",
          "code_postal": "01130",
          "population": 628,
          "superficie_km2": 958.36,
          "latitude": 46.1367,
          "longitude": 5.6354,
          "distance_km": 7.81
        },
        {
          "code_insee": "01192",
          "nom": "Izernore",
          "slug": "izernore",
          "code_postal": "01580",
          "population": 2299,
          "superficie_km2": 2133.06,
          "latitude": 46.216,
          "longitude": 5.5609,
          "distance_km": 7.88
        },
        {
          "code_insee": "01307",
          "nom": "Port",
          "slug": "port",
          "code_postal": "01460",
          "population": 832,
          "superficie_km2": 428.83,
          "latitude": 46.1535,
          "longitude": 5.581,
          "distance_km": 8.42
        },
        {
          "code_insee": "01170",
          "nom": "Béard-Géovreissiat",
          "slug": "beard-geovreissiat",
          "code_postal": "01460",
          "population": 1048,
          "superficie_km2": 469.07,
          "latitude": 46.1884,
          "longitude": 5.5497,
          "distance_km": 8.82
        },
        {
          "code_insee": "01014",
          "nom": "Arbent",
          "slug": "arbent",
          "code_postal": "01100",
          "population": 3555,
          "superficie_km2": 2366.87,
          "latitude": 46.2838,
          "longitude": 5.6879,
          "distance_km": 9.04
        },
        {
          "code_insee": "01392",
          "nom": "Samognat",
          "slug": "samognat",
          "code_postal": "01580",
          "population": 630,
          "superficie_km2": 1425.2,
          "latitude": 46.2732,
          "longitude": 5.5826,
          "distance_km": 9.78
        },
        {
          "code_insee": "01373",
          "nom": "Saint-Martin-du-Frêne",
          "slug": "saint-martin-du-frene",
          "code_postal": "01430",
          "population": 1023,
          "superficie_km2": 1950.42,
          "latitude": 46.1345,
          "longitude": 5.5711,
          "distance_km": 10.46
        },
        {
          "code_insee": "01148",
          "nom": "Dortan",
          "slug": "dortan",
          "code_postal": "01590",
          "population": 2074,
          "superficie_km2": 1877.66,
          "latitude": 46.3184,
          "longitude": 5.6443,
          "distance_km": 12.74
        }
      ],
      "zonage_abc": "C",
      "reclassement_abc": "Non",
      "codes_postaux": [
        {
          "code_postal": "01100",
          "libelle_acheminement": "APREMONT"
        }
      ],
      "logement": {
        "logements_total": 200,
        "residences_principales": 169,
        "logements_vacants": 15,
        "residences_secondaires": 16,
        "maisons": 169,
        "appartements": 31,
        "proprietaires": 128,
        "locataires": 38,
        "hlm": 22,
        "construits_avant_1919": 31,
        "construits_1919_1945": 4,
        "construits_1946_1970": 7,
        "construits_1971_1990": 53,
        "construits_1991_2005": 30,
        "construits_2006_2019": 36,
        "chauffage_electrique": 34,
        "chauffage_fioul": 41,
        "chauffage_gaz_ville": 11,
        "chauffage_gaz_bouteille": 6,
        "chauffage_autre": 75,
        "menages": 169,
        "logements_avant_1990": 95
      },
      "artisans": {
        "monte_escalier": 0,
        "chauffage_pac_clim": 0,
        "isolation": 0,
        "menuiserie": 2,
        "fenetres_velux": 2,
        "couverture_toiture": 0,
        "facade_peinture": 2,
        "portes_volets": 2,
        "piscine": 0,
        "vmc_ventilation": 0,
        "assainissement": 0
      },
      "revenus": {
        "revenu_median": 24690.0,
        "part_menages_imposes": null,
        "taux_pauvrete": null
      },
      "aides_etat": {
        "zone_climatique": "H1",
        "qpv": false,
        "action_coeur_de_ville": false,
        "petites_villes_de_demain": false
      }
    },
    {
      "code_insee": "01012",
      "nom": "Aranc",
      "nom_a": null,
      "nom_de": null,
      "slug": "aranc",
      "code_postal": "01110",
      "population": 331,
      "superficie_km2": 2171.31,
      "latitude": 45.9972,
      "longitude": 5.514,
      "villes_proches": [
        {
          "code_insee": "01155",
          "nom": "Évosges",
          "slug": "evosges",
          "code_postal": "01230",
          "population": 142,
          "superficie_km2": 1202.71,
          "latitude": 45.963,
          "longitude": 5.5008,
          "distance_km": 3.94
        },
        {
          "code_insee": "01277",
          "nom": "Nivollet-Montgriffon",
          "slug": "nivollet-montgriffon",
          "code_postal": "01230",
          "population": 122,
          "superficie_km2": 846.1,
          "latitude": 46.0002,
          "longitude": 5.4567,
          "distance_km": 4.44
        },
        {
          "code_insee": "01121",
          "nom": "Corlier",
          "slug": "corlier",
          "code_postal": "01110",
          "population": 116,
          "superficie_km2": 554.59,
          "latitude": 46.0369,
          "longitude": 5.5003,
          "distance_km": 4.54
        },
        {
          "code_insee": "01279",
          "nom": "Oncieu",
          "slug": "oncieu",
          "code_postal": "01230",
          "population": 72,
          "superficie_km2": 755.65,
          "latitude": 45.9685,
          "longitude": 5.4716,
          "distance_km": 4.57
        },
        {
          "code_insee": "01191",
          "nom": "Izenave",
          "slug": "izenave",
          "code_postal": "01430",
          "population": 162,
          "superficie_km2": 1314.12,
          "latitude": 46.038,
          "longitude": 5.5234,
          "distance_km": 4.59
        },
        {
          "code_insee": "01076",
          "nom": "Chaley",
          "slug": "chaley",
          "code_postal": "01230",
          "population": 129,
          "superficie_km2": 463.59,
          "latitude": 45.9511,
          "longitude": 5.5408,
          "distance_km": 5.53
        },
        {
          "code_insee": "01056",
          "nom": "Boyeux-Saint-Jérôme",
          "slug": "boyeux-saint-jerome",
          "code_postal": "01640",
          "population": 367,
          "superficie_km2": 1671.47,
          "latitude": 46.0356,
          "longitude": 5.4616,
          "distance_km": 5.88
        },
        {
          "code_insee": "01206",
          "nom": "Lantenay",
          "slug": "lantenay",
          "code_postal": "01430",
          "population": 260,
          "superficie_km2": 650.51,
          "latitude": 46.0531,
          "longitude": 5.5379,
          "distance_km": 6.48
        },
        {
          "code_insee": "01002",
          "nom": "L'Abergement-de-Varey",
          "slug": "l-abergement-de-varey",
          "code_postal": "01640",
          "population": 270,
          "superficie_km2": 919.01,
          "latitude": 46.0071,
          "longitude": 5.4247,
          "distance_km": 6.98
        },
        {
          "code_insee": "01080",
          "nom": "Champdor-Corcelles",
          "slug": "champdor-corcelles",
          "code_postal": "01110",
          "population": 665,
          "superficie_km2": 3148.7,
          "latitude": 46.0371,
          "longitude": 5.5882,
          "distance_km": 7.25
        },
        {
          "code_insee": "01384",
          "nom": "Saint-Rambert-en-Bugey",
          "slug": "saint-rambert-en-bugey",
          "code_postal": "01230",
          "population": 2190,
          "superficie_km2": 2878.55,
          "latitude": 45.953,
          "longitude": 5.4418,
          "distance_km": 7.44
        },
        {
          "code_insee": "01017",
          "nom": "Argis",
          "slug": "argis",
          "code_postal": "01230",
          "population": 419,
          "superficie_km2": 781.9,
          "latitude": 45.9322,
          "longitude": 5.4819,
          "distance_km": 7.64
        },
        {
          "code_insee": "01282",
          "nom": "Outriaz",
          "slug": "outriaz",
          "code_postal": "01430",
          "population": 263,
          "superficie_km2": 590.22,
          "latitude": 46.0631,
          "longitude": 5.5543,
          "distance_km": 7.96
        },
        {
          "code_insee": "01416",
          "nom": "Tenay",
          "slug": "tenay",
          "code_postal": "01230",
          "population": 1030,
          "superficie_km2": 1319.99,
          "latitude": 45.9222,
          "longitude": 5.5147,
          "distance_km": 8.34
        },
        {
          "code_insee": "01185",
          "nom": "Plateau d'Hauteville",
          "slug": "plateau-d-hauteville",
          "code_postal": "01110",
          "population": 4857,
          "superficie_km2": 10638.44,
          "latitude": 45.9305,
          "longitude": 5.5775,
          "distance_km": 8.89
        },
        {
          "code_insee": "01068",
          "nom": "Cerdon",
          "slug": "cerdon",
          "code_postal": "01450",
          "population": 747,
          "superficie_km2": 1209.81,
          "latitude": 46.075,
          "longitude": 5.4755,
          "distance_km": 9.15
        },
        {
          "code_insee": "01242",
          "nom": "Mérignat",
          "slug": "merignat",
          "code_postal": "01450",
          "population": 129,
          "superficie_km2": 316.75,
          "latitude": 46.065,
          "longitude": 5.4425,
          "distance_km": 9.34
        },
        {
          "code_insee": "01441",
          "nom": "Vieu-d'Izenave",
          "slug": "vieu-d-izenave",
          "code_postal": "01430",
          "population": 719,
          "superficie_km2": 2009.94,
          "latitude": 46.0823,
          "longitude": 5.5555,
          "distance_km": 9.99
        },
        {
          "code_insee": "01200",
          "nom": "Labalme",
          "slug": "labalme",
          "code_postal": "01450",
          "population": 204,
          "superficie_km2": 893.12,
          "latitude": 46.0915,
          "longitude": 5.4945,
          "distance_km": 10.59
        },
        {
          "code_insee": "01013",
          "nom": "Arandas",
          "slug": "arandas",
          "code_postal": "01230",
          "population": 138,
          "superficie_km2": 1405.34,
          "latitude": 45.8885,
          "longitude": 5.4982,
          "distance_km": 12.15
        }
      ],
      "zonage_abc": "C",
      "reclassement_abc": "Non",
      "codes_postaux": [
        {
          "code_postal": "01110",
          "libelle_acheminement": "ARANC"
        }
      ],
      "logement": {
        "logements_total": 220,
        "residences_principales": 156,
        "logements_vacants": 15,
        "residences_secondaires": 48,
        "maisons": 205,
        "appartements": 15,
        "proprietaires": 129,
        "locataires": 21,
        "hlm": 7,
        "construits_avant_1919": 65,
        "construits_1919_1945": 13,
        "construits_1946_1970": 13,
        "construits_1971_1990": 21,
        "construits_1991_2005": 18,
        "construits_2006_2019": 21,
        "chauffage_electrique": 25,
        "chauffage_fioul": 35,
        "chauffage_gaz_ville": 0,
        "chauffage_gaz_bouteille": 3,
        "chauffage_autre": 91,
        "menages": 156,
        "logements_avant_1990": 112
      },
      "artisans": {
        "monte_escalier": 0,
        "chauffage_pac_clim": 2,
        "isolation": 1,
        "menuiserie": 1,
        "fenetres_velux": 1,
        "couverture_toiture": 1,
        "facade_peinture": 1,
        "portes_volets": 1,
        "piscine": 1,
        "vmc_ventilation": 1,
        "assainissement": 1
      },
      "revenus": {
        "revenu_median": 22300.0,
        "part_menages_imposes": null,
        "taux_pauvrete": null
      },
      "aides_etat": {
        "zone_climatique": "H1",
        "qpv": false,
        "action_coeur_de_ville": false,
        "petites_villes_de_demain": false
      }
    },
    {
      "code_insee": "01013",
      "nom": "Arandas",
      "nom_a": null,
      "nom_de": null,
      "slug": "arandas",
      "code_postal": "01230",
      "population": 138,
      "superficie_km2": 1405.34,
      "latitude": 45.8885,
      "longitude": 5.4982,
      "villes_proches": [
        {
          "code_insee": "01111",
          "nom": "Conand",
          "slug": "conand",
          "code_postal": "01230",
          "population": 134,
          "superficie_km2": 1533.55,
          "latitude": 45.8836,
          "longitude": 5.4787,
          "distance_km": 1.6
        },
        {
          "code_insee": "01416",
          "nom": "Tenay",
          "slug": "tenay",
          "code_postal": "01230",
          "population": 1030,
          "superficie_km2": 1319.99,
          "latitude": 45.9222,
          "longitude": 5.5147,
          "distance_km": 3.96
        },
        {
          "code_insee": "01066",
          "nom": "La Burbanche",
          "slug": "la-burbanche",
          "code_postal": "01510",
          "population": 98,
          "superficie_km2": 1101.52,
          "latitude": 45.8629,
          "longitude": 5.548,
          "distance_km": 4.79
        },
        {
          "code_insee": "01411",
          "nom": "Souclin",
          "slug": "souclin",
          "code_postal": "01150",
          "population": 262,
          "superficie_km2": 1330.72,
          "latitude": 45.8811,
          "longitude": 5.4368,
          "distance_km": 4.82
        },
        {
          "code_insee": "01017",
          "nom": "Argis",
          "slug": "argis",
          "code_postal": "01230",
          "population": 419,
          "superficie_km2": 781.9,
          "latitude": 45.9322,
          "longitude": 5.4819,
          "distance_km": 5.02
        },
        {
          "code_insee": "01037",
          "nom": "Bénonces",
          "slug": "benonces",
          "code_postal": "01470",
          "population": 311,
          "superficie_km2": 1536.02,
          "latitude": 45.842,
          "longitude": 5.4834,
          "distance_km": 5.3
        },
        {
          "code_insee": "01311",
          "nom": "Prémillieu",
          "slug": "premillieu",
          "code_postal": "01110",
          "population": 49,
          "superficie_km2": 850.66,
          "latitude": 45.8785,
          "longitude": 5.5657,
          "distance_km": 5.34
        },
        {
          "code_insee": "01107",
          "nom": "Cleyzieu",
          "slug": "cleyzieu",
          "code_postal": "01230",
          "population": 143,
          "superficie_km2": 772.3,
          "latitude": 45.9027,
          "longitude": 5.4317,
          "distance_km": 5.38
        },
        {
          "code_insee": "01444",
          "nom": "Villebois",
          "slug": "villebois",
          "code_postal": "01150",
          "population": 1206,
          "superficie_km2": 1410.65,
          "latitude": 45.8499,
          "longitude": 5.4483,
          "distance_km": 5.77
        },
        {
          "code_insee": "01280",
          "nom": "Ordonnaz",
          "slug": "ordonnaz",
          "code_postal": "01510",
          "population": 151,
          "superficie_km2": 1479.23,
          "latitude": 45.8357,
          "longitude": 5.5439,
          "distance_km": 6.86
        },
        {
          "code_insee": "01076",
          "nom": "Chaley",
          "slug": "chaley",
          "code_postal": "01230",
          "population": 129,
          "superficie_km2": 463.59,
          "latitude": 45.9511,
          "longitude": 5.5408,
          "distance_km": 7.7
        },
        {
          "code_insee": "01185",
          "nom": "Plateau d'Hauteville",
          "slug": "plateau-d-hauteville",
          "code_postal": "01110",
          "population": 4857,
          "superficie_km2": 10638.44,
          "latitude": 45.9305,
          "longitude": 5.5775,
          "distance_km": 7.71
        },
        {
          "code_insee": "01019",
          "nom": "Armix",
          "slug": "armix",
          "code_postal": "01510",
          "population": 25,
          "superficie_km2": 696.88,
          "latitude": 45.8523,
          "longitude": 5.5837,
          "distance_km": 7.75
        },
        {
          "code_insee": "01155",
          "nom": "Évosges",
          "slug": "evosges",
          "code_postal": "01230",
          "population": 142,
          "superficie_km2": 1202.71,
          "latitude": 45.963,
          "longitude": 5.5008,
          "distance_km": 8.29
        },
        {
          "code_insee": "01384",
          "nom": "Saint-Rambert-en-Bugey",
          "slug": "saint-rambert-en-bugey",
          "code_postal": "01230",
          "population": 2190,
          "superficie_km2": 2878.55,
          "latitude": 45.953,
          "longitude": 5.4418,
          "distance_km": 8.39
        },
        {
          "code_insee": "01219",
          "nom": "Lompnas",
          "slug": "lompnas",
          "code_postal": "01680",
          "population": 171,
          "superficie_km2": 1264.32,
          "latitude": 45.8118,
          "longitude": 5.5263,
          "distance_km": 8.8
        },
        {
          "code_insee": "01279",
          "nom": "Oncieu",
          "slug": "oncieu",
          "code_postal": "01230",
          "population": 72,
          "superficie_km2": 755.65,
          "latitude": 45.9685,
          "longitude": 5.4716,
          "distance_km": 9.13
        },
        {
          "code_insee": "01403",
          "nom": "Serrières-de-Briord",
          "slug": "serrieres-de-briord",
          "code_postal": "01470",
          "population": 1317,
          "superficie_km2": 852.38,
          "latitude": 45.8129,
          "longitude": 5.4424,
          "distance_km": 9.45
        },
        {
          "code_insee": "01400",
          "nom": "Seillonnaz",
          "slug": "seillonnaz",
          "code_postal": "01470",
          "population": 134,
          "superficie_km2": 969.03,
          "latitude": 45.8006,
          "longitude": 5.504,
          "distance_km": 9.78
        },
        {
          "code_insee": "01255",
          "nom": "Montagnieu",
          "slug": "montagnieu",
          "code_postal": "01470",
          "population": 668,
          "superficie_km2": 621.42,
          "latitude": 45.802,
          "longitude": 5.4598,
          "distance_km": 10.07
        }
      ],
      "zonage_abc": "C",
      "reclassement_abc": "Non",
      "codes_postaux": [
        {
          "code_postal": "01230",
          "libelle_acheminement": "ARANDAS"
        }
      ],
      "logement": {
        "logements_total": 121,
        "residences_principales": 74,
        "logements_vacants": 11,
        "residences_secondaires": 35,
        "maisons": 117,
        "appartements": 2,
        "proprietaires": 63,
        "locataires": 7,
        "hlm": 2,
        "construits_avant_1919": 41,
        "construits_1919_1945": 7,
        "construits_1946_1970": 5,
        "construits_1971_1990": 10,
        "construits_1991_2005": 6,
        "construits_2006_2019": 3,
        "chauffage_electrique": 8,
        "chauffage_fioul": 17,
        "chauffage_gaz_ville": 1,
        "chauffage_gaz_bouteille": 4,
        "chauffage_autre": 43,
        "menages": 74,
        "logements_avant_1990": 63
      },
      "artisans": {
        "monte_escalier": 0,
        "chauffage_pac_clim": 0,
        "isolation": 0,
        "menuiserie": 0,
        "fenetres_velux": 0,
        "couverture_toiture": 0,
        "facade_peinture": 0,
        "portes_volets": 0,
        "piscine": 0,
        "vmc_ventilation": 0,
        "assainissement": 0
      },
      "revenus": {
        "revenu_median": 22190.0,
        "part_menages_imposes": null,
        "taux_pauvrete": null
      },
      "aides_etat": {
        "zone_climatique": "H1",
        "qpv": false,
        "action_coeur_de_ville": false,
        "petites_villes_de_demain": false
      }
    },
    {
      "code_insee": "01014",
      "nom": "Arbent",
      "nom_a": null,
      "nom_de": null,
      "slug": "arbent",
      "code_postal": "01100",
      "population": 3409,
      "superficie_km2": 24.0,
      "latitude": 46.2840004,
      "longitude": 5.691,
      "villes_proches": [
        {
          "code_insee": "01283",
          "nom": "Oyonnax",
          "slug": "oyonnax",
          "code_postal": "01100",
          "population": 22277,
          "superficie_km2": 36.0,
          "latitude": 46.2599983,
          "longitude": 5.6529999,
          "distance_km": 3.96
        },
        {
          "code_insee": "01148",
          "nom": "Dortan",
          "slug": "dortan",
          "code_postal": "01590",
          "population": 1953,
          "superficie_km2": 19.0,
          "latitude": 46.3129997,
          "longitude": 5.6420002,
          "distance_km": 4.96
        },
        {
          "code_insee": "01031",
          "nom": "Bellignat",
          "slug": "bellignat",
          "code_postal": "01100",
          "population": 3636,
          "superficie_km2": 8.0,
          "latitude": 46.2369995,
          "longitude": 5.6360002,
          "distance_km": 6.72
        },
        {
          "code_insee": "01181",
          "nom": "Groissiat",
          "slug": "groissiat",
          "code_postal": "01100",
          "population": 1230,
          "superficie_km2": 6.0,
          "latitude": 46.2260017,
          "longitude": 5.6110001,
          "distance_km": 8.91
        },
        {
          "code_insee": "39339",
          "nom": "Chassal-Molinges",
          "slug": "chassal-molinges",
          "code_postal": "39360",
          "population": 1128,
          "superficie_km2": 3.0,
          "latitude": 46.3520012,
          "longitude": 5.7639999,
          "distance_km": 9.41
        },
        {
          "code_insee": "01237",
          "nom": "Martignat",
          "slug": "martignat",
          "code_postal": "01100",
          "population": 1671,
          "superficie_km2": 13.0,
          "latitude": 46.2029991,
          "longitude": 5.6139998,
          "distance_km": 10.78
        },
        {
          "code_insee": "01192",
          "nom": "Izernore",
          "slug": "izernore",
          "code_postal": "01580",
          "population": 2267,
          "superficie_km2": 21.0,
          "latitude": 46.2179985,
          "longitude": 5.5630002,
          "distance_km": 12.28
        },
        {
          "code_insee": "39286",
          "nom": "Lavans-lès-Saint-Claude",
          "slug": "lavans-les-saint-claude",
          "code_postal": "39170",
          "population": 2333,
          "superficie_km2": 12.0,
          "latitude": 46.3899994,
          "longitude": 5.777,
          "distance_km": 13.51
        },
        {
          "code_insee": "01265",
          "nom": "Montréal-la-Cluse",
          "slug": "montreal-la-cluse",
          "code_postal": "01460",
          "population": 3541,
          "superficie_km2": 12.0,
          "latitude": 46.1800003,
          "longitude": 5.5949998,
          "distance_km": 13.72
        },
        {
          "code_insee": "01170",
          "nom": "Béard-Géovreissiat",
          "slug": "beard-geovreissiat",
          "code_postal": "01460",
          "population": 1048,
          "superficie_km2": 5.0,
          "latitude": 46.1899986,
          "longitude": 5.5510001,
          "distance_km": 15.01
        },
        {
          "code_insee": "39016",
          "nom": "Arinthod",
          "slug": "arinthod",
          "code_postal": "39240",
          "population": 1131,
          "superficie_km2": 20.0,
          "latitude": 46.4000015,
          "longitude": 5.5890002,
          "distance_km": 15.09
        },
        {
          "code_insee": "01269",
          "nom": "Nantua",
          "slug": "nantua",
          "code_postal": "01130",
          "population": 3449,
          "superficie_km2": 14.0,
          "latitude": 46.1539993,
          "longitude": 5.6139998,
          "distance_km": 15.62
        },
        {
          "code_insee": "39491",
          "nom": "Coteaux du Lizon",
          "slug": "coteaux-du-lizon",
          "code_postal": "39170",
          "population": 2168,
          "superficie_km2": 9.0,
          "latitude": 46.4099999,
          "longitude": 5.7859998,
          "distance_km": 15.79
        },
        {
          "code_insee": "39333",
          "nom": "Moirans-en-Montagne",
          "slug": "moirans-en-montagne",
          "code_postal": "39260",
          "population": 2138,
          "superficie_km2": 28.0,
          "latitude": 46.4389992,
          "longitude": 5.7379999,
          "distance_km": 17.61
        },
        {
          "code_insee": "01373",
          "nom": "Saint-Martin-du-Frêne",
          "slug": "saint-martin-du-frene",
          "code_postal": "01430",
          "population": 1033,
          "superficie_km2": 19.0,
          "latitude": 46.1360016,
          "longitude": 5.5710001,
          "distance_km": 18.87
        },
        {
          "code_insee": "39478",
          "nom": "Saint-Claude",
          "slug": "saint-claude",
          "code_postal": "39200",
          "population": 8727,
          "superficie_km2": 70.0,
          "latitude": 46.4090004,
          "longitude": 5.8759999,
          "distance_km": 19.87
        },
        {
          "code_insee": "01288",
          "nom": "Péron",
          "slug": "peron",
          "code_postal": "01630",
          "population": 2838,
          "superficie_km2": 26.0,
          "latitude": 46.1910019,
          "longitude": 5.9200001,
          "distance_km": 20.42
        },
        {
          "code_insee": "01360",
          "nom": "Saint-Jean-de-Gonville",
          "slug": "saint-jean-de-gonville",
          "code_postal": "01630",
          "population": 1988,
          "superficie_km2": 12.0,
          "latitude": 46.2179985,
          "longitude": 5.9419999,
          "distance_km": 20.65
        },
        {
          "code_insee": "01158",
          "nom": "Farges",
          "slug": "farges",
          "code_postal": "01550",
          "population": 1058,
          "superficie_km2": 14.0,
          "latitude": 46.1660004,
          "longitude": 5.9000001,
          "distance_km": 20.75
        },
        {
          "code_insee": "01419",
          "nom": "Thoiry",
          "slug": "thoiry",
          "code_postal": "01710",
          "population": 6136,
          "superficie_km2": 29.0,
          "latitude": 46.2439995,
          "longitude": 5.9650002,
          "distance_km": 21.53
        }
      ],
      "zonage_abc": "C",
      "reclassement_abc": "Non",
      "codes_postaux": [
        {
          "code_postal": "01100",
          "libelle_acheminement": "ARBENT"
        }
      ],
      "logement": {
        "logements_total": 1531,
        "residences_principales": 1414,
        "logements_vacants": 102,
        "residences_secondaires": 14,
        "maisons": 1011,
        "appartements": 515,
        "proprietaires": 900,
        "locataires": 495,
        "hlm": 351,
        "construits_avant_1919": 61,
        "construits_1919_1945": 35,
        "construits_1946_1970": 169,
        "construits_1971_1990": 621,
        "construits_1991_2005": 266,
        "construits_2006_2019": 207,
        "chauffage_electrique": 322,
        "chauffage_fioul": 149,
        "chauffage_gaz_ville": 732,
        "chauffage_gaz_bouteille": 10,
        "chauffage_autre": 198,
        "menages": 1414,
        "logements_avant_1990": 886
      },
      "artisans": {
        "monte_escalier": 0,
        "chauffage_pac_clim": 10,
        "isolation": 5,
        "menuiserie": 4,
        "fenetres_velux": 4,
        "couverture_toiture": 0,
        "facade_peinture": 5,
        "portes_volets": 4,
        "piscine": 1,
        "vmc_ventilation": 4,
        "assainissement": 6
      },
      "revenus": {
        "revenu_median": 21670.0,
        "part_menages_imposes": 49.0,
        "taux_pauvrete": 10.0
      },
      "aides_etat": {
        "zone_climatique": "H1",
        "qpv": false,
        "action_coeur_de_ville": false,
        "petites_villes_de_demain": false
      }
    },
    {
      "code_insee": "01016",
      "nom": "Arbigny",
      "nom_a": null,
      "nom_de": null,
      "slug": "arbigny",
      "code_postal": "01190",
      "population": 462,
      "superficie_km2": 1754.36,
      "latitude": 46.4808,
      "longitude": 4.9613,
      "villes_proches": [
        {
          "code_insee": "01402",
          "nom": "Sermoyer",
          "slug": "sermoyer",
          "code_postal": "01190",
          "population": 670,
          "superficie_km2": 1694.02,
          "latitude": 46.4987,
          "longitude": 4.9733,
          "distance_km": 2.19
        },
        {
          "code_insee": "01337",
          "nom": "Saint-Bénigne",
          "slug": "saint-benigne",
          "code_postal": "01190",
          "population": 1359,
          "superficie_km2": 1648.39,
          "latitude": 46.4517,
          "longitude": 4.952,
          "distance_km": 3.31
        },
        {
          "code_insee": "71549",
          "nom": "La Truchère",
          "slug": "la-truchere",
          "code_postal": "71290",
          "population": 200,
          "superficie_km2": 514.03,
          "latitude": 46.5134,
          "longitude": 4.9578,
          "distance_km": 3.63
        },
        {
          "code_insee": "01305",
          "nom": "Pont-de-Vaux",
          "slug": "pont-de-vaux",
          "code_postal": "01190",
          "population": 2204,
          "superficie_km2": 775.66,
          "latitude": 46.4415,
          "longitude": 4.9265,
          "distance_km": 5.12
        },
        {
          "code_insee": "01437",
          "nom": "Vescours",
          "slug": "vescours",
          "code_postal": "01560",
          "population": 221,
          "superficie_km2": 1254.06,
          "latitude": 46.4743,
          "longitude": 5.0286,
          "distance_km": 5.2
        },
        {
          "code_insee": "71195",
          "nom": "Farges-lès-Mâcon",
          "slug": "farges-les-macon",
          "code_postal": "71700",
          "population": 223,
          "superficie_km2": 576.89,
          "latitude": 46.5126,
          "longitude": 4.9101,
          "distance_km": 5.28
        },
        {
          "code_insee": "01094",
          "nom": "Chavannes-sur-Reyssouze",
          "slug": "chavannes-sur-reyssouze",
          "code_postal": "01190",
          "population": 726,
          "superficie_km2": 1650.7,
          "latitude": 46.4403,
          "longitude": 5.0069,
          "distance_km": 5.7
        },
        {
          "code_insee": "71366",
          "nom": "Ratenelle",
          "slug": "ratenelle",
          "code_postal": "71290",
          "population": 363,
          "superficie_km2": 804.94,
          "latitude": 46.5247,
          "longitude": 5.0003,
          "distance_km": 5.72
        },
        {
          "code_insee": "71576",
          "nom": "Le Villars",
          "slug": "le-villars",
          "code_postal": "71700",
          "population": 274,
          "superficie_km2": 563.63,
          "latitude": 46.5302,
          "longitude": 4.9205,
          "distance_km": 6.32
        },
        {
          "code_insee": "71550",
          "nom": "Uchizy",
          "slug": "uchizy",
          "code_postal": "71700",
          "population": 831,
          "superficie_km2": 1258.76,
          "latitude": 46.5017,
          "longitude": 4.8839,
          "distance_km": 6.36
        },
        {
          "code_insee": "71305",
          "nom": "Montbellet",
          "slug": "montbellet",
          "code_postal": "71260",
          "population": 870,
          "superficie_km2": 1939.98,
          "latitude": 46.4715,
          "longitude": 4.8778,
          "distance_km": 6.48
        },
        {
          "code_insee": "71359",
          "nom": "Préty",
          "slug": "prety",
          "code_postal": "71290",
          "population": 582,
          "superficie_km2": 1240.3,
          "latitude": 46.5402,
          "longitude": 4.9544,
          "distance_km": 6.63
        },
        {
          "code_insee": "01323",
          "nom": "Reyssouze",
          "slug": "reyssouze",
          "code_postal": "01190",
          "population": 996,
          "superficie_km2": 962.87,
          "latitude": 46.4284,
          "longitude": 4.9145,
          "distance_km": 6.84
        },
        {
          "code_insee": "01175",
          "nom": "Gorrevod",
          "slug": "gorrevod",
          "code_postal": "01190",
          "population": 815,
          "superficie_km2": 688.56,
          "latitude": 46.4157,
          "longitude": 4.9507,
          "distance_km": 7.28
        },
        {
          "code_insee": "71591",
          "nom": "Fleurville",
          "slug": "fleurville",
          "code_postal": "71260",
          "population": 492,
          "superficie_km2": 391.61,
          "latitude": 46.4428,
          "longitude": 4.8788,
          "distance_km": 7.6
        },
        {
          "code_insee": "71353",
          "nom": "Plottes",
          "slug": "plottes",
          "code_postal": "71700",
          "population": 558,
          "superficie_km2": 1010.67,
          "latitude": 46.5351,
          "longitude": 4.8862,
          "distance_km": 8.34
        },
        {
          "code_insee": "01057",
          "nom": "Boz",
          "slug": "boz",
          "code_postal": "01190",
          "population": 513,
          "superficie_km2": 769.11,
          "latitude": 46.4089,
          "longitude": 4.9166,
          "distance_km": 8.7
        },
        {
          "code_insee": "71158",
          "nom": "Cuisery",
          "slug": "cuisery",
          "code_postal": "71290",
          "population": 1576,
          "superficie_km2": 1140.79,
          "latitude": 46.5562,
          "longitude": 4.9943,
          "distance_km": 8.76
        },
        {
          "code_insee": "01352",
          "nom": "Saint-Étienne-sur-Reyssouze",
          "slug": "saint-etienne-sur-reyssouze",
          "code_postal": "01190",
          "population": 572,
          "superficie_km2": 1400.17,
          "latitude": 46.3998,
          "longitude": 5.0031,
          "distance_km": 9.56
        },
        {
          "code_insee": "71248",
          "nom": "Lacrost",
          "slug": "lacrost",
          "code_postal": "71700",
          "population": 690,
          "superficie_km2": 1049.72,
          "latitude": 46.5723,
          "longitude": 4.9402,
          "distance_km": 10.3
        }
      ],
      "zonage_abc": "C",
      "reclassement_abc": "Non",
      "codes_postaux": [
        {
          "code_postal": "01190",
          "libelle_acheminement": "ARBIGNY"
        }
      ],
      "logement": {
        "logements_total": 219,
        "residences_principales": 186,
        "logements_vacants": 16,
        "residences_secondaires": 17,
        "maisons": 216,
        "appartements": 2,
        "proprietaires": 165,
        "locataires": 16,
        "hlm": 3,
        "construits_avant_1919": 74,
        "construits_1919_1945": 15,
        "construits_1946_1970": 12,
        "construits_1971_1990": 27,
        "construits_1991_2005": 18,
        "construits_2006_2019": 37,
        "chauffage_electrique": 44,
        "chauffage_fioul": 31,
        "chauffage_gaz_ville": 5,
        "chauffage_gaz_bouteille": 8,
        "chauffage_autre": 96,
        "menages": 186,
        "logements_avant_1990": 128
      },
      "artisans": {
        "monte_escalier": 1,
        "chauffage_pac_clim": 0,
        "isolation": 1,
        "menuiserie": 4,
        "fenetres_velux": 4,
        "couverture_toiture": 0,
        "facade_peinture": 0,
        "portes_volets": 4,
        "piscine": 1,
        "vmc_ventilation": 0,
        "assainissement": 0
      },
      "revenus": {
        "revenu_median": 22280.0,
        "part_menages_imposes": null,
        "taux_pauvrete": null
      },
      "aides_etat": {
        "zone_climatique": "H1",
        "qpv": false,
        "action_coeur_de_ville": false,
        "petites_villes_de_demain": false
      }
    },
    {
      "code_insee": "01015",
      "nom": "Arboys en Bugey",
      "nom_a": null,
      "nom_de": null,
      "slug": "arboys-en-bugey",
      "code_postal": "01300",
      "population": 710,
      "superficie_km2": 2260.53,
      "latitude": 45.7189,
      "longitude": 5.6404,
      "villes_proches": [
        {
          "code_insee": "01110",
          "nom": "Colomieu",
          "slug": "colomieu",
          "code_postal": "01300",
          "population": 159,
          "superficie_km2": 588.34,
          "latitude": 45.7338,
          "longitude": 5.6269,
          "distance_km": 1.96
        },
        {
          "code_insee": "01117",
          "nom": "Conzieu",
          "slug": "conzieu",
          "code_postal": "01300",
          "population": 155,
          "superficie_km2": 713.11,
          "latitude": 45.7246,
          "longitude": 5.602,
          "distance_km": 3.05
        },
        {
          "code_insee": "01061",
          "nom": "Brens",
          "slug": "brens",
          "code_postal": "01300",
          "population": 1123,
          "superficie_km2": 688.48,
          "latitude": 45.7163,
          "longitude": 5.69,
          "distance_km": 3.86
        },