{
  "departement": {
    "code": "08",
    "nom": "Ardennes",
    "slug": "ardennes",
    "population_totale": 267422
  },
  "region": {
    "id": 7,
    "code": "06",
    "nom": "Grand Est",
    "slug": "grand-est"
  },
  "voisins": [
    {
      "dep_code": "10",
      "dep_nom": "Aube",
      "dep_slug": "aube"
    },
    {
      "dep_code": "51",
      "dep_nom": "Marne",
      "dep_slug": "marne"
    },
    {
      "dep_code": "52",
      "dep_nom": "Haute-Marne",
      "dep_slug": "haute-marne"
    },
    {
      "dep_code": "54",
      "dep_nom": "Meurthe-et-Moselle",
      "dep_slug": "meurthe-et-moselle"
    }
  ],
  "communes_count": 447,
  "communes": [
    {
      "code_insee": "08001",
      "nom": "Acy-Romance",
      "nom_a": null,
      "nom_de": null,
      "slug": "acy-romance",
      "code_postal": "08300",
      "population": 479,
      "superficie_km2": 1105.01,
      "latitude": 49.4915,
      "longitude": 4.3269,
      "villes_proches": [
        {
          "code_insee": "08403",
          "nom": "Sault-lès-Rethel",
          "slug": "sault-les-rethel",
          "code_postal": "08300",
          "population": 1900,
          "superficie_km2": 653.34,
          "latitude": 49.4905,
          "longitude": 4.3552,
          "distance_km": 2.05
        },
        {
          "code_insee": "08313",
          "nom": "Nanteuil-sur-Aisne",
          "slug": "nanteuil-sur-aisne",
          "code_postal": "08300",
          "population": 150,
          "superficie_km2": 798.25,
          "latitude": 49.5014,
          "longitude": 4.2976,
          "distance_km": 2.39
        },
        {
          "code_insee": "08048",
          "nom": "Barby",
          "slug": "barby",
          "code_postal": "08300",
          "population": 389,
          "superficie_km2": 1121.91,
          "latitude": 49.5252,
          "longitude": 4.3144,
          "distance_km": 3.85
        },
        {
          "code_insee": "08064",
          "nom": "Biermes",
          "slug": "biermes",
          "code_postal": "08300",
          "population": 316,
          "superficie_km2": 796.09,
          "latitude": 49.4769,
          "longitude": 4.3815,
          "distance_km": 4.27
        },
        {
          "code_insee": "08362",
          "nom": "Rethel",
          "slug": "rethel",
          "code_postal": "08300",
          "population": 7444,
          "superficie_km2": 1862.8,
          "latitude": 49.5147,
          "longitude": 4.3814,
          "distance_km": 4.71
        },
        {
          "code_insee": "08435",
          "nom": "Tagnon",
          "slug": "tagnon",
          "code_postal": "08300",
          "population": 901,
          "superficie_km2": 2396.47,
          "latitude": 49.4511,
          "longitude": 4.2902,
          "distance_km": 5.22
        },
        {
          "code_insee": "08339",
          "nom": "Perthes",
          "slug": "perthes",
          "code_postal": "08300",
          "population": 303,
          "superficie_km2": 2362.06,
          "latitude": 49.4487,
          "longitude": 4.3605,
          "distance_km": 5.34
        },
        {
          "code_insee": "08038",
          "nom": "Avançon",
          "slug": "avancon",
          "code_postal": "08300",
          "population": 341,
          "superficie_km2": 2128.51,
          "latitude": 49.4782,
          "longitude": 4.2541,
          "distance_km": 5.46
        },
        {
          "code_insee": "08438",
          "nom": "Taizy",
          "slug": "taizy",
          "code_postal": "08360",
          "population": 99,
          "superficie_km2": 911.19,
          "latitude": 49.512,
          "longitude": 4.2555,
          "distance_km": 5.64
        },
        {
          "code_insee": "08021",
          "nom": "Arnicourt",
          "slug": "arnicourt",
          "code_postal": "08300",
          "population": 148,
          "superficie_km2": 836.45,
          "latitude": 49.5543,
          "longitude": 4.34,
          "distance_km": 7.05
        },
        {
          "code_insee": "08107",
          "nom": "Château-Porcien",
          "slug": "chateau-porcien",
          "code_postal": "08360",
          "population": 1285,
          "superficie_km2": 1732.74,
          "latitude": 49.5324,
          "longitude": 4.2482,
          "distance_km": 7.28
        },
        {
          "code_insee": "08452",
          "nom": "Thugny-Trugny",
          "slug": "thugny-trugny",
          "code_postal": "08300",
          "population": 243,
          "superficie_km2": 1339.22,
          "latitude": 49.4756,
          "longitude": 4.425,
          "distance_km": 7.3
        },
        {
          "code_insee": "08427",
          "nom": "Sorbon",
          "slug": "sorbon",
          "code_postal": "08300",
          "population": 222,
          "superficie_km2": 1450.08,
          "latitude": 49.5527,
          "longitude": 4.3639,
          "distance_km": 7.31
        },
        {
          "code_insee": "08062",
          "nom": "Bertoncourt",
          "slug": "bertoncourt",
          "code_postal": "08300",
          "population": 129,
          "superficie_km2": 679.22,
          "latitude": 49.5377,
          "longitude": 4.3996,
          "distance_km": 7.34
        },
        {
          "code_insee": "08150",
          "nom": "Écly",
          "slug": "ecly",
          "code_postal": "08300",
          "population": 169,
          "superficie_km2": 934.03,
          "latitude": 49.5529,
          "longitude": 4.2841,
          "distance_km": 7.49
        },
        {
          "code_insee": "08234",
          "nom": "Inaumont",
          "slug": "inaumont",
          "code_postal": "08300",
          "population": 138,
          "superficie_km2": 472.17,
          "latitude": 49.5617,
          "longitude": 4.3219,
          "distance_km": 7.81
        },
        {
          "code_insee": "08111",
          "nom": "Le Châtelet-sur-Retourne",
          "slug": "le-chatelet-sur-retourne",
          "code_postal": "08300",
          "population": 774,
          "superficie_km2": 982.84,
          "latitude": 49.4113,
          "longitude": 4.2774,
          "distance_km": 9.61
        },
        {
          "code_insee": "08314",
          "nom": "Neuflize",
          "slug": "neuflize",
          "code_postal": "08300",
          "population": 855,
          "superficie_km2": 1368.97,
          "latitude": 49.405,
          "longitude": 4.311,
          "distance_km": 9.69
        },
        {
          "code_insee": "08005",
          "nom": "Alincourt",
          "slug": "alincourt",
          "code_postal": "08310",
          "population": 160,
          "superficie_km2": 890.56,
          "latitude": 49.4009,
          "longitude": 4.345,
          "distance_km": 10.16
        },
        {
          "code_insee": "08219",
          "nom": "Hauteville",
          "slug": "hauteville",
          "code_postal": "08300",
          "population": 119,
          "superficie_km2": 556.73,
          "latitude": 49.5836,
          "longitude": 4.2959,
          "distance_km": 10.48
        }
      ],
      "zonage_abc": "C",
      "reclassement_abc": "Non",
      "codes_postaux": [
        {
          "code_postal": "08300",
          "libelle_acheminement": "ACY ROMANCE"
        }
      ],
      "logement": {
        "logements_total": 215,
        "residences_principales": 203,
        "logements_vacants": 11,
        "residences_secondaires": 1,
        "maisons": 209,
        "appartements": 5,
        "proprietaires": 166,
        "locataires": 31,
        "hlm": 0,
        "construits_avant_1919": 6,
        "construits_1919_1945": 37,
        "construits_1946_1970": 54,
        "construits_1971_1990": 47,
        "construits_1991_2005": 23,
        "construits_2006_2019": 33,
        "chauffage_electrique": 57,
        "chauffage_fioul": 81,
        "chauffage_gaz_ville": 0,
        "chauffage_gaz_bouteille": 10,
        "chauffage_autre": 53,
        "menages": 203,
        "logements_avant_1990": 144
      },
      "artisans": {
        "monte_escalier": 0,
        "chauffage_pac_clim": 1,
        "isolation": 0,
        "menuiserie": 0,
        "fenetres_velux": 0,
        "couverture_toiture": 0,
        "facade_peinture": 1,
        "portes_volets": 0,
        "piscine": 1,
        "vmc_ventilation": 0,
        "assainissement": 1
      },
      "revenus": {
        "revenu_median": 25100.0,
        "part_menages_imposes": null,
        "taux_pauvrete": null
      },
      "aides_etat": {
        "zone_climatique": "H1",
        "qpv": false,
        "action_coeur_de_ville": false,
        "petites_villes_de_demain": false
      }
    },
    {
      "code_insee": "08003",
      "nom": "Aiglemont",
      "nom_a": null,
      "nom_de": null,
      "slug": "aiglemont",
      "code_postal": "08090",
      "population": 1659,
      "superficie_km2": 9.0,
      "latitude": 49.7900009,
      "longitude": 4.77,
      "villes_proches": [
        {
          "code_insee": "08298",
          "nom": "Montcy-Notre-Dame",
          "slug": "montcy-notre-dame",
          "code_postal": "08090",
          "population": 1585,
          "superficie_km2": 6.0,
          "latitude": 49.7910004,
          "longitude": 4.744,
          "distance_km": 1.87
        },
        {
          "code_insee": "08385",
          "nom": "Saint-Laurent",
          "slug": "saint-laurent",
          "code_postal": "08090",
          "population": 1070,
          "superficie_km2": 4.0,
          "latitude": 49.7589989,
          "longitude": 4.776,
          "distance_km": 3.47
        },
        {
          "code_insee": "08328",
          "nom": "Nouzonville",
          "slug": "nouzonville",
          "code_postal": "08700",
          "population": 5592,
          "superficie_km2": 11.0,
          "latitude": 49.8199997,
          "longitude": 4.7540002,
          "distance_km": 3.53
        },
        {
          "code_insee": "08105",
          "nom": "Charleville-Mézières",
          "slug": "charleville-mezieres",
          "code_postal": "08000",
          "population": 46398,
          "superficie_km2": 32.0,
          "latitude": 49.7750015,
          "longitude": 4.717,
          "distance_km": 4.15
        },
        {
          "code_insee": "08480",
          "nom": "Villers-Semeuse",
          "slug": "villers-semeuse",
          "code_postal": "08000",
          "population": 3608,
          "superficie_km2": 7.0,
          "latitude": 49.7410011,
          "longitude": 4.7509999,
          "distance_km": 5.62
        },
        {
          "code_insee": "08263",
          "nom": "Lumes",
          "slug": "lumes",
          "code_postal": "08440",
          "population": 1106,
          "superficie_km2": 6.0,
          "latitude": 49.7350006,
          "longitude": 4.7870002,
          "distance_km": 6.24
        },
        {
          "code_insee": "08081",
          "nom": "Bogny-sur-Meuse",
          "slug": "bogny-sur-meuse",
          "code_postal": "08120",
          "population": 5006,
          "superficie_km2": 23.0,
          "latitude": 49.8479996,
          "longitude": 4.7509999,
          "distance_km": 6.59
        },
        {
          "code_insee": "08488",
          "nom": "Vivier-au-Court",
          "slug": "vivier-au-court",
          "code_postal": "08440",
          "population": 2892,
          "superficie_km2": 9.0,
          "latitude": 49.7319984,
          "longitude": 4.8239999,
          "distance_km": 7.53
        },
        {
          "code_insee": "08346",
          "nom": "Prix-lès-Mézières",
          "slug": "prix-les-mezieres",
          "code_postal": "08000",
          "population": 1351,
          "superficie_km2": 5.0,
          "latitude": 49.7480011,
          "longitude": 4.6859999,
          "distance_km": 7.63
        },
        {
          "code_insee": "08497",
          "nom": "Warcq",
          "slug": "warcq",
          "code_postal": "08000",
          "population": 1253,
          "superficie_km2": 9.0,
          "latitude": 49.7680016,
          "longitude": 4.6659999,
          "distance_km": 7.86
        },
        {
          "code_insee": "08180",
          "nom": "La Francheville",
          "slug": "la-francheville",
          "code_postal": "08000",
          "population": 1657,
          "superficie_km2": 7.0,
          "latitude": 49.7260017,
          "longitude": 4.7069998,
          "distance_km": 8.43
        },
        {
          "code_insee": "08491",
          "nom": "Vrigne aux Bois",
          "slug": "vrigne-aux-bois",
          "code_postal": "08350",
          "population": 3540,
          "superficie_km2": 8.0,
          "latitude": 49.7369995,
          "longitude": 4.8559999,
          "distance_km": 8.54
        },
        {
          "code_insee": "08327",
          "nom": "Nouvion-sur-Meuse",
          "slug": "nouvion-sur-meuse",
          "code_postal": "08160",
          "population": 2226,
          "superficie_km2": 9.0,
          "latitude": 49.7089996,
          "longitude": 4.7979999,
          "distance_km": 9.23
        },
        {
          "code_insee": "08457",
          "nom": "Tournes",
          "slug": "tournes",
          "code_postal": "08090",
          "population": 1056,
          "superficie_km2": 8.0,
          "latitude": 49.7989998,
          "longitude": 4.6399999,
          "distance_km": 9.38
        },
        {
          "code_insee": "08142",
          "nom": "Donchery",
          "slug": "donchery",
          "code_postal": "08350",
          "population": 1989,
          "superficie_km2": 28.0,
          "latitude": 49.737999,
          "longitude": 4.8899999,
          "distance_km": 10.38
        },
        {
          "code_insee": "08173",
          "nom": "Flize",
          "slug": "flize",
          "code_postal": "08160",
          "population": 1695,
          "superficie_km2": 2.0,
          "latitude": 49.6949997,
          "longitude": 4.7750001,
          "distance_km": 10.57
        },
        {
          "code_insee": "08139",
          "nom": "Deville",
          "slug": "deville",
          "code_postal": "08800",
          "population": 1044,
          "superficie_km2": 8.0,
          "latitude": 49.875,
          "longitude": 4.6939998,
          "distance_km": 10.91
        },
        {
          "code_insee": "08140",
          "nom": "Dom-le-Mesnil",
          "slug": "dom-le-mesnil",
          "code_postal": "08160",
          "population": 1057,
          "superficie_km2": 8.0,
          "latitude": 49.6860008,
          "longitude": 4.8099999,
          "distance_km": 11.92
        },
        {
          "code_insee": "08302",
          "nom": "Monthermé",
          "slug": "montherme",
          "code_postal": "08800",
          "population": 2170,
          "superficie_km2": 33.0,
          "latitude": 49.9000015,
          "longitude": 4.7480001,
          "distance_km": 12.33
        },
        {
          "code_insee": "08448",
          "nom": "Thilay",
          "slug": "thilay",
          "code_postal": "08800",
          "population": 1007,
          "superficie_km2": 36.0,
          "latitude": 49.9000015,
          "longitude": 4.8080001,
          "distance_km": 12.53
        }
      ],
      "zonage_abc": "C",
      "reclassement_abc": "Non",
      "codes_postaux": [
        {
          "code_postal": "08090",
          "libelle_acheminement": "AIGLEMONT"
        }
      ],
      "logement": {
        "logements_total": 802,
        "residences_principales": 748,
        "logements_vacants": 45,
        "residences_secondaires": 7,
        "maisons": 778,
        "appartements": 23,
        "proprietaires": 628,
        "locataires": 113,
        "hlm": 17,
        "construits_avant_1919": 73,
        "construits_1919_1945": 46,
        "construits_1946_1970": 203,
        "construits_1971_1990": 262,
        "construits_1991_2005": 37,
        "construits_2006_2019": 78,
        "chauffage_electrique": 168,
        "chauffage_fioul": 70,
        "chauffage_gaz_ville": 372,
        "chauffage_gaz_bouteille": 2,
        "chauffage_autre": 134,
        "menages": 748,
        "logements_avant_1990": 584
      },
      "artisans": {
        "monte_escalier": 0,
        "chauffage_pac_clim": 1,
        "isolation": 2,
        "menuiserie": 3,
        "fenetres_velux": 3,
        "couverture_toiture": 2,
        "facade_peinture": 6,
        "portes_volets": 3,
        "piscine": 4,
        "vmc_ventilation": 1,
        "assainissement": 2
      },
      "revenus": {
        "revenu_median": 23780.0,
        "part_menages_imposes": null,
        "taux_pauvrete": null
      },
      "aides_etat": {
        "zone_climatique": "H1",
        "qpv": false,
        "action_coeur_de_ville": false,
        "petites_villes_de_demain": false
      }
    },
    {
      "code_insee": "08004",
      "nom": "Aire",
      "nom_a": null,
      "nom_de": null,
      "slug": "aire",
      "code_postal": "08190",
      "population": 251,
      "superficie_km2": 675.9,
      "latitude": 49.4695,
      "longitude": 4.1624,
      "villes_proches": [
        {
          "code_insee": "08070",
          "nom": "Blanzy-la-Salonnaise",
          "slug": "blanzy-la-salonnaise",
          "code_postal": "08190",
          "population": 378,
          "superficie_km2": 1221.65,
          "latitude": 49.4851,
          "longitude": 4.1861,
          "distance_km": 2.44
        },
        {
          "code_insee": "08044",
          "nom": "Balham",
          "slug": "balham",
          "code_postal": "08190",
          "population": 140,
          "superficie_km2": 177.61,
          "latitude": 49.4915,
          "longitude": 4.1523,
          "distance_km": 2.55
        },
        {
          "code_insee": "08024",
          "nom": "Asfeld",
          "slug": "asfeld",
          "code_postal": "08190",
          "population": 1082,
          "superficie_km2": 2210.27,
          "latitude": 49.4767,
          "longitude": 4.1235,
          "distance_km": 2.92
        },
        {
          "code_insee": "08473",
          "nom": "Vieux-lès-Asfeld",
          "slug": "vieux-les-asfeld",
          "code_postal": "08190",
          "population": 294,
          "superficie_km2": 666.47,
          "latitude": 49.4539,
          "longitude": 4.1102,
          "distance_km": 4.15
        },
        {
          "code_insee": "08386",
          "nom": "Saint-Loup-en-Champagne",
          "slug": "saint-loup-en-champagne",
          "code_postal": "08300",
          "population": 345,
          "superficie_km2": 1576.36,
          "latitude": 49.4526,
          "longitude": 4.2165,
          "distance_km": 4.34
        },
        {
          "code_insee": "08195",
          "nom": "Gomont",
          "slug": "gomont",
          "code_postal": "08190",
          "population": 317,
          "superficie_km2": 718.03,
          "latitude": 49.5127,
          "longitude": 4.1703,
          "distance_km": 4.84
        },
        {
          "code_insee": "08404",
          "nom": "Sault-Saint-Remy",
          "slug": "sault-saint-remy",
          "code_postal": "08190",
          "population": 207,
          "superficie_km2": 969.45,
          "latitude": 49.4236,
          "longitude": 4.1568,
          "distance_km": 5.12
        },
        {
          "code_insee": "08368",
          "nom": "Roizy",
          "slug": "roizy",
          "code_postal": "08190",
          "population": 226,
          "superficie_km2": 1103.75,
          "latitude": 49.4268,
          "longitude": 4.1909,
          "distance_km": 5.18
        },
        {
          "code_insee": "08229",
          "nom": "Houdilcourt",
          "slug": "houdilcourt",
          "code_postal": "08190",
          "population": 150,
          "superficie_km2": 1126.63,
          "latitude": 49.4239,
          "longitude": 4.1255,
          "distance_km": 5.73
        },
        {
          "code_insee": "08381",
          "nom": "Saint-Germainmont",
          "slug": "saint-germainmont",
          "code_postal": "08190",
          "population": 806,
          "superficie_km2": 1572.87,
          "latitude": 49.5176,
          "longitude": 4.1313,
          "distance_km": 5.8
        },
        {
          "code_insee": "08225",
          "nom": "Herpy-l'Arlésienne",
          "slug": "herpy-l-arlesienne",
          "code_postal": "08360",
          "population": 208,
          "superficie_km2": 1062.27,
          "latitude": 49.5243,
          "longitude": 4.1855,
          "distance_km": 6.32
        },
        {
          "code_insee": "08038",
          "nom": "Avançon",
          "slug": "avancon",
          "code_postal": "08300",
          "population": 341,
          "superficie_km2": 2128.51,
          "latitude": 49.4782,
          "longitude": 4.2541,
          "distance_km": 6.7
        },
        {
          "code_insee": "08039",
          "nom": "Avaux",
          "slug": "avaux",
          "code_postal": "08190",
          "population": 520,
          "superficie_km2": 1326.7,
          "latitude": 49.4654,
          "longitude": 4.0685,
          "distance_km": 6.8
        },
        {
          "code_insee": "08476",
          "nom": "Villers-devant-le-Thour",
          "slug": "villers-devant-le-thour",
          "code_postal": "08190",
          "population": 414,
          "superficie_km2": 1647.84,
          "latitude": 49.5048,
          "longitude": 4.0797,
          "distance_km": 7.15
        },
        {
          "code_insee": "08340",
          "nom": "Poilcourt-Sydney",
          "slug": "poilcourt-sydney",
          "code_postal": "08190",
          "population": 176,
          "superficie_km2": 789.31,
          "latitude": 49.4206,
          "longitude": 4.095,
          "distance_km": 7.3
        },
        {
          "code_insee": "08148",
          "nom": "L'Écaille",
          "slug": "l-ecaille",
          "code_postal": "08300",
          "population": 263,
          "superficie_km2": 911.34,
          "latitude": 49.4098,
          "longitude": 4.2098,
          "distance_km": 7.47
        },
        {
          "code_insee": "08126",
          "nom": "Condé-lès-Herpy",
          "slug": "conde-les-herpy",
          "code_postal": "08360",
          "population": 218,
          "superficie_km2": 1160.27,
          "latitude": 49.5387,
          "longitude": 4.1929,
          "distance_km": 8.0
        },
        {
          "code_insee": "08397",
          "nom": "Saint-Remy-le-Petit",
          "slug": "saint-remy-le-petit",
          "code_postal": "08300",
          "population": 56,
          "superficie_km2": 745.53,
          "latitude": 49.3995,
          "longitude": 4.2316,
          "distance_km": 9.25
        },
        {
          "code_insee": "51074",
          "nom": "Boult-sur-Suippe",
          "slug": "boult-sur-suippe",
          "code_postal": "51110",
          "population": 1793,
          "superficie_km2": 1970.84,
          "latitude": 49.3774,
          "longitude": 4.1517,
          "distance_km": 10.27
        },
        {
          "code_insee": "51043",
          "nom": "Bazancourt",
          "slug": "bazancourt",
          "code_postal": "51110",
          "population": 2495,
          "superficie_km2": 1165.3,
          "latitude": 49.371,
          "longitude": 4.1704,
          "distance_km": 10.97
        }
      ],
      "zonage_abc": "C",
      "reclassement_abc": "Non",
      "codes_postaux": [
        {
          "code_postal": "08190",
          "libelle_acheminement": "AIRE"
        }
      ],
      "logement": {
        "logements_total": 105,
        "residences_principales": 96,
        "logements_vacants": 3,
        "residences_secondaires": 6,
        "maisons": 101,
        "appartements": 4,
        "proprietaires": 77,
        "locataires": 17,
        "hlm": 0,
        "construits_avant_1919": 9,
        "construits_1919_1945": 33,
        "construits_1946_1970": 20,
        "construits_1971_1990": 12,
        "construits_1991_2005": 11,
        "construits_2006_2019": 10,
        "chauffage_electrique": 18,
        "chauffage_fioul": 37,
        "chauffage_gaz_ville": 0,
        "chauffage_gaz_bouteille": 8,
        "chauffage_autre": 32,
        "menages": 96,
        "logements_avant_1990": 74
      },
      "artisans": {
        "monte_escalier": 0,
        "chauffage_pac_clim": 0,
        "isolation": 0,
        "menuiserie": 1,
        "fenetres_velux": 1,
        "couverture_toiture": 1,
        "facade_peinture": 0,
        "portes_volets": 1,
        "piscine": 1,
        "vmc_ventilation": 0,
        "assainissement": 0
      },
      "revenus": {
        "revenu_median": 22430.0,
        "part_menages_imposes": null,
        "taux_pauvrete": null
      },
      "aides_etat": {
        "zone_climatique": "H1",
        "qpv": false,
        "action_coeur_de_ville": false,
        "petites_villes_de_demain": false
      }
    },
    {
      "code_insee": "08005",
      "nom": "Alincourt",
      "nom_a": null,
      "nom_de": null,
      "slug": "alincourt",
      "code_postal": "08310",
      "population": 160,
      "superficie_km2": 890.56,
      "latitude": 49.4009,
      "longitude": 4.345,
      "villes_proches": [
        {
          "code_insee": "08239",
          "nom": "Juniville",
          "slug": "juniville",
          "code_postal": "08310",
          "population": 1224,
          "superficie_km2": 2608.69,
          "latitude": 49.4007,
          "longitude": 4.378,
          "distance_km": 2.39
        },
        {
          "code_insee": "08314",
          "nom": "Neuflize",
          "slug": "neuflize",
          "code_postal": "08300",
          "population": 855,
          "superficie_km2": 1368.97,
          "latitude": 49.405,
          "longitude": 4.311,
          "distance_km": 2.5
        },
        {
          "code_insee": "08111",
          "nom": "Le Châtelet-sur-Retourne",
          "slug": "le-chatelet-sur-retourne",
          "code_postal": "08300",
          "population": 774,
          "superficie_km2": 982.84,
          "latitude": 49.4113,
          "longitude": 4.2774,
          "distance_km": 5.03
        },
        {
          "code_insee": "08287",
          "nom": "Ménil-Lépinois",
          "slug": "menil-lepinois",
          "code_postal": "08310",
          "population": 148,
          "superficie_km2": 1789.92,
          "latitude": 49.3718,
          "longitude": 4.29,
          "distance_km": 5.13
        },
        {
          "code_insee": "08339",
          "nom": "Perthes",
          "slug": "perthes",
          "code_postal": "08300",
          "population": 303,
          "superficie_km2": 2362.06,
          "latitude": 49.4487,
          "longitude": 4.3605,
          "distance_km": 5.43
        },
        {
          "code_insee": "08066",
          "nom": "Bignicourt",
          "slug": "bignicourt",
          "code_postal": "08310",
          "population": 65,
          "superficie_km2": 870.95,
          "latitude": 49.3902,
          "longitude": 4.4212,
          "distance_km": 5.64
        },
        {
          "code_insee": "08014",
          "nom": "Annelles",
          "slug": "annelles",
          "code_postal": "08310",
          "population": 127,
          "superficie_km2": 1273.92,
          "latitude": 49.4341,
          "longitude": 4.4141,
          "distance_km": 6.21
        },
        {
          "code_insee": "08032",
          "nom": "Aussonce",
          "slug": "aussonce",
          "code_postal": "08310",
          "population": 236,
          "superficie_km2": 1943.0,
          "latitude": 49.3432,
          "longitude": 4.3252,
          "distance_km": 6.57
        },
        {
          "code_insee": "08435",
          "nom": "Tagnon",
          "slug": "tagnon",
          "code_postal": "08300",
          "population": 901,
          "superficie_km2": 2396.47,
          "latitude": 49.4511,
          "longitude": 4.2902,
          "distance_km": 6.85
        },
        {
          "code_insee": "08060",
          "nom": "Bergnicourt",
          "slug": "bergnicourt",
          "code_postal": "08300",
          "population": 292,
          "superficie_km2": 825.42,
          "latitude": 49.4119,
          "longitude": 4.2489,
          "distance_km": 7.06
        },
        {
          "code_insee": "08320",
          "nom": "La Neuville-en-Tourne-à-Fuy",
          "slug": "la-neuville-en-tourne-a-fuy",
          "code_postal": "08310",
          "population": 533,
          "superficie_km2": 2736.65,
          "latitude": 49.3461,
          "longitude": 4.3965,
          "distance_km": 7.14
        },
        {
          "code_insee": "08484",
          "nom": "Ville-sur-Retourne",
          "slug": "ville-sur-retourne",
          "code_postal": "08310",
          "population": 73,
          "superficie_km2": 959.27,
          "latitude": 49.3952,
          "longitude": 4.4488,
          "distance_km": 7.54
        },
        {
          "code_insee": "08286",
          "nom": "Ménil-Annelles",
          "slug": "menil-annelles",
          "code_postal": "08310",
          "population": 95,
          "superficie_km2": 920.91,
          "latitude": 49.4346,
          "longitude": 4.4472,
          "distance_km": 8.29
        },
        {
          "code_insee": "08064",
          "nom": "Biermes",
          "slug": "biermes",
          "code_postal": "08300",
          "population": 316,
          "superficie_km2": 796.09,
          "latitude": 49.4769,
          "longitude": 4.3815,
          "distance_km": 8.85
        },
        {
          "code_insee": "51293",
          "nom": "Heutrégiville",
          "slug": "heutregiville",
          "code_postal": "51110",
          "population": 508,
          "superficie_km2": 1178.77,
          "latitude": 49.3312,
          "longitude": 4.2596,
          "distance_km": 9.92
        },
        {
          "code_insee": "08403",
          "nom": "Sault-lès-Rethel",
          "slug": "sault-les-rethel",
          "code_postal": "08300",
          "population": 1900,
          "superficie_km2": 653.34,
          "latitude": 49.4905,
          "longitude": 4.3552,
          "distance_km": 9.99
        },
        {
          "code_insee": "08452",
          "nom": "Thugny-Trugny",
          "slug": "thugny-trugny",
          "code_postal": "08300",
          "population": 243,
          "superficie_km2": 1339.22,
          "latitude": 49.4756,
          "longitude": 4.425,
          "distance_km": 10.12
        },
        {
          "code_insee": "08001",
          "nom": "Acy-Romance",
          "slug": "acy-romance",
          "code_postal": "08300",
          "population": 479,
          "superficie_km2": 1105.01,
          "latitude": 49.4915,
          "longitude": 4.3269,
          "distance_km": 10.16
        },
        {
          "code_insee": "08313",
          "nom": "Nanteuil-sur-Aisne",
          "slug": "nanteuil-sur-aisne",
          "code_postal": "08300",
          "population": 150,
          "superficie_km2": 798.25,
          "latitude": 49.5014,
          "longitude": 4.2976,
          "distance_km": 11.69
        },
        {
          "code_insee": "51054",
          "nom": "Bétheniville",
          "slug": "betheniville",
          "code_postal": "51490",
          "population": 1259,
          "superficie_km2": 1769.13,
          "latitude": 49.2929,
          "longitude": 4.3672,
          "distance_km": 12.12
        }
      ],
      "zonage_abc": "C",
      "reclassement_abc": "Non",
      "codes_postaux": [
        {
          "code_postal": "08310",
          "libelle_acheminement": "ALINCOURT"
        }
      ],
      "logement": {
        "logements_total": 61,
        "residences_principales": 57,
        "logements_vacants": 4,
        "residences_secondaires": 0,
        "maisons": 60,
        "appartements": 1,
        "proprietaires": 48,
        "locataires": 7,
        "hlm": 0,
        "construits_avant_1919": 4,
        "construits_1919_1945": 10,
        "construits_1946_1970": 9,
        "construits_1971_1990": 9,
        "construits_1991_2005": 8,
        "construits_2006_2019": 16,
        "chauffage_electrique": 18,
        "chauffage_fioul": 14,
        "chauffage_gaz_ville": 0,
        "chauffage_gaz_bouteille": 3,
        "chauffage_autre": 21,
        "menages": 57,
        "logements_avant_1990": 32
      },
      "artisans": {
        "monte_escalier": 0,
        "chauffage_pac_clim": 0,
        "isolation": 0,
        "menuiserie": 0,
        "fenetres_velux": 0,
        "couverture_toiture": 0,
        "facade_peinture": 0,
        "portes_volets": 0,
        "piscine": 1,
        "vmc_ventilation": 0,
        "assainissement": 0
      },
      "revenus": {
        "revenu_median": 25250.0,
        "part_menages_imposes": null,
        "taux_pauvrete": null
      },
      "aides_etat": {
        "zone_climatique": "H1",
        "qpv": false,
        "action_coeur_de_ville": false,
        "petites_villes_de_demain": false
      }
    },
    {
      "code_insee": "08006",
      "nom": "Alland'Huy-et-Sausseuil",
      "nom_a": null,
      "nom_de": null,
      "slug": "alland-huy-et-sausseuil",
      "code_postal": "08130",
      "population": 272,
      "superficie_km2": 870.68,
      "latitude": 49.5117,
      "longitude": 4.5467,
      "villes_proches": [
        {
          "code_insee": "08193",
          "nom": "Givry",
          "slug": "givry",
          "code_postal": "08130",
          "population": 266,
          "superficie_km2": 1188.62,
          "latitude": 49.4883,
          "longitude": 4.5344,
          "distance_km": 2.75
        },
        {
          "code_insee": "08008",
          "nom": "Amagne",
          "slug": "amagne",
          "code_postal": "08300",
          "population": 814,
          "superficie_km2": 937.38,
          "latitude": 49.5133,
          "longitude": 4.504,
          "distance_km": 3.09
        },
        {
          "code_insee": "08103",
          "nom": "Charbogne",
          "slug": "charbogne",
          "code_postal": "08130",
          "population": 218,
          "superficie_km2": 904.81,
          "latitude": 49.5078,
          "longitude": 4.5903,
          "distance_km": 3.18
        },
        {
          "code_insee": "08428",
          "nom": "Sorcy-Bauthémont",
          "slug": "sorcy-bauthemont",
          "code_postal": "08270",
          "population": 146,
          "superficie_km2": 1113.11,
          "latitude": 49.5411,
          "longitude": 4.5353,
          "distance_km": 3.37
        },
        {
          "code_insee": "08151",
          "nom": "Écordal",
          "slug": "ecordal",
          "code_postal": "08130",
          "population": 283,
          "superficie_km2": 1296.39,
          "latitude": 49.5341,
          "longitude": 4.5883,
          "distance_km": 3.9
        },
        {
          "code_insee": "08165",
          "nom": "Faux",
          "slug": "faux",
          "code_postal": "08270",
          "population": 64,
          "superficie_km2": 327.01,
          "latitude": 49.5378,
          "longitude": 4.5063,
          "distance_km": 4.11
        },
        {
          "code_insee": "08010",
          "nom": "Ambly-Fleury",
          "slug": "ambly-fleury",
          "code_postal": "08130",
          "population": 132,
          "superficie_km2": 578.92,
          "latitude": 49.4901,
          "longitude": 4.4904,
          "distance_km": 4.72
        },
        {
          "code_insee": "08025",
          "nom": "Attigny",
          "slug": "attigny",
          "code_postal": "08130",
          "population": 1094,
          "superficie_km2": 1162.35,
          "latitude": 49.4756,
          "longitude": 4.5915,
          "distance_km": 5.16
        },
        {
          "code_insee": "08117",
          "nom": "Chesnois-Auboncourt",
          "slug": "chesnois-auboncourt",
          "code_postal": "08270",
          "population": 159,
          "superficie_km2": 479.17,
          "latitude": 49.5621,
          "longitude": 4.5633,
          "distance_km": 5.73
        },
        {
          "code_insee": "08384",
          "nom": "Saint-Lambert-et-Mont-de-Jeux",
          "slug": "saint-lambert-et-mont-de-jeux",
          "code_postal": "08130",
          "population": 123,
          "superficie_km2": 1077.88,
          "latitude": 49.498,
          "longitude": 4.6233,
          "distance_km": 5.74
        },
        {
          "code_insee": "08262",
          "nom": "Lucquy",
          "slug": "lucquy",
          "code_postal": "08300",
          "population": 584,
          "superficie_km2": 507.65,
          "latitude": 49.5382,
          "longitude": 4.4759,
          "distance_km": 5.9
        },
        {
          "code_insee": "08398",
          "nom": "Sainte-Vaubourg",
          "slug": "sainte-vaubourg",
          "code_postal": "08130",
          "population": 79,
          "superficie_km2": 689.47,
          "latitude": 49.4594,
          "longitude": 4.5909,
          "distance_km": 6.63
        },
        {
          "code_insee": "08462",
          "nom": "Vaux-Champagne",
          "slug": "vaux-champagne",
          "code_postal": "08130",
          "population": 148,
          "superficie_km2": 1081.98,
          "latitude": 49.449,
          "longitude": 4.5517,
          "distance_km": 6.98
        },
        {
          "code_insee": "08027",
          "nom": "Auboncourt-Vauzelles",
          "slug": "auboncourt-vauzelles",
          "code_postal": "08270",
          "population": 95,
          "superficie_km2": 528.72,
          "latitude": 49.5574,
          "longitude": 4.4803,
          "distance_km": 6.98
        },
        {
          "code_insee": "08306",
          "nom": "Mont-Laurent",
          "slug": "mont-laurent",
          "code_postal": "08130",
          "population": 51,
          "superficie_km2": 685.67,
          "latitude": 49.463,
          "longitude": 4.4828,
          "distance_km": 7.12
        },
        {
          "code_insee": "08402",
          "nom": "Saulces-Monclin",
          "slug": "saulces-monclin",
          "code_postal": "08270",
          "population": 837,
          "superficie_km2": 2021.04,
          "latitude": 49.5732,
          "longitude": 4.5094,
          "distance_km": 7.35
        },
        {
          "code_insee": "08401",
          "nom": "Saulces-Champenoises",
          "slug": "saulces-champenoises",
          "code_postal": "08130",
          "population": 219,
          "superficie_km2": 2268.79,
          "latitude": 49.447,
          "longitude": 4.5056,
          "distance_km": 7.78
        },
        {
          "code_insee": "08467",
          "nom": "Vaux-Montreuil",
          "slug": "vaux-montreuil",
          "code_postal": "08270",
          "population": 110,
          "superficie_km2": 835.53,
          "latitude": 49.5858,
          "longitude": 4.5546,
          "distance_km": 8.26
        },
        {
          "code_insee": "08500",
          "nom": "Wignicourt",
          "slug": "wignicourt",
          "code_postal": "08270",
          "population": 57,
          "superficie_km2": 446.89,
          "latitude": 49.5868,
          "longitude": 4.5832,
          "distance_km": 8.76
        },
        {
          "code_insee": "08348",
          "nom": "Puiseux",
          "slug": "puiseux",
          "code_postal": "08270",
          "population": 108,
          "superficie_km2": 345.92,
          "latitude": 49.5947,
          "longitude": 4.5367,
          "distance_km": 9.26
        }
      ],
      "zonage_abc": "C",
      "reclassement_abc": "Non",
      "codes_postaux": [
        {
          "code_postal": "08130",
          "libelle_acheminement": "ALLAND HUY ET SAUSSEUIL"
        }
      ],
      "logement": {
        "logements_total": 134,
        "residences_principales": 111,
        "logements_vacants": 13,
        "residences_secondaires": 10,
        "maisons": 131,
        "appartements": 2,
        "proprietaires": 93,
        "locataires": 15,
        "hlm": 0,
        "construits_avant_1919": 46,
        "construits_1919_1945": 17,
        "construits_1946_1970": 20,
        "construits_1971_1990": 13,
        "construits_1991_2005": 6,
        "construits_2006_2019": 9,
        "chauffage_electrique": 18,
        "chauffage_fioul": 43,
        "chauffage_gaz_ville": 0,
        "chauffage_gaz_bouteille": 3,
        "chauffage_autre": 47,
        "menages": 111,
        "logements_avant_1990": 96
      },
      "artisans": {
        "monte_escalier": 0,
        "chauffage_pac_clim": 1,
        "isolation": 2,
        "menuiserie": 0,
        "fenetres_velux": 0,
        "couverture_toiture": 3,
        "facade_peinture": 0,
        "portes_volets": 0,
        "piscine": 0,
        "vmc_ventilation": 1,
        "assainissement": 0
      },
      "revenus": {
        "revenu_median": 20970.0,
        "part_menages_imposes": null,
        "taux_pauvrete": null
      },
      "aides_etat": {
        "zone_climatique": "H1",
        "qpv": false,
        "action_coeur_de_ville": false,
        "petites_villes_de_demain": false
      }
    },
    {
      "code_insee": "08008",
      "nom": "Amagne",
      "nom_a": null,
      "nom_de": null,
      "slug": "amagne",
      "code_postal": "08300",
      "population": 814,
      "superficie_km2": 937.38,
      "latitude": 49.5133,
      "longitude": 4.504,
      "villes_proches": [
        {
          "code_insee": "08165",
          "nom": "Faux",
          "slug": "faux",
          "code_postal": "08270",
          "population": 64,
          "superficie_km2": 327.01,
          "latitude": 49.5378,
          "longitude": 4.5063,
          "distance_km": 2.73
        },
        {
          "code_insee": "08010",
          "nom": "Ambly-Fleury",
          "slug": "ambly-fleury",
          "code_postal": "08130",
          "population": 132,
          "superficie_km2": 578.92,
          "latitude": 49.4901,
          "longitude": 4.4904,
          "distance_km": 2.76
        },
        {
          "code_insee": "08006",
          "nom": "Alland'Huy-et-Sausseuil",
          "slug": "alland-huy-et-sausseuil",
          "code_postal": "08130",
          "population": 272,
          "superficie_km2": 870.68,
          "latitude": 49.5117,
          "longitude": 4.5467,
          "distance_km": 3.09
        },
        {
          "code_insee": "08133",
          "nom": "Coucy",
          "slug": "coucy",
          "code_postal": "08300",
          "population": 536,
          "superficie_km2": 642.63,
          "latitude": 49.5095,
          "longitude": 4.4604,
          "distance_km": 3.18
        },
        {
          "code_insee": "08262",
          "nom": "Lucquy",
          "slug": "lucquy",
          "code_postal": "08300",
          "population": 584,
          "superficie_km2": 507.65,
          "latitude": 49.5382,
          "longitude": 4.4759,
          "distance_km": 3.43
        },
        {
          "code_insee": "08193",
          "nom": "Givry",
          "slug": "givry",
          "code_postal": "08130",
          "population": 266,
          "superficie_km2": 1188.62,
          "latitude": 49.4883,
          "longitude": 4.5344,
          "distance_km": 3.54
        },
        {
          "code_insee": "08428",
          "nom": "Sorcy-Bauthémont",
          "slug": "sorcy-bauthemont",
          "code_postal": "08270",
          "population": 146,
          "superficie_km2": 1113.11,
          "latitude": 49.5411,
          "longitude": 4.5353,
          "distance_km": 3.83
        },
        {
          "code_insee": "08027",
          "nom": "Auboncourt-Vauzelles",
          "slug": "auboncourt-vauzelles",
          "code_postal": "08270",
          "population": 95,
          "superficie_km2": 528.72,
          "latitude": 49.5574,
          "longitude": 4.4803,
          "distance_km": 5.19
        },
        {
          "code_insee": "08144",
          "nom": "Doux",
          "slug": "doux",
          "code_postal": "08300",
          "population": 102,
          "superficie_km2": 652.0,
          "latitude": 49.5189,
          "longitude": 4.4294,
          "distance_km": 5.42
        },
        {
          "code_insee": "08416",
          "nom": "Seuil",
          "slug": "seuil",
          "code_postal": "08300",
          "population": 185,
          "superficie_km2": 1175.86,
          "latitude": 49.4764,
          "longitude": 4.4495,
          "distance_km": 5.69
        },
        {
          "code_insee": "08330",
          "nom": "Novy-Chevrières",
          "slug": "novy-chevrieres",
          "code_postal": "08300",
          "population": 715,
          "superficie_km2": 1727.23,
          "latitude": 49.5443,
          "longitude": 4.4406,
          "distance_km": 5.73
        },
        {
          "code_insee": "08306",
          "nom": "Mont-Laurent",
          "slug": "mont-laurent",
          "code_postal": "08130",
          "population": 51,
          "superficie_km2": 685.67,
          "latitude": 49.463,
          "longitude": 4.4828,
          "distance_km": 5.8
        },
        {
          "code_insee": "08103",
          "nom": "Charbogne",
          "slug": "charbogne",
          "code_postal": "08130",
          "population": 218,
          "superficie_km2": 904.81,
          "latitude": 49.5078,
          "longitude": 4.5903,
          "distance_km": 6.26
        },
        {
          "code_insee": "08151",
          "nom": "Écordal",
          "slug": "ecordal",
          "code_postal": "08130",
          "population": 283,
          "superficie_km2": 1296.39,
          "latitude": 49.5341,
          "longitude": 4.5883,
          "distance_km": 6.51
        },
        {
          "code_insee": "08402",
          "nom": "Saulces-Monclin",
          "slug": "saulces-monclin",
          "code_postal": "08270",
          "population": 837,
          "superficie_km2": 2021.04,
          "latitude": 49.5732,
          "longitude": 4.5094,
          "distance_km": 6.67
        },
        {
          "code_insee": "08117",
          "nom": "Chesnois-Auboncourt",
          "slug": "chesnois-auboncourt",
          "code_postal": "08270",
          "population": 159,
          "superficie_km2": 479.17,
          "latitude": 49.5621,
          "longitude": 4.5633,
          "distance_km": 6.91
        },
        {
          "code_insee": "08452",
          "nom": "Thugny-Trugny",
          "slug": "thugny-trugny",
          "code_postal": "08300",
          "population": 243,
          "superficie_km2": 1339.22,
          "latitude": 49.4756,
          "longitude": 4.425,
          "distance_km": 7.08
        },
        {
          "code_insee": "08401",
          "nom": "Saulces-Champenoises",
          "slug": "saulces-champenoises",
          "code_postal": "08130",
          "population": 219,
          "superficie_km2": 2268.79,
          "latitude": 49.447,
          "longitude": 4.5056,
          "distance_km": 7.37
        },
        {
          "code_insee": "08462",
          "nom": "Vaux-Champagne",
          "slug": "vaux-champagne",
          "code_postal": "08130",
          "population": 148,
          "superficie_km2": 1081.98,
          "latitude": 49.449,
          "longitude": 4.5517,
          "distance_km": 7.94
        },
        {
          "code_insee": "08348",
          "nom": "Puiseux",
          "slug": "puiseux",
          "code_postal": "08270",
          "population": 108,
          "superficie_km2": 345.92,
          "latitude": 49.5947,
          "longitude": 4.5367,
          "distance_km": 9.35
        }
      ],
      "zonage_abc": "C",
      "reclassement_abc": "Non",
      "codes_postaux": [
        {
          "code_postal": "08300",
          "libelle_acheminement": "AMAGNE"
        }
      ],
      "logement": {
        "logements_total": 373,
        "residences_principales": 321,
        "logements_vacants": 41,
        "residences_secondaires": 10,
        "maisons": 357,
        "appartements": 14,
        "proprietaires": 250,
        "locataires": 64,
        "hlm": 19,
        "construits_avant_1919": 30,
        "construits_1919_1945": 61,
        "construits_1946_1970": 74,
        "construits_1971_1990": 60,
        "construits_1991_2005": 29,
        "construits_2006_2019": 55,
        "chauffage_electrique": 95,
        "chauffage_fioul": 79,
        "chauffage_gaz_ville": 0,
        "chauffage_gaz_bouteille": 4,
        "chauffage_autre": 140,
        "menages": 321,
        "logements_avant_1990": 225
      },
      "artisans": {
        "monte_escalier": 0,
        "chauffage_pac_clim": 2,
        "isolation": 1,
        "menuiserie": 0,
        "fenetres_velux": 0,
        "couverture_toiture": 1,
        "facade_peinture": 3,
        "portes_volets": 0,
        "piscine": 2,
        "vmc_ventilation": 0,
        "assainissement": 3
      },
      "revenus": {
        "revenu_median": 20660.0,
        "part_menages_imposes": null,
        "taux_pauvrete": null
      },
      "aides_etat": {
        "zone_climatique": "H1",
        "qpv": false,
        "action_coeur_de_ville": false,
        "petites_villes_de_demain": false
      }
    },
    {
      "code_insee": "08010",
      "nom": "Ambly-Fleury",
      "nom_a": null,
      "nom_de": null,
      "slug": "ambly-fleury",
      "code_postal": "08130",
      "population": 132,
      "superficie_km2": 578.92,
      "latitude": 49.4901,
      "longitude": 4.4904,
      "villes_proches": [
        {
          "code_insee": "08008",
          "nom": "Amagne",
          "slug": "amagne",
          "code_postal": "08300",
          "population": 814,
          "superficie_km2": 937.38,
          "latitude": 49.5133,
          "longitude": 4.504,
          "distance_km": 2.76
        },
        {
          "code_insee": "08306",
          "nom": "Mont-Laurent",
          "slug": "mont-laurent",
          "code_postal": "08130",
          "population": 51,
          "superficie_km2": 685.67,
          "latitude": 49.463,
          "longitude": 4.4828,
          "distance_km": 3.06
        },
        {
          "code_insee": "08133",
          "nom": "Coucy",
          "slug": "coucy",
          "code_postal": "08300",
          "population": 536,
          "superficie_km2": 642.63,
          "latitude": 49.5095,
          "longitude": 4.4604,
          "distance_km": 3.06
        },
        {
          "code_insee": "08193",
          "nom": "Givry",
          "slug": "givry",
          "code_postal": "08130",
          "population": 266,
          "superficie_km2": 1188.62,
          "latitude": 49.4883,
          "longitude": 4.5344,
          "distance_km": 3.18
        },
        {
          "code_insee": "08416",
          "nom": "Seuil",
          "slug": "seuil",
          "code_postal": "08300",
          "population": 185,
          "superficie_km2": 1175.86,
          "latitude": 49.4764,
          "longitude": 4.4495,
          "distance_km": 3.32
        },
        {
          "code_insee": "08006",
          "nom": "Alland'Huy-et-Sausseuil",
          "slug": "alland-huy-et-sausseuil",
          "code_postal": "08130",
          "population": 272,
          "superficie_km2": 870.68,
          "latitude": 49.5117,
          "longitude": 4.5467,
          "distance_km": 4.72
        },
        {
          "code_insee": "08401",
          "nom": "Saulces-Champenoises",
          "slug": "saulces-champenoises",
          "code_postal": "08130",
          "population": 219,
          "superficie_km2": 2268.79,
          "latitude": 49.447,
          "longitude": 4.5056,
          "distance_km": 4.92
        },
        {
          "code_insee": "08452",
          "nom": "Thugny-Trugny",
          "slug": "thugny-trugny",
          "code_postal": "08300",
          "population": 243,
          "superficie_km2": 1339.22,
          "latitude": 49.4756,
          "longitude": 4.425,
          "distance_km": 4.99
        },
        {
          "code_insee": "08165",
          "nom": "Faux",
          "slug": "faux",
          "code_postal": "08270",
          "population": 64,
          "superficie_km2": 327.01,
          "latitude": 49.5378,
          "longitude": 4.5063,
          "distance_km": 5.43
        },
        {
          "code_insee": "08262",
          "nom": "Lucquy",
          "slug": "lucquy",
          "code_postal": "08300",
          "population": 584,
          "superficie_km2": 507.65,
          "latitude": 49.5382,
          "longitude": 4.4759,
          "distance_km": 5.45
        },
        {
          "code_insee": "08144",
          "nom": "Doux",
          "slug": "doux",
          "code_postal": "08300",
          "population": 102,
          "superficie_km2": 652.0,
          "latitude": 49.5189,
          "longitude": 4.4294,
          "distance_km": 5.45
        },
        {
          "code_insee": "08462",
          "nom": "Vaux-Champagne",
          "slug": "vaux-champagne",
          "code_postal": "08130",
          "population": 148,
          "superficie_km2": 1081.98,
          "latitude": 49.449,
          "longitude": 4.5517,
          "distance_km": 6.36
        },
        {
          "code_insee": "08428",
          "nom": "Sorcy-Bauthémont",
          "slug": "sorcy-bauthemont",
          "code_postal": "08270",
          "population": 146,
          "superficie_km2": 1113.11,
          "latitude": 49.5411,
          "longitude": 4.5353,
          "distance_km": 6.53
        },
        {
          "code_insee": "08286",
          "nom": "Ménil-Annelles",
          "slug": "menil-annelles",
          "code_postal": "08310",
          "population": 95,
          "superficie_km2": 920.91,
          "latitude": 49.4346,
          "longitude": 4.4472,
          "distance_km": 6.92
        },
        {
          "code_insee": "08330",
          "nom": "Novy-Chevrières",
          "slug": "novy-chevrieres",
          "code_postal": "08300",
          "population": 715,
          "superficie_km2": 1727.23,
          "latitude": 49.5443,
          "longitude": 4.4406,
          "distance_km": 7.02
        },
        {
          "code_insee": "08027",
          "nom": "Auboncourt-Vauzelles",
          "slug": "auboncourt-vauzelles",
          "code_postal": "08270",
          "population": 95,
          "superficie_km2": 528.72,
          "latitude": 49.5574,
          "longitude": 4.4803,
          "distance_km": 7.52
        },
        {
          "code_insee": "08014",
          "nom": "Annelles",
          "slug": "annelles",
          "code_postal": "08310",
          "population": 127,
          "superficie_km2": 1273.92,
          "latitude": 49.4341,
          "longitude": 4.4141,
          "distance_km": 8.32
        },
        {
          "code_insee": "08338",
          "nom": "Pauvres",
          "slug": "pauvres",
          "code_postal": "08310",
          "population": 194,
          "superficie_km2": 1259.34,
          "latitude": 49.4131,
          "longitude": 4.4996,
          "distance_km": 8.59
        },
        {
          "code_insee": "08402",
          "nom": "Saulces-Monclin",
          "slug": "saulces-monclin",
          "code_postal": "08270",
          "population": 837,
          "superficie_km2": 2021.04,
          "latitude": 49.5732,
          "longitude": 4.5094,
          "distance_km": 9.34
        },
        {
          "code_insee": "08147",
          "nom": "Dricourt",
          "slug": "dricourt",
          "code_postal": "08310",
          "population": 70,
          "superficie_km2": 727.35,
          "latitude": 49.3941,
          "longitude": 4.5216,
          "distance_km": 10.91
        }
      ],
      "zonage_abc": "C",
      "reclassement_abc": "Non",
      "codes_postaux": [
        {
          "code_postal": "08130",
          "libelle_acheminement": "AMBLY FLEURY"
        }
      ],
      "logement": {
        "logements_total": 90,
        "residences_principales": 58,
        "logements_vacants": 11,
        "residences_secondaires": 20,
        "maisons": 89,
        "appartements": 1,
        "proprietaires": 50,
        "locataires": 5,
        "hlm": 0,
        "construits_avant_1919": 7,
        "construits_1919_1945": 19,
        "construits_1946_1970": 18,
        "construits_1971_1990": 7,
        "construits_1991_2005": 5,
        "construits_2006_2019": 2,
        "chauffage_electrique": 13,
        "chauffage_fioul": 15,
        "chauffage_gaz_ville": 0,
        "chauffage_gaz_bouteille": 0,
        "chauffage_autre": 30,
        "menages": 58,
        "logements_avant_1990": 51
      },
      "artisans": {
        "monte_escalier": 0,
        "chauffage_pac_clim": 0,
        "isolation": 0,
        "menuiserie": 0,
        "fenetres_velux": 0,
        "couverture_toiture": 0,
        "facade_peinture": 0,
        "portes_volets": 0,
        "piscine": 0,
        "vmc_ventilation": 0,
        "assainissement": 0
      },
      "revenus": {
        "revenu_median": 19590.0,
        "part_menages_imposes": null,
        "taux_pauvrete": null
      },
      "aides_etat": {
        "zone_climatique": "H1",
        "qpv": false,
        "action_coeur_de_ville": false,
        "petites_villes_de_demain": false
      }
    },
    {
      "code_insee": "08011",
      "nom": "Anchamps",
      "nom_a": null,
      "nom_de": null,
      "slug": "anchamps",
      "code_postal": "08500",
      "population": 216,
      "superficie_km2": 221.77,
      "latitude": 49.9255,
      "longitude": 4.6618,
      "villes_proches": [
        {
          "code_insee": "08363",
          "nom": "Revin",
          "slug": "revin",
          "code_postal": "08500",
          "population": 5716,
          "superficie_km2": 3863.14,
          "latitude": 49.9339,
          "longitude": 4.6931,
          "distance_km": 2.43
        },
        {
          "code_insee": "08242",
          "nom": "Laifour",
          "slug": "laifour",
          "code_postal": "08800",
          "population": 399,
          "superficie_km2": 317.23,
          "latitude": 49.903,
          "longitude": 4.6917,
          "distance_km": 3.29
        },
        {
          "code_insee": "08284",
          "nom": "Les Mazures",
          "slug": "les-mazures",
          "code_postal": "08500",
          "population": 846,
          "superficie_km2": 3627.66,
          "latitude": 49.8959,
          "longitude": 4.6372,
          "distance_km": 3.73
        },
        {
          "code_insee": "08185",
          "nom": "Fumay",
          "slug": "fumay",
          "code_postal": "08170",
          "population": 3086,
          "superficie_km2": 3750.91,
          "latitude": 49.9705,
          "longitude": 4.6612,
          "distance_km": 5.0
        },
        {
          "code_insee": "08139",
          "nom": "Deville",
          "slug": "deville",
          "code_postal": "08800",
          "population": 998,
          "superficie_km2": 783.19,
          "latitude": 49.8754,
          "longitude": 4.6943,
          "distance_km": 6.04
        },
        {
          "code_insee": "08302",
          "nom": "Monthermé",
          "slug": "montherme",
          "code_postal": "08800",
          "population": 2138,
          "superficie_km2": 3250.06,
          "latitude": 49.8996,
          "longitude": 4.7453,
          "distance_km": 6.64
        },
        {
          "code_insee": "08408",
          "nom": "Sécheval",
          "slug": "secheval",
          "code_postal": "08150",
          "population": 517,
          "superficie_km2": 1381.88,
          "latitude": 49.8613,
          "longitude": 4.6707,
          "distance_km": 7.17
        },
        {
          "code_insee": "08367",
          "nom": "Rocroi",
          "slug": "rocroi",
          "code_postal": "08230",
          "population": 2270,
          "superficie_km2": 5036.45,
          "latitude": 49.9277,
          "longitude": 4.5548,
          "distance_km": 7.66
        },
        {
          "code_insee": "08078",
          "nom": "Bourg-Fidèle",
          "slug": "bourg-fidele",
          "code_postal": "08230",
          "population": 818,
          "superficie_km2": 1476.79,
          "latitude": 49.892,
          "longitude": 4.553,
          "distance_km": 8.64
        },
        {
          "code_insee": "08222",
          "nom": "Haybes",
          "slug": "haybes",
          "code_postal": "08170",
          "population": 1794,
          "superficie_km2": 2820.25,
          "latitude": 49.994,
          "longitude": 4.7279,
          "distance_km": 8.97
        },
        {
          "code_insee": "08202",
          "nom": "Gué-d'Hossus",
          "slug": "gue-d-hossus",
          "code_postal": "08230",
          "population": 504,
          "superficie_km2": 522.52,
          "latitude": 49.9559,
          "longitude": 4.5416,
          "distance_km": 9.24
        },
        {
          "code_insee": "08361",
          "nom": "Renwez",
          "slug": "renwez",
          "code_postal": "08150",
          "population": 1656,
          "superficie_km2": 1623.61,
          "latitude": 49.8469,
          "longitude": 4.606,
          "distance_km": 9.61
        },
        {
          "code_insee": "08297",
          "nom": "Montcornet",
          "slug": "montcornet",
          "code_postal": "08090",
          "population": 300,
          "superficie_km2": 1147.11,
          "latitude": 49.836,
          "longitude": 4.655,
          "distance_km": 9.96
        },
        {
          "code_insee": "08022",
          "nom": "Arreux",
          "slug": "arreux",
          "code_postal": "08090",
          "population": 353,
          "superficie_km2": 422.68,
          "latitude": 49.8266,
          "longitude": 4.6612,
          "distance_km": 11.0
        },
        {
          "code_insee": "08081",
          "nom": "Bogny-sur-Meuse",
          "slug": "bogny-sur-meuse",
          "code_postal": "08120",
          "population": 4889,
          "superficie_km2": 2321.31,
          "latitude": 49.8472,
          "longitude": 4.7561,
          "distance_km": 11.02
        },
        {
          "code_insee": "08166",
          "nom": "Fépin",
          "slug": "fepin",
          "code_postal": "08170",
          "population": 233,
          "superficie_km2": 586.88,
          "latitude": 50.0228,
          "longitude": 4.7087,
          "distance_km": 11.33
        },
        {
          "code_insee": "08137",
          "nom": "Damouzy",
          "slug": "damouzy",
          "code_postal": "08090",
          "population": 423,
          "superficie_km2": 884.38,
          "latitude": 49.8132,
          "longitude": 4.6819,
          "distance_km": 12.57
        },
        {
          "code_insee": "08230",
          "nom": "Houldizy",
          "slug": "houldizy",
          "code_postal": "08090",
          "population": 394,
          "superficie_km2": 460.62,
          "latitude": 49.8123,
          "longitude": 4.6721,
          "distance_km": 12.61
        },
        {
          "code_insee": "08125",
          "nom": "Cliron",
          "slug": "cliron",
          "code_postal": "08090",
          "population": 409,
          "superficie_km2": 619.98,
          "latitude": 49.8079,
          "longitude": 4.6195,
          "distance_km": 13.42
        },
        {
          "code_insee": "08457",
          "nom": "Tournes",
          "slug": "tournes",
          "code_postal": "08090",
          "population": 1055,
          "superficie_km2": 820.77,
          "latitude": 49.7991,
          "longitude": 4.6366,
          "distance_km": 14.17
        }
      ],
      "zonage_abc": "C",
      "reclassement_abc": "Non",
      "codes_postaux": [
        {
          "code_postal": "08500",
          "libelle_acheminement": "ANCHAMPS"
        }
      ],
      "logement": {
        "logements_total": 126,
        "residences_principales": 96,
        "logements_vacants": 6,
        "residences_secondaires": 24,
        "maisons": 122,
        "appartements": 0,
        "proprietaires": 84,
        "locataires": 8,
        "hlm": 0,
        "construits_avant_1919": 10,
        "construits_1919_1945": 12,
        "construits_1946_1970": 19,
        "construits_1971_1990": 35,
        "construits_1991_2005": 13,
        "construits_2006_2019": 7,
        "chauffage_electrique": 12,
        "chauffage_fioul": 14,
        "chauffage_gaz_ville": 25,
        "chauffage_gaz_bouteille": 2,
        "chauffage_autre": 43,
        "menages": 96,
        "logements_avant_1990": 76
      },
      "artisans": {
        "monte_escalier": 0,
        "chauffage_pac_clim": 0,
        "isolation": 0,
        "menuiserie": 0,
        "fenetres_velux": 0,
        "couverture_toiture": 0,
        "facade_peinture": 0,
        "portes_volets": 0,
        "piscine": 0,
        "vmc_ventilation": 0,
        "assainissement": 0
      },
      "revenus": {
        "revenu_median": 21030.0,
        "part_menages_imposes": null,
        "taux_pauvrete": null
      },
      "aides_etat": {
        "zone_climatique": "H1",
        "qpv": false,
        "action_coeur_de_ville": false,
        "petites_villes_de_demain": false
      }
    },
    {
      "code_insee": "08013",
      "nom": "Angecourt",
      "nom_a": null,
      "nom_de": null,
      "slug": "angecourt",
      "code_postal": "08450",
      "population": 382,
      "superficie_km2": 373.99,
      "latitude": 49.6332,
      "longitude": 4.9739,
      "villes_proches": [
        {
          "code_insee": "08211",
          "nom": "Haraucourt",
          "slug": "haraucourt",
          "code_postal": "08450",
          "population": 699,
          "superficie_km2": 1163.72,
          "latitude": 49.6254,
          "longitude": 4.9546,
          "distance_km": 1.64
        },
        {
          "code_insee": "08357",
          "nom": "Remilly-Aillicourt",
          "slug": "remilly-aillicourt",
          "code_postal": "08450",
          "population": 754,
          "superficie_km2": 1332.64,
          "latitude": 49.6469,
          "longitude": 4.9926,
          "distance_km": 2.03
        },
        {
          "code_insee": "08445",
          "nom": "Thelonne",
          "slug": "thelonne",
          "code_postal": "08350",
          "population": 405,
          "superficie_km2": 382.9,
          "latitude": 49.6484,
          "longitude": 4.9454,
          "distance_km": 2.66
        },
        {
          "code_insee": "08477",
          "nom": "Villers-devant-Mouzon",
          "slug": "villers-devant-mouzon",
          "code_postal": "08210",
          "population": 102,
          "superficie_km2": 445.72,
          "latitude": 49.6291,
          "longitude": 5.0145,
          "distance_km": 2.96
        },
        {
          "code_insee": "08331",
          "nom": "Noyers-Pont-Maugis",
          "slug": "noyers-pont-maugis",
          "code_postal": "08350",
          "population": 673,
          "superficie_km2": 921.7,
          "latitude": 49.6571,
          "longitude": 4.9318,
          "distance_km": 4.03
        },
        {
          "code_insee": "08088",
          "nom": "Bulson",
          "slug": "bulson",
          "code_postal": "08450",
          "population": 140,
          "superficie_km2": 644.67,
          "latitude": 49.6276,
          "longitude": 4.9133,
          "distance_km": 4.41
        },
        {
          "code_insee": "08034",
          "nom": "Autrecourt-et-Pourron",
          "slug": "autrecourt-et-pourron",
          "code_postal": "08210",
          "population": 342,
          "superficie_km2": 1189.77,
          "latitude": 49.6049,
          "longitude": 5.0219,
          "distance_km": 4.68
        },
        {
          "code_insee": "08354",
          "nom": "Raucourt-et-Flaba",
          "slug": "raucourt-et-flaba",
          "code_postal": "08450",
          "population": 813,
          "superficie_km2": 2179.55,
          "latitude": 49.5877,
          "longitude": 4.966,
          "distance_km": 5.09
        },
        {
          "code_insee": "08494",
          "nom": "Wadelincourt",
          "slug": "wadelincourt",
          "code_postal": "08200",
          "population": 447,
          "superficie_km2": 423.69,
          "latitude": 49.6805,
          "longitude": 4.9305,
          "distance_km": 6.12
        },
        {
          "code_insee": "08043",
          "nom": "Balan",
          "slug": "balan",
          "code_postal": "08200",
          "population": 1579,
          "superficie_km2": 466.61,
          "latitude": 49.6887,
          "longitude": 4.9644,
          "distance_km": 6.21
        },
        {
          "code_insee": "08145",
          "nom": "Douzy",
          "slug": "douzy",
          "code_postal": "08140",
          "population": 2134,
          "superficie_km2": 2017.24,
          "latitude": 49.6661,
          "longitude": 5.0457,
          "distance_km": 6.33
        },
        {
          "code_insee": "08268",
          "nom": "Maisoncelle-et-Villers",
          "slug": "maisoncelle-et-villers",
          "code_postal": "08450",
          "population": 69,
          "superficie_km2": 1118.81,
          "latitude": 49.5874,
          "longitude": 4.9159,
          "distance_km": 6.59
        },
        {
          "code_insee": "08119",
          "nom": "Cheveuges",
          "slug": "cheveuges",
          "code_postal": "08350",
          "population": 468,
          "superficie_km2": 892.21,
          "latitude": 49.6581,
          "longitude": 4.8869,
          "distance_km": 6.85
        },
        {
          "code_insee": "08409",
          "nom": "Sedan",
          "slug": "sedan",
          "code_postal": "08200",
          "population": 16667,
          "superficie_km2": 1627.55,
          "latitude": 49.6993,
          "longitude": 4.9269,
          "distance_km": 8.09
        },
        {
          "code_insee": "08136",
          "nom": "Daigny",
          "slug": "daigny",
          "code_postal": "08140",
          "population": 358,
          "superficie_km2": 279.81,
          "latitude": 49.7045,
          "longitude": 5.002,
          "distance_km": 8.18
        },
        {
          "code_insee": "08502",
          "nom": "Yoncq",
          "slug": "yoncq",
          "code_postal": "08210",
          "population": 80,
          "superficie_km2": 1563.93,
          "latitude": 49.5644,
          "longitude": 5.017,
          "distance_km": 8.26
        },
        {
          "code_insee": "08063",
          "nom": "La Besace",
          "slug": "la-besace",
          "code_postal": "08450",
          "population": 133,
          "superficie_km2": 1383.86,
          "latitude": 49.5541,
          "longitude": 4.9661,
          "distance_km": 8.81
        },
        {
          "code_insee": "08430",
          "nom": "Stonne",
          "slug": "stonne",
          "code_postal": "08390",
          "population": 40,
          "superficie_km2": 732.13,
          "latitude": 49.5508,
          "longitude": 4.927,
          "distance_km": 9.77
        },
        {
          "code_insee": "08053",
          "nom": "Bazeilles",
          "slug": "bazeilles",
          "code_postal": "08140",
          "population": 2470,
          "superficie_km2": 3728.1,
          "latitude": 49.7143,
          "longitude": 5.0269,
          "distance_km": 9.79
        },
        {
          "code_insee": "08174",
          "nom": "Floing",
          "slug": "floing",
          "code_postal": "08200",
          "population": 2270,
          "superficie_km2": 740.32,
          "latitude": 49.7227,
          "longitude": 4.937,
          "distance_km": 10.3
        }
      ],
      "zonage_abc": "C",
      "reclassement_abc": "Non",
      "codes_postaux": [
        {
          "code_postal": "08450",
          "libelle_acheminement": "ANGECOURT"
        }
      ],
      "logement": {
        "logements_total": 200,
        "residences_principales": 176,
        "logements_vacants": 23,
        "residences_secondaires": 1,
        "maisons": 176,
        "appartements": 24,
        "proprietaires": 144,
        "locataires": 28,
        "hlm": 0,
        "construits_avant_1919": 72,
        "construits_1919_1945": 12,
        "construits_1946_1970": 26,
        "construits_1971_1990": 25,
        "construits_1991_2005": 14,
        "construits_2006_2019": 25,
        "chauffage_electrique": 39,
        "chauffage_fioul": 18,
        "chauffage_gaz_ville": 71,
        "chauffage_gaz_bouteille": 0,
        "chauffage_autre": 48,
        "menages": 176,
        "logements_avant_1990": 135
      },
      "artisans": {
        "monte_escalier": 0,
        "chauffage_pac_clim": 0,
        "isolation": 0,
        "menuiserie": 1,
        "fenetres_velux": 1,
        "couverture_toiture": 0,
        "facade_peinture": 1,
        "portes_volets": 1,
        "piscine": 0,
        "vmc_ventilation": 0,
        "assainissement": 0
      },
      "revenus": {
        "revenu_median": 20040.0,
        "part_menages_imposes": null,
        "taux_pauvrete": null
      },
      "aides_etat": {
        "zone_climatique": "H1",
        "qpv": false,
        "action_coeur_de_ville": false,
        "petites_villes_de_demain": false
      }
    },
    {
      "code_insee": "08014",
      "nom": "Annelles",
      "nom_a": null,
      "nom_de": null,
      "slug": "annelles",
      "code_postal": "08310",
      "population": 127,
      "superficie_km2": 1273.92,
      "latitude": 49.4341,
      "longitude": 4.4141,
      "villes_proches": [
        {
          "code_insee": "08286",
          "nom": "Ménil-Annelles",
          "slug": "menil-annelles",
          "code_postal": "08310",
          "population": 95,
          "superficie_km2": 920.91,
          "latitude": 49.4346,
          "longitude": 4.4472,
          "distance_km": 2.39
        },
        {
          "code_insee": "08339",
          "nom": "Perthes",
          "slug": "perthes",
          "code_postal": "08300",
          "population": 303,
          "superficie_km2": 2362.06,
          "latitude": 49.4487,
          "longitude": 4.3605,
          "distance_km": 4.2
        },
        {
          "code_insee": "08239",
          "nom": "Juniville",
          "slug": "juniville",
          "code_postal": "08310",
          "population": 1224,
          "superficie_km2": 2608.69,
          "latitude": 49.4007,
          "longitude": 4.378,
          "distance_km": 4.54
        },
        {
          "code_insee": "08452",
          "nom": "Thugny-Trugny",
          "slug": "thugny-trugny",
          "code_postal": "08300",
          "population": 243,
          "superficie_km2": 1339.22,
          "latitude": 49.4756,
          "longitude": 4.425,
          "distance_km": 4.68
        },
        {
          "code_insee": "08066",
          "nom": "Bignicourt",
          "slug": "bignicourt",
          "code_postal": "08310",
          "population": 65,
          "superficie_km2": 870.95,
          "latitude": 49.3902,
          "longitude": 4.4212,
          "distance_km": 4.91
        },
        {
          "code_insee": "08484",
          "nom": "Ville-sur-Retourne",
          "slug": "ville-sur-retourne",
          "code_postal": "08310",
          "population": 73,
          "superficie_km2": 959.27,
          "latitude": 49.3952,
          "longitude": 4.4488,
          "distance_km": 5.0
        },
        {
          "code_insee": "08064",
          "nom": "Biermes",
          "slug": "biermes",
          "code_postal": "08300",
          "population": 316,
          "superficie_km2": 796.09,
          "latitude": 49.4769,
          "longitude": 4.3815,
          "distance_km": 5.31
        },
        {
          "code_insee": "08416",
          "nom": "Seuil",
          "slug": "seuil",
          "code_postal": "08300",
          "population": 185,
          "superficie_km2": 1175.86,
          "latitude": 49.4764,
          "longitude": 4.4495,
          "distance_km": 5.35
        },
        {
          "code_insee": "08306",
          "nom": "Mont-Laurent",
          "slug": "mont-laurent",
          "code_postal": "08130",
          "population": 51,
          "superficie_km2": 685.67,
          "latitude": 49.463,
          "longitude": 4.4828,
          "distance_km": 5.92
        },
        {
          "code_insee": "08005",
          "nom": "Alincourt",
          "slug": "alincourt",
          "code_postal": "08310",
          "population": 160,
          "superficie_km2": 890.56,
          "latitude": 49.4009,
          "longitude": 4.345,
          "distance_km": 6.21
        },
        {
          "code_insee": "08338",
          "nom": "Pauvres",
          "slug": "pauvres",
          "code_postal": "08310",
          "population": 194,
          "superficie_km2": 1259.34,
          "latitude": 49.4131,
          "longitude": 4.4996,
          "distance_km": 6.61
        },
        {
          "code_insee": "08309",
          "nom": "Mont-Saint-Remy",
          "slug": "mont-saint-remy",
          "code_postal": "08310",
          "population": 51,
          "superficie_km2": 759.36,
          "latitude": 49.3881,
          "longitude": 4.4753,
          "distance_km": 6.77
        },
        {
          "code_insee": "08401",
          "nom": "Saulces-Champenoises",
          "slug": "saulces-champenoises",
          "code_postal": "08130",
          "population": 219,
          "superficie_km2": 2268.79,
          "latitude": 49.447,
          "longitude": 4.5056,
          "distance_km": 6.77
        },
        {
          "code_insee": "08403",
          "nom": "Sault-lès-Rethel",
          "slug": "sault-les-rethel",
          "code_postal": "08300",
          "population": 1900,
          "superficie_km2": 653.34,
          "latitude": 49.4905,
          "longitude": 4.3552,
          "distance_km": 7.58
        },
        {
          "code_insee": "08010",
          "nom": "Ambly-Fleury",
          "slug": "ambly-fleury",
          "code_postal": "08130",
          "population": 132,
          "superficie_km2": 578.92,
          "latitude": 49.4901,
          "longitude": 4.4904,
          "distance_km": 8.32
        },
        {
          "code_insee": "08133",
          "nom": "Coucy",
          "slug": "coucy",
          "code_postal": "08300",
          "population": 536,
          "superficie_km2": 642.63,
          "latitude": 49.5095,
          "longitude": 4.4604,
          "distance_km": 9.03
        },
        {
          "code_insee": "08362",
          "nom": "Rethel",
          "slug": "rethel",
          "code_postal": "08300",
          "population": 7444,
          "superficie_km2": 1862.8,
          "latitude": 49.5147,
          "longitude": 4.3814,
          "distance_km": 9.27
        },
        {
          "code_insee": "08144",
          "nom": "Doux",
          "slug": "doux",
          "code_postal": "08300",
          "population": 102,
          "superficie_km2": 652.0,
          "latitude": 49.5189,
          "longitude": 4.4294,
          "distance_km": 9.49
        },
        {
          "code_insee": "08320",
          "nom": "La Neuville-en-Tourne-à-Fuy",
          "slug": "la-neuville-en-tourne-a-fuy",
          "code_postal": "08310",
          "population": 533,
          "superficie_km2": 2736.65,
          "latitude": 49.3461,
          "longitude": 4.3965,
          "distance_km": 9.87
        },
        {
          "code_insee": "08092",
          "nom": "Cauroy",
          "slug": "cauroy",
          "code_postal": "08310",
          "population": 192,
          "superficie_km2": 1749.16,
          "latitude": 49.3486,
          "longitude": 4.4566,
          "distance_km": 9.99
        }
      ],
      "zonage_abc": "C",
      "reclassement_abc": "Non",
      "codes_postaux": [
        {
          "code_postal": "08310",
          "libelle_acheminement": "ANNELLES"
        }
      ],
      "logement": {
        "logements_total": 57,
        "residences_principales": 51,
        "logements_vacants": 3,
        "residences_secondaires": 3,
        "maisons": 55,
        "appartements": 1,
        "proprietaires": 38,
        "locataires": 11,
        "hlm": 0,
        "construits_avant_1919": 9,
        "construits_1919_1945": 9,
        "construits_1946_1970": 10,
        "construits_1971_1990": 12,
        "construits_1991_2005": 1,
        "construits_2006_2019": 7,
        "chauffage_electrique": 12,
        "chauffage_fioul": 12,
        "chauffage_gaz_ville": 0,
        "chauffage_gaz_bouteille": 3,
        "chauffage_autre": 23,
        "menages": 51,
        "logements_avant_1990": 40
      },
      "artisans": {
        "monte_escalier": 0,
        "chauffage_pac_clim": 0,
        "isolation": 1,
        "menuiserie": 1,
        "fenetres_velux": 1,
        "couverture_toiture": 0,
        "facade_peinture": 1,
        "portes_volets": 1,
        "piscine": 1,
        "vmc_ventilation": 0,
        "assainissement": 0
      },
      "revenus": {
        "revenu_median": 23200.0,
        "part_menages_imposes": null,
        "taux_pauvrete": null
      },
      "aides_etat": {
        "zone_climatique": "H1",
        "qpv": false,
        "action_coeur_de_ville": false,
        "petites_villes_de_demain": false
      }
    },
    {
      "code_insee": "08015",
      "nom": "Antheny",
      "nom_a": null,
      "nom_de": null,
      "slug": "antheny",
      "code_postal": "08260",
      "population": 100,
      "superficie_km2": 1013.52,
      "latitude": 49.8423,
      "longitude": 4.3084,
      "villes_proches": [
        {
          "code_insee": "08100",
          "nom": "Champlin",
          "slug": "champlin",
          "code_postal": "08260",
          "population": 73,
          "superficie_km2": 596.47,
          "latitude": 49.834,
          "longitude": 4.3262,
          "distance_km": 1.58
        },
        {
          "code_insee": "08154",
          "nom": "Estrebay",
          "slug": "estrebay",
          "code_postal": "08260",
          "population": 84,
          "superficie_km2": 935.73,
          "latitude": 49.8264,
          "longitude": 4.3459,
          "distance_km": 3.22
        },
        {
          "code_insee": "08030",
          "nom": "Auge",
          "slug": "auge",
          "code_postal": "08380",
          "population": 58,
          "superficie_km2": 454.06,
          "latitude": 49.8566,
          "longitude": 4.268,
          "distance_km": 3.3
        },
        {
          "code_insee": "08440",
          "nom": "Tarzy",
          "slug": "tarzy",
          "code_postal": "08380",
          "population": 126,
          "superficie_km2": 1025.27,
          "latitude": 49.8745,
          "longitude": 4.2978,
          "distance_km": 3.66
        },
        {
          "code_insee": "08073",
          "nom": "Bossus-lès-Rumigny",
          "slug": "bossus-les-rumigny",
          "code_postal": "08290",
          "population": 94,
          "superficie_km2": 815.19,
          "latitude": 49.841,
          "longitude": 4.2556,
          "distance_km": 3.79
        },
        {
          "code_insee": "08037",
          "nom": "Auvillers-les-Forges",
          "slug": "auvillers-les-forges",
          "code_postal": "08260",
          "population": 909,
          "superficie_km2": 813.45,
          "latitude": 49.8671,
          "longitude": 4.3607,
          "distance_km": 4.65
        },
        {
          "code_insee": "08016",
          "nom": "Aouste",
          "slug": "aouste",
          "code_postal": "08290",
          "population": 196,
          "superficie_km2": 1269.55,
          "latitude": 49.7963,
          "longitude": 4.3101,
          "distance_km": 5.12
        },
        {
          "code_insee": "08373",
          "nom": "Rumigny",
          "slug": "rumigny",
          "code_postal": "08290",
          "population": 263,
          "superficie_km2": 1741.85,
          "latitude": 49.8044,
          "longitude": 4.266,
          "distance_km": 5.2
        },
        {
          "code_insee": "08172",
          "nom": "Fligny",
          "slug": "fligny",
          "code_postal": "08380",
          "population": 154,
          "superficie_km2": 681.29,
          "latitude": 49.884,
          "longitude": 4.2699,
          "distance_km": 5.4
        },
        {
          "code_insee": "08189",
          "nom": "Girondelle",
          "slug": "girondelle",
          "code_postal": "08260",
          "population": 153,
          "superficie_km2": 1150.82,
          "latitude": 49.8531,
          "longitude": 4.3842,
          "distance_km": 5.57
        },
        {
          "code_insee": "08344",
          "nom": "Prez",
          "slug": "prez",
          "code_postal": "08290",
          "population": 133,
          "superficie_km2": 1227.53,
          "latitude": 49.8016,
          "longitude": 4.3612,
          "distance_km": 5.9
        },
        {
          "code_insee": "08208",
          "nom": "Hannappes",
          "slug": "hannappes",
          "code_postal": "08290",
          "population": 136,
          "superficie_km2": 843.39,
          "latitude": 49.8149,
          "longitude": 4.237,
          "distance_km": 5.96
        },
        {
          "code_insee": "02435",
          "nom": "Logny-lès-Aubenton",
          "slug": "logny-les-aubenton",
          "code_postal": "02500",
          "population": 84,
          "superficie_km2": 822.33,
          "latitude": 49.832,
          "longitude": 4.2235,
          "distance_km": 6.2
        },
        {
          "code_insee": "08169",
          "nom": "Flaignes-Havys",
          "slug": "flaignes-havys",
          "code_postal": "08260",
          "population": 89,
          "superficie_km2": 1376.66,
          "latitude": 49.825,
          "longitude": 4.3993,
          "distance_km": 6.8
        },
        {
          "code_insee": "08319",
          "nom": "Neuville-lez-Beaulieu",
          "slug": "neuville-lez-beaulieu",
          "code_postal": "08380",
          "population": 320,
          "superficie_km2": 3601.13,
          "latitude": 49.9048,
          "longitude": 4.3565,
          "distance_km": 7.76
        },
        {
          "code_insee": "02020",
          "nom": "Any-Martin-Rieux",
          "slug": "any-martin-rieux",
          "code_postal": "02500",
          "population": 456,
          "superficie_km2": 1777.93,
          "latitude": 49.8851,
          "longitude": 4.219,
          "distance_km": 7.98
        },
        {
          "code_insee": "08420",
          "nom": "Signy-le-Petit",
          "slug": "signy-le-petit",
          "code_postal": "08380",
          "population": 1213,
          "superficie_km2": 3870.97,
          "latitude": 49.9249,
          "longitude": 4.2939,
          "distance_km": 9.24
        },
        {
          "code_insee": "08167",
          "nom": "La Férée",
          "slug": "la-feree",
          "code_postal": "08290",
          "population": 72,
          "superficie_km2": 1103.64,
          "latitude": 49.7586,
          "longitude": 4.3037,
          "distance_km": 9.31
        },
        {
          "code_insee": "08254",
          "nom": "Liart",
          "slug": "liart",
          "code_postal": "08290",
          "population": 585,
          "superficie_km2": 1348.58,
          "latitude": 49.7608,
          "longitude": 4.3426,
          "distance_km": 9.39
        },
        {
          "code_insee": "08087",
          "nom": "Brognon",
          "slug": "brognon",
          "code_postal": "08380",
          "population": 130,
          "superficie_km2": 744.49,
          "latitude": 49.9336,
          "longitude": 4.2805,
          "distance_km": 10.35
        }
      ],
      "zonage_abc": "C",
      "reclassement_abc": "Non",
      "codes_postaux": [
        {
          "code_postal": "08260",
          "libelle_acheminement": "ANTHENY"
        }
      ],
      "logement": {
        "logements_total": 63,
        "residences_principales": 46,
        "logements_vacants": 11,
        "residences_secondaires": 6,
        "maisons": 63,
        "appartements": 0,
        "proprietaires": 39,
        "locataires": 4,
        "hlm": 0,
        "construits_avant_1919": 31,
        "construits_1919_1945": 3,
        "construits_1946_1970": 4,
        "construits_1971_1990": 3,
        "construits_1991_2005": 5,
        "construits_2006_2019": 0,
        "chauffage_electrique": 6,
        "chauffage_fioul": 20,
        "chauffage_gaz_ville": 0,
        "chauffage_gaz_bouteille": 1,
        "chauffage_autre": 19,
        "menages": 46,
        "logements_avant_1990": 41
      },
      "artisans": {
        "monte_escalier": 0,
        "chauffage_pac_clim": 0,
        "isolation": 0,
        "menuiserie": 0,
        "fenetres_velux": 0,
        "couverture_toiture": 0,
        "facade_peinture": 0,
        "portes_volets": 0,
        "piscine": 1,
        "vmc_ventilation": 0,
        "assainissement": 0
      },
      "revenus": {
        "revenu_median": null,
        "part_menages_imposes": null,
        "taux_pauvrete": null
      },
      "aides_etat": {
        "zone_climatique": "H1",
        "qpv": false,
        "action_coeur_de_ville": false,
        "petites_villes_de_demain": false
      }
    },
    {
      "code_insee": "08016",
      "nom": "Aouste",
      "nom_a": null,
      "nom_de": null,
      "slug": "aouste",
      "code_postal": "08290",
      "population": 196,
      "superficie_km2": 1269.55,
      "latitude": 49.7963,
      "longitude": 4.3101,
      "villes_proches": [
        {
          "code_insee": "08373",
          "nom": "Rumigny",
          "slug": "rumigny",
          "code_postal": "08290",
          "population": 263,
          "superficie_km2": 1741.85,
          "latitude": 49.8044,
          "longitude": 4.266,
          "distance_km": 3.29
        },
        {
          "code_insee": "08344",
          "nom": "Prez",
          "slug": "prez",
          "code_postal": "08290",
          "population": 133,
          "superficie_km2": 1227.53,
          "latitude": 49.8016,
          "longitude": 4.3612,
          "distance_km": 3.71
        },
        {
          "code_insee": "08167",
          "nom": "La Férée",
          "slug": "la-feree",
          "code_postal": "08290",
          "population": 72,
          "superficie_km2": 1103.64,
          "latitude": 49.7586,
          "longitude": 4.3037,
          "distance_km": 4.22
        },
        {
          "code_insee": "08154",
          "nom": "Estrebay",
          "slug": "estrebay",
          "code_postal": "08260",
          "population": 84,
          "superficie_km2": 935.73,
          "latitude": 49.8264,
          "longitude": 4.3459,
          "distance_km": 4.22
        },
        {
          "code_insee": "08100",
          "nom": "Champlin",
          "slug": "champlin",
          "code_postal": "08260",
          "population": 73,
          "superficie_km2": 596.47,
          "latitude": 49.834,
          "longitude": 4.3262,
          "distance_km": 4.35
        },
        {
          "code_insee": "08254",
          "nom": "Liart",
          "slug": "liart",
          "code_postal": "08290",
          "population": 585,
          "superficie_km2": 1348.58,
          "latitude": 49.7608,
          "longitude": 4.3426,
          "distance_km": 4.59
        },
        {
          "code_insee": "08015",
          "nom": "Antheny",
          "slug": "antheny",
          "code_postal": "08260",
          "population": 100,
          "superficie_km2": 1013.52,
          "latitude": 49.8423,
          "longitude": 4.3084,
          "distance_km": 5.12
        },
        {
          "code_insee": "08208",
          "nom": "Hannappes",
          "slug": "hannappes",
          "code_postal": "08290",
          "population": 136,
          "superficie_km2": 843.39,
          "latitude": 49.8149,
          "longitude": 4.237,
          "distance_km": 5.64
        },
        {
          "code_insee": "08069",
          "nom": "Blanchefosse-et-Bay",
          "slug": "blanchefosse-et-bay",
          "code_postal": "08290",
          "population": 133,
          "superficie_km2": 2040.63,
          "latitude": 49.7627,
          "longitude": 4.2479,
          "distance_km": 5.82
        },
        {
          "code_insee": "08257",
          "nom": "Logny-Bogny",
          "slug": "logny-bogny",
          "code_postal": "08150",
          "population": 152,
          "superficie_km2": 1070.33,
          "latitude": 49.7739,
          "longitude": 4.3865,
          "distance_km": 6.02
        },
        {
          "code_insee": "08073",
          "nom": "Bossus-lès-Rumigny",
          "slug": "bossus-les-rumigny",
          "code_postal": "08290",
          "population": 94,
          "superficie_km2": 815.19,
          "latitude": 49.841,
          "longitude": 4.2556,
          "distance_km": 6.32
        },
        {
          "code_insee": "08030",
          "nom": "Auge",
          "slug": "auge",
          "code_postal": "08380",
          "population": 58,
          "superficie_km2": 454.06,
          "latitude": 49.8566,
          "longitude": 4.268,
          "distance_km": 7.35
        },
        {
          "code_insee": "02038",
          "nom": "Les Autels",
          "slug": "les-autels",
          "code_postal": "02360",
          "population": 62,
          "superficie_km2": 604.03,
          "latitude": 49.7603,
          "longitude": 4.224,
          "distance_km": 7.37
        },
        {
          "code_insee": "08277",
          "nom": "Marlemont",
          "slug": "marlemont",
          "code_postal": "08290",
          "population": 126,
          "superficie_km2": 1003.7,
          "latitude": 49.7463,
          "longitude": 4.3786,
          "distance_km": 7.42
        },
        {
          "code_insee": "08182",
          "nom": "Le Fréty",
          "slug": "le-frety",
          "code_postal": "08290",
          "population": 61,
          "superficie_km2": 719.01,
          "latitude": 49.734,
          "longitude": 4.259,
          "distance_km": 7.84
        },
        {
          "code_insee": "08272",
          "nom": "Maranwez",
          "slug": "maranwez",
          "code_postal": "08460",
          "population": 55,
          "superficie_km2": 307.92,
          "latitude": 49.7272,
          "longitude": 4.3447,
          "distance_km": 8.08
        },
        {
          "code_insee": "08382",
          "nom": "Saint-Jean-aux-Bois",
          "slug": "saint-jean-aux-bois",
          "code_postal": "08220",
          "population": 91,
          "superficie_km2": 879.55,
          "latitude": 49.7229,
          "longitude": 4.3068,
          "distance_km": 8.17
        },
        {
          "code_insee": "08189",
          "nom": "Girondelle",
          "slug": "girondelle",
          "code_postal": "08260",
          "population": 153,
          "superficie_km2": 1150.82,
          "latitude": 49.8531,
          "longitude": 4.3842,
          "distance_km": 8.26
        },
        {
          "code_insee": "08037",
          "nom": "Auvillers-les-Forges",
          "slug": "auvillers-les-forges",
          "code_postal": "08260",
          "population": 909,
          "superficie_km2": 813.45,
          "latitude": 49.8671,
          "longitude": 4.3607,
          "distance_km": 8.67
        },
        {
          "code_insee": "08440",
          "nom": "Tarzy",
          "slug": "tarzy",
          "code_postal": "08380",
          "population": 126,
          "superficie_km2": 1025.27,
          "latitude": 49.8745,
          "longitude": 4.2978,
          "distance_km": 8.74
        }
      ],
      "zonage_abc": "C",
      "reclassement_abc": "Non",
      "codes_postaux": [
        {
          "code_postal": "08290",
          "libelle_acheminement": "AOUSTE"
        }
      ],
      "logement": {
        "logements_total": 118,
        "residences_principales": 88,
        "logements_vacants": 18,
        "residences_secondaires": 11,
        "maisons": 117,
        "appartements": 1,
        "proprietaires": 73,
        "locataires": 11,
        "hlm": 0,
        "construits_avant_1919": 39,
        "construits_1919_1945": 12,
        "construits_1946_1970": 9,
        "construits_1971_1990": 10,
        "construits_1991_2005": 5,
        "construits_2006_2019": 6,
        "chauffage_electrique": 12,
        "chauffage_fioul": 25,
        "chauffage_gaz_ville": 0,
        "chauffage_gaz_bouteille": 1,
        "chauffage_autre": 49,
        "menages": 88,
        "logements_avant_1990": 70
      },
      "artisans": {
        "monte_escalier": 0,
        "chauffage_pac_clim": 0,
        "isolation": 1,
        "menuiserie": 0,
        "fenetres_velux": 0,
        "couverture_toiture": 1,
        "facade_peinture": 0,
        "portes_volets": 0,
        "piscine": 0,
        "vmc_ventilation": 0,
        "assainissement": 0
      },
      "revenus": {
        "revenu_median": 18600.0,
        "part_menages_imposes": null,
        "taux_pauvrete": null
      },
      "aides_etat": {
        "zone_climatique": "H1",
        "qpv": false,
        "action_coeur_de_ville": false,
        "petites_villes_de_demain": false
      }
    },
    {
      "code_insee": "08017",
      "nom": "Apremont",
      "nom_a": null,
      "nom_de": null,
      "slug": "apremont",
      "code_postal": "08250",
      "population": 122,
      "superficie_km2": 1276.42,
      "latitude": 49.259,
      "longitude": 4.9674,
      "villes_proches": [
        {
          "code_insee": "08109",
          "nom": "Chatel-Chéhéry",
          "slug": "chatel-chehery",
          "code_postal": "08250",
          "population": 125,
          "superficie_km2": 1608.83,
          "latitude": 49.2807,
          "longitude": 4.9542,
          "distance_km": 2.6
        },
        {
          "code_insee": "55343",
          "nom": "Montblainville",
          "slug": "montblainville",
          "code_postal": "55270",
          "population": 58,
          "superficie_km2": 1219.34,
          "latitude": 49.2405,
          "longitude": 4.9902,
          "distance_km": 2.64
        },
        {
          "code_insee": "55033",
          "nom": "Baulny",
          "slug": "baulny",
          "code_postal": "55270",
          "population": 19,
          "superficie_km2": 392.39,
          "latitude": 49.2661,
          "longitude": 5.0252,
          "distance_km": 4.27
        },
        {
          "code_insee": "55527",
          "nom": "Varennes-en-Argonne",
          "slug": "varennes-en-argonne",
          "code_postal": "55270",
          "population": 636,
          "superficie_km2": 1177.62,
          "latitude": 49.2299,
          "longitude": 5.0131,
          "distance_km": 4.63
        },
        {
          "code_insee": "51062",
          "nom": "Binarville",
          "slug": "binarville",
          "code_postal": "51800",
          "population": 82,
          "superficie_km2": 1666.95,
          "latitude": 49.2467,
          "longitude": 4.9064,
          "distance_km": 4.63
        },
        {
          "code_insee": "08131",
          "nom": "Cornay",
          "slug": "cornay",
          "code_postal": "08250",
          "population": 69,
          "superficie_km2": 1100.8,
          "latitude": 49.3012,
          "longitude": 4.9339,
          "distance_km": 5.28
        },