{
  "departement": {
    "code": "11",
    "nom": "Aude",
    "slug": "aude",
    "population_totale": 377685
  },
  "region": {
    "id": 17,
    "code": "16",
    "nom": "Occitanie",
    "slug": "occitanie"
  },
  "voisins": [
    {
      "dep_code": "09",
      "dep_nom": "Ariège",
      "dep_slug": "ariege"
    },
    {
      "dep_code": "12",
      "dep_nom": "Aveyron",
      "dep_slug": "aveyron"
    },
    {
      "dep_code": "30",
      "dep_nom": "Gard",
      "dep_slug": "gard"
    },
    {
      "dep_code": "31",
      "dep_nom": "Haute-Garonne",
      "dep_slug": "haute-garonne"
    }
  ],
  "communes_count": 433,
  "communes": [
    {
      "code_insee": "11001",
      "nom": "Aigues-Vives",
      "nom_a": null,
      "nom_de": null,
      "slug": "aigues-vives",
      "code_postal": "11800",
      "population": 532,
      "superficie_km2": 1051.61,
      "latitude": 43.234,
      "longitude": 2.5359,
      "villes_proches": [
        {
          "code_insee": "11342",
          "nom": "Saint-Frichoux",
          "slug": "saint-frichoux",
          "code_postal": "11800",
          "population": 224,
          "superficie_km2": 650.18,
          "latitude": 43.245,
          "longitude": 2.5561,
          "distance_km": 2.04
        },
        {
          "code_insee": "11220",
          "nom": "Marseillette",
          "slug": "marseillette",
          "code_postal": "11800",
          "population": 697,
          "superficie_km2": 1117.07,
          "latitude": 43.2119,
          "longitude": 2.5438,
          "distance_km": 2.54
        },
        {
          "code_insee": "11023",
          "nom": "Badens",
          "slug": "badens",
          "code_postal": "11800",
          "population": 749,
          "superficie_km2": 993.0,
          "latitude": 43.2229,
          "longitude": 2.5073,
          "distance_km": 2.63
        },
        {
          "code_insee": "11198",
          "nom": "Laure-Minervois",
          "slug": "laure-minervois",
          "code_postal": "11800",
          "population": 1061,
          "superficie_km2": 4069.43,
          "latitude": 43.2678,
          "longitude": 2.5144,
          "distance_km": 4.14
        },
        {
          "code_insee": "11042",
          "nom": "Blomac",
          "slug": "blomac",
          "code_postal": "11700",
          "population": 264,
          "superficie_km2": 844.08,
          "latitude": 43.2134,
          "longitude": 2.5889,
          "distance_km": 4.87
        },
        {
          "code_insee": "11330",
          "nom": "Rustiques",
          "slug": "rustiques",
          "code_postal": "11800",
          "population": 538,
          "superficie_km2": 657.83,
          "latitude": 43.2174,
          "longitude": 2.4784,
          "distance_km": 5.01
        },
        {
          "code_insee": "11315",
          "nom": "Rieux-Minervois",
          "slug": "rieux-minervois",
          "code_postal": "11160",
          "population": 1957,
          "superficie_km2": 2181.89,
          "latitude": 43.2667,
          "longitude": 2.5906,
          "distance_km": 5.73
        },
        {
          "code_insee": "11301",
          "nom": "Puichéric",
          "slug": "puicheric",
          "code_postal": "11700",
          "population": 1198,
          "superficie_km2": 1394.68,
          "latitude": 43.2243,
          "longitude": 2.6078,
          "distance_km": 5.92
        },
        {
          "code_insee": "11068",
          "nom": "Capendu",
          "slug": "capendu",
          "code_postal": "11700",
          "population": 1453,
          "superficie_km2": 1592.17,
          "latitude": 43.1821,
          "longitude": 2.5554,
          "distance_km": 5.98
        },
        {
          "code_insee": "11397",
          "nom": "Trèbes",
          "slug": "trebes",
          "code_postal": "11800",
          "population": 5361,
          "superficie_km2": 1791.02,
          "latitude": 43.209,
          "longitude": 2.4653,
          "distance_km": 6.36
        },
        {
          "code_insee": "11027",
          "nom": "Barbaira",
          "slug": "barbaira",
          "code_postal": "11800",
          "population": 805,
          "superficie_km2": 936.15,
          "latitude": 43.1774,
          "longitude": 2.5162,
          "distance_km": 6.49
        },
        {
          "code_insee": "11215",
          "nom": "Malves-en-Minervois",
          "slug": "malves-en-minervois",
          "code_postal": "11600",
          "population": 888,
          "superficie_km2": 506.69,
          "latitude": 43.2496,
          "longitude": 2.4512,
          "distance_km": 7.08
        },
        {
          "code_insee": "11043",
          "nom": "Bouilhonnac",
          "slug": "bouilhonnac",
          "code_postal": "11800",
          "population": 226,
          "superficie_km2": 611.66,
          "latitude": 43.233,
          "longitude": 2.4462,
          "distance_km": 7.27
        },
        {
          "code_insee": "11286",
          "nom": "Peyriac-Minervois",
          "slug": "peyriac-minervois",
          "code_postal": "11160",
          "population": 1123,
          "superficie_km2": 1018.72,
          "latitude": 43.2951,
          "longitude": 2.5714,
          "distance_km": 7.38
        },
        {
          "code_insee": "11146",
          "nom": "Floure",
          "slug": "floure",
          "code_postal": "11800",
          "population": 405,
          "superficie_km2": 463.74,
          "latitude": 43.176,
          "longitude": 2.484,
          "distance_km": 7.7
        },
        {
          "code_insee": "11416",
          "nom": "Villarzel-Cabardès",
          "slug": "villarzel-cabardes",
          "code_postal": "11600",
          "population": 276,
          "superficie_km2": 659.18,
          "latitude": 43.2844,
          "longitude": 2.4686,
          "distance_km": 7.82
        },
        {
          "code_insee": "11151",
          "nom": "Fontiès-d'Aude",
          "slug": "fonties-d-aude",
          "code_postal": "11800",
          "population": 560,
          "superficie_km2": 612.69,
          "latitude": 43.188,
          "longitude": 2.4561,
          "distance_km": 8.25
        },
        {
          "code_insee": "11095",
          "nom": "Comigne",
          "slug": "comigne",
          "code_postal": "11700",
          "population": 328,
          "superficie_km2": 958.59,
          "latitude": 43.1651,
          "longitude": 2.5851,
          "distance_km": 8.64
        },
        {
          "code_insee": "11122",
          "nom": "Douzens",
          "slug": "douzens",
          "code_postal": "11700",
          "population": 784,
          "superficie_km2": 1468.84,
          "latitude": 43.1757,
          "longitude": 2.6096,
          "distance_km": 8.82
        },
        {
          "code_insee": "11396",
          "nom": "Trausse",
          "slug": "trausse",
          "code_postal": "11160",
          "population": 614,
          "superficie_km2": 1100.3,
          "latitude": 43.3202,
          "longitude": 2.5675,
          "distance_km": 9.92
        }
      ],
      "zonage_abc": "C",
      "reclassement_abc": "Non",
      "codes_postaux": [
        {
          "code_postal": "11800",
          "libelle_acheminement": "AIGUES VIVES"
        }
      ],
      "logement": {
        "logements_total": 329,
        "residences_principales": 251,
        "logements_vacants": 62,
        "residences_secondaires": 16,
        "maisons": 323,
        "appartements": 6,
        "proprietaires": 181,
        "locataires": 58,
        "hlm": 0,
        "construits_avant_1919": 61,
        "construits_1919_1945": 22,
        "construits_1946_1970": 24,
        "construits_1971_1990": 64,
        "construits_1991_2005": 24,
        "construits_2006_2019": 52,
        "chauffage_electrique": 155,
        "chauffage_fioul": 44,
        "chauffage_gaz_ville": 2,
        "chauffage_gaz_bouteille": 2,
        "chauffage_autre": 48,
        "menages": 251,
        "logements_avant_1990": 171
      },
      "artisans": {
        "monte_escalier": 0,
        "chauffage_pac_clim": 2,
        "isolation": 0,
        "menuiserie": 3,
        "fenetres_velux": 3,
        "couverture_toiture": 0,
        "facade_peinture": 0,
        "portes_volets": 3,
        "piscine": 0,
        "vmc_ventilation": 0,
        "assainissement": 2
      },
      "revenus": {
        "revenu_median": 17770.0,
        "part_menages_imposes": null,
        "taux_pauvrete": null
      },
      "aides_etat": {
        "zone_climatique": "H3",
        "qpv": false,
        "action_coeur_de_ville": false,
        "petites_villes_de_demain": false
      }
    },
    {
      "code_insee": "11002",
      "nom": "Airoux",
      "nom_a": null,
      "nom_de": null,
      "slug": "airoux",
      "code_postal": "11320",
      "population": 201,
      "superficie_km2": 562.2,
      "latitude": 43.3667,
      "longitude": 1.8739,
      "villes_proches": [
        {
          "code_insee": "11385",
          "nom": "Soupex",
          "slug": "soupex",
          "code_postal": "11320",
          "population": 243,
          "superficie_km2": 764.53,
          "latitude": 43.3792,
          "longitude": 1.8871,
          "distance_km": 1.75
        },
        {
          "code_insee": "11313",
          "nom": "Ricaud",
          "slug": "ricaud",
          "code_postal": "11400",
          "population": 331,
          "superficie_km2": 618.51,
          "latitude": 43.3478,
          "longitude": 1.8958,
          "distance_km": 2.75
        },
        {
          "code_insee": "11178",
          "nom": "Labastide-d'Anjou",
          "slug": "labastide-d-anjou",
          "code_postal": "11320",
          "population": 1255,
          "superficie_km2": 863.84,
          "latitude": 43.3462,
          "longitude": 1.8538,
          "distance_km": 2.8
        },
        {
          "code_insee": "11243",
          "nom": "Montferrand",
          "slug": "montferrand",
          "code_postal": "11320",
          "population": 622,
          "superficie_km2": 1796.5,
          "latitude": 43.3665,
          "longitude": 1.833,
          "distance_km": 3.31
        },
        {
          "code_insee": "11383",
          "nom": "Souilhe",
          "slug": "souilhe",
          "code_postal": "11400",
          "population": 354,
          "superficie_km2": 436.19,
          "latitude": 43.3683,
          "longitude": 1.9185,
          "distance_km": 3.61
        },
        {
          "code_insee": "11382",
          "nom": "Souilhanels",
          "slug": "souilhanels",
          "code_postal": "11400",
          "population": 356,
          "superficie_km2": 282.12,
          "latitude": 43.3552,
          "longitude": 1.9178,
          "distance_km": 3.77
        },
        {
          "code_insee": "11362",
          "nom": "Saint-Paulet",
          "slug": "saint-paulet",
          "code_postal": "11320",
          "population": 205,
          "superficie_km2": 754.61,
          "latitude": 43.4028,
          "longitude": 1.8813,
          "distance_km": 4.06
        },
        {
          "code_insee": "11252",
          "nom": "Montmaur",
          "slug": "montmaur",
          "code_postal": "11320",
          "population": 356,
          "superficie_km2": 1317.03,
          "latitude": 43.3985,
          "longitude": 1.8437,
          "distance_km": 4.3
        },
        {
          "code_insee": "11300",
          "nom": "Puginier",
          "slug": "puginier",
          "code_postal": "11400",
          "population": 153,
          "superficie_km2": 697.69,
          "latitude": 43.3811,
          "longitude": 1.9272,
          "distance_km": 4.6
        },
        {
          "code_insee": "11026",
          "nom": "Baraigne",
          "slug": "baraigne",
          "code_postal": "11410",
          "population": 163,
          "superficie_km2": 470.71,
          "latitude": 43.3293,
          "longitude": 1.8191,
          "distance_km": 6.08
        },
        {
          "code_insee": "11225",
          "nom": "Mas-Saintes-Puelles",
          "slug": "mas-saintes-puelles",
          "code_postal": "11400",
          "population": 923,
          "superficie_km2": 2897.61,
          "latitude": 43.3119,
          "longitude": 1.8808,
          "distance_km": 6.12
        },
        {
          "code_insee": "11399",
          "nom": "Tréville",
          "slug": "treville",
          "code_postal": "11400",
          "population": 110,
          "superficie_km2": 548.36,
          "latitude": 43.3835,
          "longitude": 1.9533,
          "distance_km": 6.68
        },
        {
          "code_insee": "11238",
          "nom": "Molleville",
          "slug": "molleville",
          "code_postal": "11410",
          "population": 128,
          "superficie_km2": 358.01,
          "latitude": 43.3121,
          "longitude": 1.8354,
          "distance_km": 6.82
        },
        {
          "code_insee": "11074",
          "nom": "Les Cassés",
          "slug": "les-casses",
          "code_postal": "11320",
          "population": 319,
          "superficie_km2": 734.51,
          "latitude": 43.429,
          "longitude": 1.8701,
          "distance_km": 6.93
        },
        {
          "code_insee": "11284",
          "nom": "Peyrens",
          "slug": "peyrens",
          "code_postal": "11400",
          "population": 454,
          "superficie_km2": 494.46,
          "latitude": 43.3612,
          "longitude": 1.9607,
          "distance_km": 7.04
        },
        {
          "code_insee": "11292",
          "nom": "La Pomarède",
          "slug": "la-pomarede",
          "code_postal": "11400",
          "population": 188,
          "superficie_km2": 1336.7,
          "latitude": 43.4077,
          "longitude": 1.9426,
          "distance_km": 7.18
        },
        {
          "code_insee": "31453",
          "nom": "Rieumajou",
          "slug": "rieumajou",
          "code_postal": "31290",
          "population": 134,
          "superficie_km2": 376.98,
          "latitude": 43.4112,
          "longitude": 1.8023,
          "distance_km": 7.61
        },
        {
          "code_insee": "31393",
          "nom": "Mourvilles-Hautes",
          "slug": "mourvilles-hautes",
          "code_postal": "31540",
          "population": 172,
          "superficie_km2": 667.06,
          "latitude": 43.4246,
          "longitude": 1.8206,
          "distance_km": 7.75
        },
        {
          "code_insee": "11114",
          "nom": "Cumiès",
          "slug": "cumies",
          "code_postal": "11410",
          "population": 44,
          "superficie_km2": 406.56,
          "latitude": 43.2983,
          "longitude": 1.8309,
          "distance_km": 8.36
        },
        {
          "code_insee": "31060",
          "nom": "Bélesta-en-Lauragais",
          "slug": "belesta-en-lauragais",
          "code_postal": "31540",
          "population": 114,
          "superficie_km2": 564.51,
          "latitude": 43.4384,
          "longitude": 1.8315,
          "distance_km": 8.68
        }
      ],
      "zonage_abc": "C",
      "reclassement_abc": "Non",
      "codes_postaux": [
        {
          "code_postal": "11320",
          "libelle_acheminement": "AIROUX"
        }
      ],
      "logement": {
        "logements_total": 111,
        "residences_principales": 77,
        "logements_vacants": 6,
        "residences_secondaires": 27,
        "maisons": 96,
        "appartements": 15,
        "proprietaires": 68,
        "locataires": 8,
        "hlm": 0,
        "construits_avant_1919": 24,
        "construits_1919_1945": 4,
        "construits_1946_1970": 4,
        "construits_1971_1990": 7,
        "construits_1991_2005": 7,
        "construits_2006_2019": 16,
        "chauffage_electrique": 47,
        "chauffage_fioul": 4,
        "chauffage_gaz_ville": 0,
        "chauffage_gaz_bouteille": 5,
        "chauffage_autre": 20,
        "menages": 77,
        "logements_avant_1990": 39
      },
      "artisans": {
        "monte_escalier": 0,
        "chauffage_pac_clim": 0,
        "isolation": 0,
        "menuiserie": 0,
        "fenetres_velux": 0,
        "couverture_toiture": 0,
        "facade_peinture": 1,
        "portes_volets": 0,
        "piscine": 0,
        "vmc_ventilation": 0,
        "assainissement": 0
      },
      "revenus": {
        "revenu_median": 22990.0,
        "part_menages_imposes": null,
        "taux_pauvrete": null
      },
      "aides_etat": {
        "zone_climatique": "H3",
        "qpv": false,
        "action_coeur_de_ville": false,
        "petites_villes_de_demain": false
      }
    },
    {
      "code_insee": "11003",
      "nom": "Ajac",
      "nom_a": null,
      "nom_de": null,
      "slug": "ajac",
      "code_postal": "11300",
      "population": 196,
      "superficie_km2": 544.66,
      "latitude": 43.0448,
      "longitude": 2.1373,
      "villes_proches": [
        {
          "code_insee": "11207",
          "nom": "Loupia",
          "slug": "loupia",
          "code_postal": "11300",
          "population": 259,
          "superficie_km2": 462.5,
          "latitude": 43.0621,
          "longitude": 2.1267,
          "distance_km": 2.11
        },
        {
          "code_insee": "11119",
          "nom": "La Digne-d'Amont",
          "slug": "la-digne-d-amont",
          "code_postal": "11300",
          "population": 286,
          "superficie_km2": 376.37,
          "latitude": 43.0387,
          "longitude": 2.1619,
          "distance_km": 2.11
        },
        {
          "code_insee": "11078",
          "nom": "Castelreng",
          "slug": "castelreng",
          "code_postal": "11300",
          "population": 207,
          "superficie_km2": 1135.53,
          "latitude": 43.0208,
          "longitude": 2.1254,
          "distance_km": 2.84
        },
        {
          "code_insee": "11120",
          "nom": "La Digne-d'Aval",
          "slug": "la-digne-d-aval",
          "code_postal": "11300",
          "population": 522,
          "superficie_km2": 324.68,
          "latitude": 43.0456,
          "longitude": 2.1762,
          "distance_km": 3.16
        },
        {
          "code_insee": "11214",
          "nom": "Malras",
          "slug": "malras",
          "code_postal": "11300",
          "population": 444,
          "superficie_km2": 439.29,
          "latitude": 43.0611,
          "longitude": 2.1702,
          "distance_km": 3.23
        },
        {
          "code_insee": "11394",
          "nom": "Tourreilles",
          "slug": "tourreilles",
          "code_postal": "11300",
          "population": 128,
          "superficie_km2": 645.06,
          "latitude": 43.0216,
          "longitude": 2.1677,
          "distance_km": 3.57
        },
        {
          "code_insee": "11274",
          "nom": "Pauligne",
          "slug": "pauligne",
          "code_postal": "11300",
          "population": 357,
          "superficie_km2": 631.28,
          "latitude": 43.0767,
          "longitude": 2.1486,
          "distance_km": 3.66
        },
        {
          "code_insee": "11121",
          "nom": "Donazac",
          "slug": "donazac",
          "code_postal": "11240",
          "population": 110,
          "superficie_km2": 523.0,
          "latitude": 43.0788,
          "longitude": 2.1283,
          "distance_km": 3.85
        },
        {
          "code_insee": "11427",
          "nom": "Villelongue-d'Aude",
          "slug": "villelongue-d-aude",
          "code_postal": "11300",
          "population": 321,
          "superficie_km2": 1356.93,
          "latitude": 43.0619,
          "longitude": 2.0959,
          "distance_km": 3.86
        },
        {
          "code_insee": "11039",
          "nom": "La Bezole",
          "slug": "la-bezole",
          "code_postal": "11300",
          "population": 44,
          "superficie_km2": 670.32,
          "latitude": 43.0249,
          "longitude": 2.0952,
          "distance_km": 4.07
        },
        {
          "code_insee": "11158",
          "nom": "Gaja-et-Villedieu",
          "slug": "gaja-et-villedieu",
          "code_postal": "11300",
          "population": 306,
          "superficie_km2": 797.66,
          "latitude": 43.0794,
          "longitude": 2.1842,
          "distance_km": 5.41
        },
        {
          "code_insee": "11338",
          "nom": "Saint-Couat-du-Razès",
          "slug": "saint-couat-du-razes",
          "code_postal": "11300",
          "population": 46,
          "superficie_km2": 660.41,
          "latitude": 42.9964,
          "longitude": 2.1105,
          "distance_km": 5.81
        },
        {
          "code_insee": "11045",
          "nom": "Bouriège",
          "slug": "bouriege",
          "code_postal": "11300",
          "population": 151,
          "superficie_km2": 1091.01,
          "latitude": 42.9938,
          "longitude": 2.1575,
          "distance_km": 5.9
        },
        {
          "code_insee": "11211",
          "nom": "Magrie",
          "slug": "magrie",
          "code_postal": "11300",
          "population": 547,
          "superficie_km2": 1028.15,
          "latitude": 43.0271,
          "longitude": 2.2071,
          "distance_km": 6.0
        },
        {
          "code_insee": "11197",
          "nom": "Lauraguel",
          "slug": "lauraguel",
          "code_postal": "11300",
          "population": 622,
          "superficie_km2": 724.38,
          "latitude": 43.0964,
          "longitude": 2.1698,
          "distance_km": 6.32
        },
        {
          "code_insee": "11328",
          "nom": "Routier",
          "slug": "routier",
          "code_postal": "11240",
          "population": 231,
          "superficie_km2": 1187.35,
          "latitude": 43.1042,
          "longitude": 2.136,
          "distance_km": 6.61
        },
        {
          "code_insee": "11046",
          "nom": "Bourigeole",
          "slug": "bourigeole",
          "code_postal": "11300",
          "population": 56,
          "superficie_km2": 934.67,
          "latitude": 42.9864,
          "longitude": 2.1206,
          "distance_km": 6.63
        },
        {
          "code_insee": "11294",
          "nom": "Pomy",
          "slug": "pomy",
          "code_postal": "11300",
          "population": 51,
          "superficie_km2": 606.65,
          "latitude": 43.0598,
          "longitude": 2.057,
          "distance_km": 6.73
        },
        {
          "code_insee": "11004",
          "nom": "Alaigne",
          "slug": "alaigne",
          "code_postal": "11240",
          "population": 327,
          "superficie_km2": 1440.04,
          "latitude": 43.0949,
          "longitude": 2.0887,
          "distance_km": 6.83
        },
        {
          "code_insee": "11061",
          "nom": "Cambieure",
          "slug": "cambieure",
          "code_postal": "11240",
          "population": 327,
          "superficie_km2": 336.11,
          "latitude": 43.1268,
          "longitude": 2.1267,
          "distance_km": 9.16
        }
      ],
      "zonage_abc": "C",
      "reclassement_abc": "Non",
      "codes_postaux": [
        {
          "code_postal": "11300",
          "libelle_acheminement": "AJAC"
        }
      ],
      "logement": {
        "logements_total": 149,
        "residences_principales": 108,
        "logements_vacants": 19,
        "residences_secondaires": 22,
        "maisons": 137,
        "appartements": 11,
        "proprietaires": 82,
        "locataires": 23,
        "hlm": 1,
        "construits_avant_1919": 23,
        "construits_1919_1945": 10,
        "construits_1946_1970": 22,
        "construits_1971_1990": 17,
        "construits_1991_2005": 14,
        "construits_2006_2019": 19,
        "chauffage_electrique": 39,
        "chauffage_fioul": 25,
        "chauffage_gaz_ville": 1,
        "chauffage_gaz_bouteille": 6,
        "chauffage_autre": 36,
        "menages": 108,
        "logements_avant_1990": 72
      },
      "artisans": {
        "monte_escalier": 0,
        "chauffage_pac_clim": 1,
        "isolation": 0,
        "menuiserie": 0,
        "fenetres_velux": 0,
        "couverture_toiture": 0,
        "facade_peinture": 1,
        "portes_volets": 0,
        "piscine": 0,
        "vmc_ventilation": 1,
        "assainissement": 0
      },
      "revenus": {
        "revenu_median": 21770.0,
        "part_menages_imposes": null,
        "taux_pauvrete": null
      },
      "aides_etat": {
        "zone_climatique": "H3",
        "qpv": false,
        "action_coeur_de_ville": false,
        "petites_villes_de_demain": false
      }
    },
    {
      "code_insee": "11004",
      "nom": "Alaigne",
      "nom_a": null,
      "nom_de": null,
      "slug": "alaigne",
      "code_postal": "11240",
      "population": 327,
      "superficie_km2": 1440.04,
      "latitude": 43.0949,
      "longitude": 2.0887,
      "villes_proches": [
        {
          "code_insee": "11247",
          "nom": "Monthaut",
          "slug": "monthaut",
          "code_postal": "11240",
          "population": 37,
          "superficie_km2": 706.25,
          "latitude": 43.0849,
          "longitude": 2.0584,
          "distance_km": 2.7
        },
        {
          "code_insee": "11034",
          "nom": "Belvèze-du-Razès",
          "slug": "belveze-du-razes",
          "code_postal": "11240",
          "population": 884,
          "superficie_km2": 454.2,
          "latitude": 43.1236,
          "longitude": 2.0891,
          "distance_km": 3.19
        },
        {
          "code_insee": "11032",
          "nom": "Bellegarde-du-Razès",
          "slug": "bellegarde-du-razes",
          "code_postal": "11240",
          "population": 251,
          "superficie_km2": 673.69,
          "latitude": 43.1059,
          "longitude": 2.0508,
          "distance_km": 3.31
        },
        {
          "code_insee": "11121",
          "nom": "Donazac",
          "slug": "donazac",
          "code_postal": "11240",
          "population": 110,
          "superficie_km2": 523.0,
          "latitude": 43.0788,
          "longitude": 2.1283,
          "distance_km": 3.68
        },
        {
          "code_insee": "11427",
          "nom": "Villelongue-d'Aude",
          "slug": "villelongue-d-aude",
          "code_postal": "11300",
          "population": 321,
          "superficie_km2": 1356.93,
          "latitude": 43.0619,
          "longitude": 2.0959,
          "distance_km": 3.72
        },
        {
          "code_insee": "11328",
          "nom": "Routier",
          "slug": "routier",
          "code_postal": "11240",
          "population": 231,
          "superficie_km2": 1187.35,
          "latitude": 43.1042,
          "longitude": 2.136,
          "distance_km": 3.98
        },
        {
          "code_insee": "11294",
          "nom": "Pomy",
          "slug": "pomy",
          "code_postal": "11300",
          "population": 51,
          "superficie_km2": 606.65,
          "latitude": 43.0598,
          "longitude": 2.057,
          "distance_km": 4.68
        },
        {
          "code_insee": "11061",
          "nom": "Cambieure",
          "slug": "cambieure",
          "code_postal": "11240",
          "population": 327,
          "superficie_km2": 336.11,
          "latitude": 43.1268,
          "longitude": 2.1267,
          "distance_km": 4.7
        },
        {
          "code_insee": "11207",
          "nom": "Loupia",
          "slug": "loupia",
          "code_postal": "11300",
          "population": 259,
          "superficie_km2": 462.5,
          "latitude": 43.0621,
          "longitude": 2.1267,
          "distance_km": 4.78
        },
        {
          "code_insee": "11167",
          "nom": "Gramazie",
          "slug": "gramazie",
          "code_postal": "11240",
          "population": 130,
          "superficie_km2": 196.71,
          "latitude": 43.1376,
          "longitude": 2.0989,
          "distance_km": 4.82
        },
        {
          "code_insee": "11228",
          "nom": "Mazerolles-du-Razès",
          "slug": "mazerolles-du-razes",
          "code_postal": "11240",
          "population": 157,
          "superficie_km2": 857.17,
          "latitude": 43.1371,
          "longitude": 2.0656,
          "distance_km": 5.05
        },
        {
          "code_insee": "11274",
          "nom": "Pauligne",
          "slug": "pauligne",
          "code_postal": "11300",
          "population": 357,
          "superficie_km2": 631.28,
          "latitude": 43.0767,
          "longitude": 2.1486,
          "distance_km": 5.27
        },
        {
          "code_insee": "11246",
          "nom": "Montgradail",
          "slug": "montgradail",
          "code_postal": "11240",
          "population": 50,
          "superficie_km2": 448.75,
          "latitude": 43.1233,
          "longitude": 2.0307,
          "distance_km": 5.67
        },
        {
          "code_insee": "11128",
          "nom": "Escueillens-et-Saint-Just-de-Bélengard",
          "slug": "escueillens-et-saint-just-de-belengard",
          "code_postal": "11240",
          "population": 160,
          "superficie_km2": 1168.89,
          "latitude": 43.0987,
          "longitude": 2.0168,
          "distance_km": 5.85
        },
        {
          "code_insee": "11141",
          "nom": "Ferran",
          "slug": "ferran",
          "code_postal": "11240",
          "population": 125,
          "superficie_km2": 611.2,
          "latitude": 43.1522,
          "longitude": 2.0854,
          "distance_km": 6.38
        },
        {
          "code_insee": "11058",
          "nom": "Cailhau",
          "slug": "cailhau",
          "code_postal": "11240",
          "population": 247,
          "superficie_km2": 1009.59,
          "latitude": 43.1448,
          "longitude": 2.1325,
          "distance_km": 6.59
        },
        {
          "code_insee": "11003",
          "nom": "Ajac",
          "slug": "ajac",
          "code_postal": "11300",
          "population": 196,
          "superficie_km2": 544.66,
          "latitude": 43.0448,
          "longitude": 2.1373,
          "distance_km": 6.83
        },
        {
          "code_insee": "11107",
          "nom": "Courtauly",
          "slug": "courtauly",
          "code_postal": "11230",
          "population": 73,
          "superficie_km2": 780.18,
          "latitude": 43.0387,
          "longitude": 2.0492,
          "distance_km": 7.02
        },
        {
          "code_insee": "11039",
          "nom": "La Bezole",
          "slug": "la-bezole",
          "code_postal": "11300",
          "population": 44,
          "superficie_km2": 670.32,
          "latitude": 43.0249,
          "longitude": 2.0952,
          "distance_km": 7.8
        },
        {
          "code_insee": "11051",
          "nom": "Brézilhac",
          "slug": "brezilhac",
          "code_postal": "11270",
          "population": 172,
          "superficie_km2": 720.87,
          "latitude": 43.1666,
          "longitude": 2.0746,
          "distance_km": 8.05
        }
      ],
      "zonage_abc": "C",
      "reclassement_abc": "Non",
      "codes_postaux": [
        {
          "code_postal": "11240",
          "libelle_acheminement": "ALAIGNE"
        }
      ],
      "logement": {
        "logements_total": 231,
        "residences_principales": 160,
        "logements_vacants": 36,
        "residences_secondaires": 34,
        "maisons": 215,
        "appartements": 11,
        "proprietaires": 114,
        "locataires": 40,
        "hlm": 0,
        "construits_avant_1919": 43,
        "construits_1919_1945": 17,
        "construits_1946_1970": 28,
        "construits_1971_1990": 41,
        "construits_1991_2005": 17,
        "construits_2006_2019": 11,
        "chauffage_electrique": 65,
        "chauffage_fioul": 20,
        "chauffage_gaz_ville": 4,
        "chauffage_gaz_bouteille": 4,
        "chauffage_autre": 65,
        "menages": 160,
        "logements_avant_1990": 129
      },
      "artisans": {
        "monte_escalier": 0,
        "chauffage_pac_clim": 0,
        "isolation": 0,
        "menuiserie": 0,
        "fenetres_velux": 0,
        "couverture_toiture": 0,
        "facade_peinture": 0,
        "portes_volets": 0,
        "piscine": 2,
        "vmc_ventilation": 0,
        "assainissement": 0
      },
      "revenus": {
        "revenu_median": 18460.0,
        "part_menages_imposes": null,
        "taux_pauvrete": null
      },
      "aides_etat": {
        "zone_climatique": "H3",
        "qpv": false,
        "action_coeur_de_ville": false,
        "petites_villes_de_demain": false
      }
    },
    {
      "code_insee": "11005",
      "nom": "Alairac",
      "nom_a": null,
      "nom_de": null,
      "slug": "alairac",
      "code_postal": "11290",
      "population": 1364,
      "superficie_km2": 17.0,
      "latitude": 43.1819992,
      "longitude": 2.237,
      "villes_proches": [
        {
          "code_insee": "11199",
          "nom": "Lavalette",
          "slug": "lavalette",
          "code_postal": "11290",
          "population": 1532,
          "superficie_km2": 7.0,
          "latitude": 43.1920013,
          "longitude": 2.2709999,
          "distance_km": 2.97
        },
        {
          "code_insee": "11018",
          "nom": "Arzens",
          "slug": "arzens",
          "code_postal": "11290",
          "population": 1202,
          "superficie_km2": 22.0,
          "latitude": 43.2010002,
          "longitude": 2.2049999,
          "distance_km": 3.35
        },
        {
          "code_insee": "11084",
          "nom": "Caux-et-Sauzens",
          "slug": "caux-et-sauzens",
          "code_postal": "11170",
          "population": 1001,
          "superficie_km2": 9.0,
          "latitude": 43.2260017,
          "longitude": 2.2539999,
          "distance_km": 5.08
        },
        {
          "code_insee": "11254",
          "nom": "Montréal",
          "slug": "montreal",
          "code_postal": "11290",
          "population": 2048,
          "superficie_km2": 56.0,
          "latitude": 43.2000008,
          "longitude": 2.148,
          "distance_km": 7.49
        },
        {
          "code_insee": "11288",
          "nom": "Pezens",
          "slug": "pezens",
          "code_postal": "11170",
          "population": 1598,
          "superficie_km2": 11.0,
          "latitude": 43.2550011,
          "longitude": 2.2479999,
          "distance_km": 8.17
        },
        {
          "code_insee": "11069",
          "nom": "Carcassonne",
          "slug": "carcassonne",
          "code_postal": "11000",
          "population": 46218,
          "superficie_km2": 65.0,
          "latitude": 43.2089996,
          "longitude": 2.3440001,
          "distance_km": 9.18
        },
        {
          "code_insee": "11279",
          "nom": "Pennautier",
          "slug": "pennautier",
          "code_postal": "11610",
          "population": 2795,
          "superficie_km2": 19.0,
          "latitude": 43.2509995,
          "longitude": 2.313,
          "distance_km": 9.84
        },
        {
          "code_insee": "11088",
          "nom": "Cazilhac",
          "slug": "cazilhac",
          "code_postal": "11570",
          "population": 1643,
          "superficie_km2": 4.0,
          "latitude": 43.1780014,
          "longitude": 2.359,
          "distance_km": 9.9
        },
        {
          "code_insee": "11009",
          "nom": "Alzonne",
          "slug": "alzonne",
          "code_postal": "11170",
          "population": 1595,
          "superficie_km2": 22.0,
          "latitude": 43.2649994,
          "longitude": 2.175,
          "distance_km": 10.51
        },
        {
          "code_insee": "11272",
          "nom": "Palaja",
          "slug": "palaja",
          "code_postal": "11570",
          "population": 2594,
          "superficie_km2": 15.0,
          "latitude": 43.1669998,
          "longitude": 2.3870001,
          "distance_km": 12.28
        },
        {
          "code_insee": "11049",
          "nom": "Bram",
          "slug": "bram",
          "code_postal": "11150",
          "population": 3239,
          "superficie_km2": 18.0,
          "latitude": 43.2509995,
          "longitude": 2.1099999,
          "distance_km": 12.84
        },
        {
          "code_insee": "11429",
          "nom": "Villemoustaussou",
          "slug": "villemoustaussou",
          "code_postal": "11620",
          "population": 4468,
          "superficie_km2": 13.0,
          "latitude": 43.25,
          "longitude": 2.3659999,
          "distance_km": 12.9
        },
        {
          "code_insee": "11425",
          "nom": "Villegailhenc",
          "slug": "villegailhenc",
          "code_postal": "11600",
          "population": 1671,
          "superficie_km2": 5.0,
          "latitude": 43.2719994,
          "longitude": 2.3469999,
          "distance_km": 13.4
        },
        {
          "code_insee": "11206",
          "nom": "Limoux",
          "slug": "limoux",
          "code_postal": "11300",
          "population": 10302,
          "superficie_km2": 33.0,
          "latitude": 43.0499992,
          "longitude": 2.24,
          "distance_km": 14.68
        },
        {
          "code_insee": "11434",
          "nom": "Villepinte",
          "slug": "villepinte",
          "code_postal": "11150",
          "population": 1257,
          "superficie_km2": 15.0,
          "latitude": 43.2809982,
          "longitude": 2.096,
          "distance_km": 15.86
        },
        {
          "code_insee": "11099",
          "nom": "Conques-sur-Orbiel",
          "slug": "conques-sur-orbiel",
          "code_postal": "11600",
          "population": 2575,
          "superficie_km2": 26.0,
          "latitude": 43.2840004,
          "longitude": 2.3840001,
          "distance_km": 16.45
        },
        {
          "code_insee": "11418",
          "nom": "Villasavary",
          "slug": "villasavary",
          "code_postal": "11150",
          "population": 1215,
          "superficie_km2": 34.0,
          "latitude": 43.2319984,
          "longitude": 2.033,
          "distance_km": 17.44
        },
        {
          "code_insee": "11397",
          "nom": "Trèbes",
          "slug": "trebes",
          "code_postal": "11800",
          "population": 5416,
          "superficie_km2": 18.0,
          "latitude": 43.2060013,
          "longitude": 2.46,
          "distance_km": 18.27
        },
        {
          "code_insee": "11281",
          "nom": "Pexiora",
          "slug": "pexiora",
          "code_postal": "11150",
          "population": 1253,
          "superficie_km2": 14.0,
          "latitude": 43.269001,
          "longitude": 2.04,
          "distance_km": 18.66
        },
        {
          "code_insee": "11426",
          "nom": "Villegly",
          "slug": "villegly",
          "code_postal": "11600",
          "population": 1208,
          "superficie_km2": 10.0,
          "latitude": 43.2929993,
          "longitude": 2.437,
          "distance_km": 20.37
        }
      ],
      "zonage_abc": "C",
      "reclassement_abc": "Non",
      "codes_postaux": [
        {
          "code_postal": "11290",
          "libelle_acheminement": "ALAIRAC"
        }
      ],
      "logement": {
        "logements_total": 626,
        "residences_principales": 602,
        "logements_vacants": 13,
        "residences_secondaires": 11,
        "maisons": 579,
        "appartements": 46,
        "proprietaires": 408,
        "locataires": 174,
        "hlm": 64,
        "construits_avant_1919": 48,
        "construits_1919_1945": 27,
        "construits_1946_1970": 34,
        "construits_1971_1990": 115,
        "construits_1991_2005": 189,
        "construits_2006_2019": 149,
        "chauffage_electrique": 400,
        "chauffage_fioul": 62,
        "chauffage_gaz_ville": 1,
        "chauffage_gaz_bouteille": 19,
        "chauffage_autre": 120,
        "menages": 602,
        "logements_avant_1990": 224
      },
      "artisans": {
        "monte_escalier": 0,
        "chauffage_pac_clim": 2,
        "isolation": 0,
        "menuiserie": 0,
        "fenetres_velux": 0,
        "couverture_toiture": 0,
        "facade_peinture": 4,
        "portes_volets": 0,
        "piscine": 1,
        "vmc_ventilation": 0,
        "assainissement": 2
      },
      "revenus": {
        "revenu_median": 21650.0,
        "part_menages_imposes": null,
        "taux_pauvrete": null
      },
      "aides_etat": {
        "zone_climatique": "H3",
        "qpv": false,
        "action_coeur_de_ville": false,
        "petites_villes_de_demain": false
      }
    },
    {
      "code_insee": "11006",
      "nom": "Albas",
      "nom_a": null,
      "nom_de": null,
      "slug": "albas",
      "code_postal": "11360",
      "population": 87,
      "superficie_km2": 2286.25,
      "latitude": 43.0046,
      "longitude": 2.7328,
      "villes_proches": [
        {
          "code_insee": "11071",
          "nom": "Cascastel-des-Corbières",
          "slug": "cascastel-des-corbieres",
          "code_postal": "11360",
          "population": 212,
          "superficie_km2": 1571.3,
          "latitude": 42.9779,
          "longitude": 2.7521,
          "distance_km": 3.36
        },
        {
          "code_insee": "11176",
          "nom": "Jonquières",
          "slug": "jonquieres",
          "code_postal": "11220",
          "population": 45,
          "superficie_km2": 1356.31,
          "latitude": 43.0421,
          "longitude": 2.7265,
          "distance_km": 4.2
        },
        {
          "code_insee": "11431",
          "nom": "Villeneuve-les-Corbières",
          "slug": "villeneuve-les-corbieres",
          "code_postal": "11360",
          "population": 253,
          "superficie_km2": 2427.85,
          "latitude": 42.9624,
          "longitude": 2.765,
          "distance_km": 5.37
        },
        {
          "code_insee": "11110",
          "nom": "Coustouge",
          "slug": "coustouge",
          "code_postal": "11220",
          "population": 117,
          "superficie_km2": 973.93,
          "latitude": 43.0549,
          "longitude": 2.7425,
          "distance_km": 5.65
        },
        {
          "code_insee": "11386",
          "nom": "Talairan",
          "slug": "talairan",
          "code_postal": "11220",
          "population": 440,
          "superficie_km2": 3785.27,
          "latitude": 43.0204,
          "longitude": 2.6654,
          "distance_km": 5.75
        },
        {
          "code_insee": "11305",
          "nom": "Quintillan",
          "slug": "quintillan",
          "code_postal": "11360",
          "population": 62,
          "superficie_km2": 1646.03,
          "latitude": 42.9585,
          "longitude": 2.6968,
          "distance_km": 5.9
        },
        {
          "code_insee": "11124",
          "nom": "Durban-Corbières",
          "slug": "durban-corbieres",
          "code_postal": "11360",
          "population": 649,
          "superficie_km2": 2563.69,
          "latitude": 42.9975,
          "longitude": 2.8116,
          "distance_km": 6.46
        },
        {
          "code_insee": "11152",
          "nom": "Fontjoncouse",
          "slug": "fontjoncouse",
          "code_postal": "11360",
          "population": 139,
          "superficie_km2": 2771.76,
          "latitude": 43.0424,
          "longitude": 2.7945,
          "distance_km": 6.54
        },
        {
          "code_insee": "11271",
          "nom": "Palairac",
          "slug": "palairac",
          "code_postal": "11330",
          "population": 33,
          "superficie_km2": 1844.63,
          "latitude": 42.9584,
          "longitude": 2.6574,
          "distance_km": 8.0
        },
        {
          "code_insee": "11435",
          "nom": "Villerouge-Termenès",
          "slug": "villerouge-termenes",
          "code_postal": "11330",
          "population": 165,
          "superficie_km2": 2001.47,
          "latitude": 43.0038,
          "longitude": 2.6344,
          "distance_km": 8.0
        },
        {
          "code_insee": "11345",
          "nom": "Saint-Jean-de-Barrou",
          "slug": "saint-jean-de-barrou",
          "code_postal": "11360",
          "population": 272,
          "superficie_km2": 758.03,
          "latitude": 42.9623,
          "longitude": 2.8262,
          "distance_km": 8.94
        },
        {
          "code_insee": "11351",
          "nom": "Saint-Laurent-de-la-Cabrerisse",
          "slug": "saint-laurent-de-la-cabrerisse",
          "code_postal": "11220",
          "population": 753,
          "superficie_km2": 2528.88,
          "latitude": 43.0851,
          "longitude": 2.7156,
          "distance_km": 9.06
        },
        {
          "code_insee": "11137",
          "nom": "Félines-Termenès",
          "slug": "felines-termenes",
          "code_postal": "11330",
          "population": 130,
          "superficie_km2": 1031.21,
          "latitude": 42.9851,
          "longitude": 2.6148,
          "distance_km": 9.84
        },
        {
          "code_insee": "11436",
          "nom": "Villesèque-des-Corbières",
          "slug": "villeseque-des-corbieres",
          "code_postal": "11360",
          "population": 386,
          "superficie_km2": 3198.23,
          "latitude": 43.0174,
          "longitude": 2.8585,
          "distance_km": 10.32
        },
        {
          "code_insee": "11401",
          "nom": "Tuchan",
          "slug": "tuchan",
          "code_postal": "11350",
          "population": 791,
          "superficie_km2": 5947.18,
          "latitude": 42.9114,
          "longitude": 2.7366,
          "distance_km": 10.37
        },
        {
          "code_insee": "11392",
          "nom": "Tournissan",
          "slug": "tournissan",
          "code_postal": "11220",
          "population": 292,
          "superficie_km2": 1197.49,
          "latitude": 43.0847,
          "longitude": 2.6612,
          "distance_km": 10.64
        },
        {
          "code_insee": "11125",
          "nom": "Embres-et-Castelmaure",
          "slug": "embres-et-castelmaure",
          "code_postal": "11360",
          "population": 165,
          "superficie_km2": 3259.79,
          "latitude": 42.9278,
          "longitude": 2.8142,
          "distance_km": 10.81
        },
        {
          "code_insee": "11390",
          "nom": "Thézan-des-Corbières",
          "slug": "thezan-des-corbieres",
          "code_postal": "11200",
          "population": 573,
          "superficie_km2": 2649.75,
          "latitude": 43.0947,
          "longitude": 2.7918,
          "distance_km": 11.11
        },
        {
          "code_insee": "11213",
          "nom": "Maisons",
          "slug": "maisons",
          "code_postal": "11330",
          "population": 59,
          "superficie_km2": 1227.11,
          "latitude": 42.9292,
          "longitude": 2.6406,
          "distance_km": 11.25
        },
        {
          "code_insee": "11132",
          "nom": "Fabrezan",
          "slug": "fabrezan",
          "code_postal": "11200",
          "population": 1306,
          "superficie_km2": 2887.43,
          "latitude": 43.1282,
          "longitude": 2.7139,
          "distance_km": 13.83
        }
      ],
      "zonage_abc": "C",
      "reclassement_abc": "Non",
      "codes_postaux": [
        {
          "code_postal": "11360",
          "libelle_acheminement": "ALBAS"
        }
      ],
      "logement": {
        "logements_total": 95,
        "residences_principales": 43,
        "logements_vacants": 8,
        "residences_secondaires": 43,
        "maisons": 90,
        "appartements": 3,
        "proprietaires": 37,
        "locataires": 4,
        "hlm": 0,
        "construits_avant_1919": 11,
        "construits_1919_1945": 2,
        "construits_1946_1970": 0,
        "construits_1971_1990": 9,
        "construits_1991_2005": 3,
        "construits_2006_2019": 13,
        "chauffage_electrique": 12,
        "chauffage_fioul": 2,
        "chauffage_gaz_ville": 0,
        "chauffage_gaz_bouteille": 1,
        "chauffage_autre": 25,
        "menages": 43,
        "logements_avant_1990": 22
      },
      "artisans": {
        "monte_escalier": 0,
        "chauffage_pac_clim": 0,
        "isolation": 0,
        "menuiserie": 0,
        "fenetres_velux": 0,
        "couverture_toiture": 0,
        "facade_peinture": 1,
        "portes_volets": 0,
        "piscine": 0,
        "vmc_ventilation": 0,
        "assainissement": 0
      },
      "revenus": {
        "revenu_median": null,
        "part_menages_imposes": null,
        "taux_pauvrete": null
      },
      "aides_etat": {
        "zone_climatique": "H3",
        "qpv": false,
        "action_coeur_de_ville": false,
        "petites_villes_de_demain": false
      }
    },
    {
      "code_insee": "11007",
      "nom": "Albières",
      "nom_a": null,
      "nom_de": null,
      "slug": "albieres",
      "code_postal": "11330",
      "population": 117,
      "superficie_km2": 1738.48,
      "latitude": 42.9452,
      "longitude": 2.447,
      "villes_proches": [
        {
          "code_insee": "11155",
          "nom": "Fourtou",
          "slug": "fourtou",
          "code_postal": "11190",
          "population": 77,
          "superficie_km2": 2098.94,
          "latitude": 42.9106,
          "longitude": 2.443,
          "distance_km": 3.86
        },
        {
          "code_insee": "11187",
          "nom": "Lanet",
          "slug": "lanet",
          "code_postal": "11330",
          "population": 57,
          "superficie_km2": 888.02,
          "latitude": 42.965,
          "longitude": 2.4868,
          "distance_km": 3.92
        },
        {
          "code_insee": "11020",
          "nom": "Auriac",
          "slug": "auriac",
          "code_postal": "11330",
          "population": 33,
          "superficie_km2": 2150.82,
          "latitude": 42.9259,
          "longitude": 2.4916,
          "distance_km": 4.22
        },
        {
          "code_insee": "11015",
          "nom": "Arques",
          "slug": "arques",
          "code_postal": "11190",
          "population": 248,
          "superficie_km2": 1897.24,
          "latitude": 42.9445,
          "longitude": 2.3878,
          "distance_km": 4.82
        },
        {
          "code_insee": "11044",
          "nom": "Bouisse",
          "slug": "bouisse",
          "code_postal": "11330",
          "population": 104,
          "superficie_km2": 2622.55,
          "latitude": 42.9899,
          "longitude": 2.4259,
          "distance_km": 5.26
        },
        {
          "code_insee": "11250",
          "nom": "Montjoi",
          "slug": "montjoi",
          "code_postal": "11330",
          "population": 43,
          "superficie_km2": 740.4,
          "latitude": 42.9941,
          "longitude": 2.4789,
          "distance_km": 6.03
        },
        {
          "code_insee": "11402",
          "nom": "Valmigère",
          "slug": "valmigere",
          "code_postal": "11580",
          "population": 28,
          "superficie_km2": 600.69,
          "latitude": 42.9823,
          "longitude": 2.3868,
          "distance_km": 6.4
        },
        {
          "code_insee": "11374",
          "nom": "Salza",
          "slug": "salza",
          "code_postal": "11330",
          "population": 29,
          "superficie_km2": 850.11,
          "latitude": 42.9877,
          "longitude": 2.5064,
          "distance_km": 6.76
        },
        {
          "code_insee": "11260",
          "nom": "Mouthoumet",
          "slug": "mouthoumet",
          "code_postal": "11330",
          "population": 116,
          "superficie_km2": 1403.01,
          "latitude": 42.9631,
          "longitude": 2.5315,
          "distance_km": 7.16
        },
        {
          "code_insee": "11381",
          "nom": "Sougraigne",
          "slug": "sougraigne",
          "code_postal": "11190",
          "population": 125,
          "superficie_km2": 1898.35,
          "latitude": 42.906,
          "longitude": 2.3639,
          "distance_km": 8.05
        },
        {
          "code_insee": "11412",
          "nom": "Villardebelle",
          "slug": "villardebelle",
          "code_postal": "11580",
          "population": 66,
          "superficie_km2": 1341.81,
          "latitude": 43.0124,
          "longitude": 2.4057,
          "distance_km": 8.19
        },
        {
          "code_insee": "11310",
          "nom": "Rennes-les-Bains",
          "slug": "rennes-les-bains",
          "code_postal": "11190",
          "population": 238,
          "superficie_km2": 1930.0,
          "latitude": 42.9227,
          "longitude": 2.3468,
          "distance_km": 8.53
        },
        {
          "code_insee": "11384",
          "nom": "Soulatgé",
          "slug": "soulatge",
          "code_postal": "11330",
          "population": 126,
          "superficie_km2": 2470.05,
          "latitude": 42.8766,
          "longitude": 2.4993,
          "distance_km": 8.74
        },
        {
          "code_insee": "11235",
          "nom": "Missègre",
          "slug": "missegre",
          "code_postal": "11580",
          "population": 72,
          "superficie_km2": 749.1,
          "latitude": 43.0036,
          "longitude": 2.3743,
          "distance_km": 8.78
        },
        {
          "code_insee": "11191",
          "nom": "Laroque-de-Fa",
          "slug": "laroque-de-fa",
          "code_postal": "11330",
          "population": 138,
          "superficie_km2": 2081.52,
          "latitude": 42.9545,
          "longitude": 2.5547,
          "distance_km": 8.83
        },
        {
          "code_insee": "11065",
          "nom": "Camps-sur-l'Agly",
          "slug": "camps-sur-l-agly",
          "code_postal": "11190",
          "population": 66,
          "superficie_km2": 2650.16,
          "latitude": 42.8659,
          "longitude": 2.4179,
          "distance_km": 9.13
        },
        {
          "code_insee": "11112",
          "nom": "Cubières-sur-Cinoble",
          "slug": "cubieres-sur-cinoble",
          "code_postal": "11190",
          "population": 83,
          "superficie_km2": 1486.07,
          "latitude": 42.864,
          "longitude": 2.4712,
          "distance_km": 9.24
        },
        {
          "code_insee": "11082",
          "nom": "Caunette-sur-Lauquet",
          "slug": "caunette-sur-lauquet",
          "code_postal": "11250",
          "population": 11,
          "superficie_km2": 508.8,
          "latitude": 43.0279,
          "longitude": 2.4218,
          "distance_km": 9.42
        },
        {
          "code_insee": "11186",
          "nom": "Lairière",
          "slug": "lairiere",
          "code_postal": "11330",
          "population": 52,
          "superficie_km2": 1350.27,
          "latitude": 43.028,
          "longitude": 2.481,
          "distance_km": 9.61
        },
        {
          "code_insee": "11094",
          "nom": "Clermont-sur-Lauquet",
          "slug": "clermont-sur-lauquet",
          "code_postal": "11250",
          "population": 29,
          "superficie_km2": 1873.89,
          "latitude": 43.0484,
          "longitude": 2.4296,
          "distance_km": 11.56
        }
      ],
      "zonage_abc": "C",
      "reclassement_abc": "Non",
      "codes_postaux": [
        {
          "code_postal": "11330",
          "libelle_acheminement": "ALBIERES"
        }
      ],
      "logement": {
        "logements_total": 111,
        "residences_principales": 59,
        "logements_vacants": 7,
        "residences_secondaires": 45,
        "maisons": 107,
        "appartements": 1,
        "proprietaires": 41,
        "locataires": 16,
        "hlm": 0,
        "construits_avant_1919": 14,
        "construits_1919_1945": 2,
        "construits_1946_1970": 11,
        "construits_1971_1990": 11,
        "construits_1991_2005": 14,
        "construits_2006_2019": 5,
        "chauffage_electrique": 12,
        "chauffage_fioul": 0,
        "chauffage_gaz_ville": 0,
        "chauffage_gaz_bouteille": 1,
        "chauffage_autre": 44,
        "menages": 59,
        "logements_avant_1990": 38
      },
      "artisans": {
        "monte_escalier": 0,
        "chauffage_pac_clim": 1,
        "isolation": 0,
        "menuiserie": 0,
        "fenetres_velux": 0,
        "couverture_toiture": 0,
        "facade_peinture": 0,
        "portes_volets": 0,
        "piscine": 0,
        "vmc_ventilation": 0,
        "assainissement": 1
      },
      "revenus": {
        "revenu_median": 17800.0,
        "part_menages_imposes": null,
        "taux_pauvrete": null
      },
      "aides_etat": {
        "zone_climatique": "H3",
        "qpv": false,
        "action_coeur_de_ville": false,
        "petites_villes_de_demain": false
      }
    },
    {
      "code_insee": "11008",
      "nom": "Alet-les-Bains",
      "nom_a": null,
      "nom_de": null,
      "slug": "alet-les-bains",
      "code_postal": "11580",
      "population": 379,
      "superficie_km2": 2424.82,
      "latitude": 42.9914,
      "longitude": 2.2618,
      "villes_proches": [
        {
          "code_insee": "11406",
          "nom": "Véraza",
          "slug": "veraza",
          "code_postal": "11580",
          "population": 35,
          "superficie_km2": 1504.51,
          "latitude": 42.9936,
          "longitude": 2.3047,
          "distance_km": 3.5
        },
        {
          "code_insee": "11209",
          "nom": "Luc-sur-Aude",
          "slug": "luc-sur-aude",
          "code_postal": "11190",
          "population": 257,
          "superficie_km2": 798.9,
          "latitude": 42.9636,
          "longitude": 2.285,
          "distance_km": 3.62
        },
        {
          "code_insee": "11240",
          "nom": "Montazels",
          "slug": "montazels",
          "code_postal": "11190",
          "population": 528,
          "superficie_km2": 443.34,
          "latitude": 42.9551,
          "longitude": 2.2435,
          "distance_km": 4.3
        },
        {
          "code_insee": "11323",
          "nom": "Roquetaillade-et-Conilhac",
          "slug": "roquetaillade-et-conilhac",
          "code_postal": "11190",
          "population": 265,
          "superficie_km2": 1634.11,
          "latitude": 42.9904,
          "longitude": 2.2075,
          "distance_km": 4.42
        },
        {
          "code_insee": "11010",
          "nom": "Antugnac",
          "slug": "antugnac",
          "code_postal": "11190",
          "population": 291,
          "superficie_km2": 984.02,
          "latitude": 42.9627,
          "longitude": 2.2174,
          "distance_km": 4.82
        },
        {
          "code_insee": "11105",
          "nom": "Cournanel",
          "slug": "cournanel",
          "code_postal": "11300",
          "population": 659,
          "superficie_km2": 639.45,
          "latitude": 43.0308,
          "longitude": 2.2343,
          "distance_km": 4.92
        },
        {
          "code_insee": "11073",
          "nom": "Cassaignes",
          "slug": "cassaignes",
          "code_postal": "11190",
          "population": 61,
          "superficie_km2": 385.7,
          "latitude": 42.948,
          "longitude": 2.2942,
          "distance_km": 5.5
        },
        {
          "code_insee": "11364",
          "nom": "Saint-Polycarpe",
          "slug": "saint-polycarpe",
          "code_postal": "11300",
          "population": 169,
          "superficie_km2": 1417.87,
          "latitude": 43.0311,
          "longitude": 2.3091,
          "distance_km": 5.85
        },
        {
          "code_insee": "11211",
          "nom": "Magrie",
          "slug": "magrie",
          "code_postal": "11300",
          "population": 547,
          "superficie_km2": 1028.15,
          "latitude": 43.0271,
          "longitude": 2.2071,
          "distance_km": 5.96
        },
        {
          "code_insee": "11206",
          "nom": "Limoux",
          "slug": "limoux",
          "code_postal": "11300",
          "population": 10532,
          "superficie_km2": 3250.67,
          "latitude": 43.0464,
          "longitude": 2.2452,
          "distance_km": 6.26
        },
        {
          "code_insee": "11109",
          "nom": "Coustaussa",
          "slug": "coustaussa",
          "code_postal": "11190",
          "population": 50,
          "superficie_km2": 471.32,
          "latitude": 42.9379,
          "longitude": 2.2884,
          "distance_km": 6.33
        },
        {
          "code_insee": "11389",
          "nom": "Terroles",
          "slug": "terroles",
          "code_postal": "11580",
          "population": 14,
          "superficie_km2": 686.23,
          "latitude": 42.9927,
          "longitude": 2.3428,
          "distance_km": 6.59
        },
        {
          "code_insee": "11103",
          "nom": "Couiza",
          "slug": "couiza",
          "code_postal": "11190",
          "population": 1132,
          "superficie_km2": 688.22,
          "latitude": 42.9324,
          "longitude": 2.2714,
          "distance_km": 6.61
        },
        {
          "code_insee": "11287",
          "nom": "Peyrolles",
          "slug": "peyrolles",
          "code_postal": "11190",
          "population": 91,
          "superficie_km2": 1498.25,
          "latitude": 42.9602,
          "longitude": 2.3363,
          "distance_km": 6.98
        },
        {
          "code_insee": "11377",
          "nom": "Serres",
          "slug": "serres",
          "code_postal": "11190",
          "population": 89,
          "superficie_km2": 428.76,
          "latitude": 42.9447,
          "longitude": 2.3277,
          "distance_km": 7.46
        },
        {
          "code_insee": "11376",
          "nom": "La Serpent",
          "slug": "la-serpent",
          "code_postal": "11190",
          "population": 92,
          "superficie_km2": 1004.29,
          "latitude": 42.9651,
          "longitude": 2.1753,
          "distance_km": 7.62
        },
        {
          "code_insee": "11129",
          "nom": "Espéraza",
          "slug": "esperaza",
          "code_postal": "11260",
          "population": 1774,
          "superficie_km2": 1059.74,
          "latitude": 42.9297,
          "longitude": 2.2204,
          "distance_km": 7.64
        },
        {
          "code_insee": "11415",
          "nom": "Villar-Saint-Anselme",
          "slug": "villar-saint-anselme",
          "code_postal": "11250",
          "population": 113,
          "superficie_km2": 606.72,
          "latitude": 43.0572,
          "longitude": 2.2979,
          "distance_km": 7.88
        },
        {
          "code_insee": "11309",
          "nom": "Rennes-le-Château",
          "slug": "rennes-le-chateau",
          "code_postal": "11190",
          "population": 89,
          "superficie_km2": 1503.92,
          "latitude": 42.9154,
          "longitude": 2.2782,
          "distance_km": 8.56
        },
        {
          "code_insee": "11289",
          "nom": "Pieusse",
          "slug": "pieusse",
          "code_postal": "11300",
          "population": 970,
          "superficie_km2": 1335.98,
          "latitude": 43.0812,
          "longitude": 2.2525,
          "distance_km": 10.01
        }
      ],
      "zonage_abc": "C",
      "reclassement_abc": "Non",
      "codes_postaux": [
        {
          "code_postal": "11580",
          "libelle_acheminement": "ALET LES BAINS"
        }
      ],
      "logement": {
        "logements_total": 397,
        "residences_principales": 217,
        "logements_vacants": 78,
        "residences_secondaires": 101,
        "maisons": 311,
        "appartements": 80,
        "proprietaires": 139,
        "locataires": 69,
        "hlm": 4,
        "construits_avant_1919": 115,
        "construits_1919_1945": 15,
        "construits_1946_1970": 28,
        "construits_1971_1990": 34,
        "construits_1991_2005": 15,
        "construits_2006_2019": 4,
        "chauffage_electrique": 86,
        "chauffage_fioul": 8,
        "chauffage_gaz_ville": 64,
        "chauffage_gaz_bouteille": 1,
        "chauffage_autre": 55,
        "menages": 217,
        "logements_avant_1990": 192
      },
      "artisans": {
        "monte_escalier": 0,
        "chauffage_pac_clim": 1,
        "isolation": 0,
        "menuiserie": 0,
        "fenetres_velux": 0,
        "couverture_toiture": 0,
        "facade_peinture": 0,
        "portes_volets": 0,
        "piscine": 0,
        "vmc_ventilation": 0,
        "assainissement": 1
      },
      "revenus": {
        "revenu_median": 18710.0,
        "part_menages_imposes": null,
        "taux_pauvrete": null
      },
      "aides_etat": {
        "zone_climatique": "H3",
        "qpv": false,
        "action_coeur_de_ville": false,
        "petites_villes_de_demain": false
      }
    },
    {
      "code_insee": "11009",
      "nom": "Alzonne",
      "nom_a": null,
      "nom_de": null,
      "slug": "alzonne",
      "code_postal": "11170",
      "population": 1595,
      "superficie_km2": 22.0,
      "latitude": 43.2649994,
      "longitude": 2.175,
      "villes_proches": [
        {
          "code_insee": "11049",
          "nom": "Bram",
          "slug": "bram",
          "code_postal": "11150",
          "population": 3239,
          "superficie_km2": 18.0,
          "latitude": 43.2509995,
          "longitude": 2.1099999,
          "distance_km": 5.49
        },
        {
          "code_insee": "11288",
          "nom": "Pezens",
          "slug": "pezens",
          "code_postal": "11170",
          "population": 1598,
          "superficie_km2": 11.0,
          "latitude": 43.2550011,
          "longitude": 2.2479999,
          "distance_km": 6.02
        },
        {
          "code_insee": "11434",
          "nom": "Villepinte",
          "slug": "villepinte",
          "code_postal": "11150",
          "population": 1257,
          "superficie_km2": 15.0,
          "latitude": 43.2809982,
          "longitude": 2.096,
          "distance_km": 6.64
        },
        {
          "code_insee": "11018",
          "nom": "Arzens",
          "slug": "arzens",
          "code_postal": "11290",
          "population": 1202,
          "superficie_km2": 22.0,
          "latitude": 43.2010002,
          "longitude": 2.2049999,
          "distance_km": 7.52
        },
        {
          "code_insee": "11254",
          "nom": "Montréal",
          "slug": "montreal",
          "code_postal": "11290",
          "population": 2048,
          "superficie_km2": 56.0,
          "latitude": 43.2000008,
          "longitude": 2.148,
          "distance_km": 7.55
        },
        {
          "code_insee": "11084",
          "nom": "Caux-et-Sauzens",
          "slug": "caux-et-sauzens",
          "code_postal": "11170",
          "population": 1001,
          "superficie_km2": 9.0,
          "latitude": 43.2260017,
          "longitude": 2.2539999,
          "distance_km": 7.73
        },
        {
          "code_insee": "11005",
          "nom": "Alairac",
          "slug": "alairac",
          "code_postal": "11290",
          "population": 1364,
          "superficie_km2": 17.0,
          "latitude": 43.1819992,
          "longitude": 2.237,
          "distance_km": 10.51
        },
        {
          "code_insee": "11281",
          "nom": "Pexiora",
          "slug": "pexiora",
          "code_postal": "11150",
          "population": 1253,
          "superficie_km2": 14.0,
          "latitude": 43.269001,
          "longitude": 2.04,
          "distance_km": 10.94
        },
        {
          "code_insee": "11199",
          "nom": "Lavalette",
          "slug": "lavalette",
          "code_postal": "11290",
          "population": 1532,
          "superficie_km2": 7.0,
          "latitude": 43.1920013,
          "longitude": 2.2709999,
          "distance_km": 11.24
        },
        {
          "code_insee": "11279",
          "nom": "Pennautier",
          "slug": "pennautier",
          "code_postal": "11610",
          "population": 2795,
          "superficie_km2": 19.0,
          "latitude": 43.2509995,
          "longitude": 2.313,
          "distance_km": 11.28
        },
        {
          "code_insee": "11418",
          "nom": "Villasavary",
          "slug": "villasavary",
          "code_postal": "11150",
          "population": 1215,
          "superficie_km2": 34.0,
          "latitude": 43.2319984,
          "longitude": 2.033,
          "distance_km": 12.07
        },
        {
          "code_insee": "11356",
          "nom": "Saint-Martin-Lalande",
          "slug": "saint-martin-lalande",
          "code_postal": "11400",
          "population": 1113,
          "superficie_km2": 13.0,
          "latitude": 43.3019981,
          "longitude": 2.016,
          "distance_km": 13.51
        },
        {
          "code_insee": "11425",
          "nom": "Villegailhenc",
          "slug": "villegailhenc",
          "code_postal": "11600",
          "population": 1671,
          "superficie_km2": 5.0,
          "latitude": 43.2719994,
          "longitude": 2.3469999,
          "distance_km": 13.95
        },
        {
          "code_insee": "11069",
          "nom": "Carcassonne",
          "slug": "carcassonne",
          "code_postal": "11000",
          "population": 46218,
          "superficie_km2": 65.0,
          "latitude": 43.2089996,
          "longitude": 2.3440001,
          "distance_km": 15.04
        },
        {
          "code_insee": "11429",
          "nom": "Villemoustaussou",
          "slug": "villemoustaussou",
          "code_postal": "11620",
          "population": 4468,
          "superficie_km2": 13.0,
          "latitude": 43.25,
          "longitude": 2.3659999,
          "distance_km": 15.56
        },
        {
          "code_insee": "11099",
          "nom": "Conques-sur-Orbiel",
          "slug": "conques-sur-orbiel",
          "code_postal": "11600",
          "population": 2575,
          "superficie_km2": 26.0,
          "latitude": 43.2840004,
          "longitude": 2.3840001,
          "distance_km": 17.05
        },
        {
          "code_insee": "11088",
          "nom": "Cazilhac",
          "slug": "cazilhac",
          "code_postal": "11570",
          "population": 1643,
          "superficie_km2": 4.0,
          "latitude": 43.1780014,
          "longitude": 2.359,
          "distance_km": 17.77
        },
        {
          "code_insee": "11076",
          "nom": "Castelnaudary",
          "slug": "castelnaudary",
          "code_postal": "11400",
          "population": 12448,
          "superficie_km2": 48.0,
          "latitude": 43.3230019,
          "longitude": 1.961,
          "distance_km": 18.48
        },
        {
          "code_insee": "11272",
          "nom": "Palaja",
          "slug": "palaja",
          "code_postal": "11570",
          "population": 2594,
          "superficie_km2": 15.0,
          "latitude": 43.1669998,
          "longitude": 2.3870001,
          "distance_km": 20.34
        },
        {
          "code_insee": "11430",
          "nom": "Villeneuve-la-Comptal",
          "slug": "villeneuve-la-comptal",
          "code_postal": "11400",
          "population": 1391,
          "superficie_km2": 16.0,
          "latitude": 43.2849999,
          "longitude": 1.92,
          "distance_km": 20.76
        }
      ],
      "zonage_abc": "C",
      "reclassement_abc": "Non",
      "codes_postaux": [
        {
          "code_postal": "11170",
          "libelle_acheminement": "ALZONNE"
        }
      ],
      "logement": {
        "logements_total": 870,
        "residences_principales": 720,
        "logements_vacants": 78,
        "residences_secondaires": 72,
        "maisons": 742,
        "appartements": 124,
        "proprietaires": 449,
        "locataires": 240,
        "hlm": 79,
        "construits_avant_1919": 184,
        "construits_1919_1945": 52,
        "construits_1946_1970": 98,
        "construits_1971_1990": 125,
        "construits_1991_2005": 114,
        "construits_2006_2019": 126,
        "chauffage_electrique": 369,
        "chauffage_fioul": 31,
        "chauffage_gaz_ville": 200,
        "chauffage_gaz_bouteille": 3,
        "chauffage_autre": 114,
        "menages": 720,
        "logements_avant_1990": 459
      },
      "artisans": {
        "monte_escalier": 0,
        "chauffage_pac_clim": 2,
        "isolation": 2,
        "menuiserie": 2,
        "fenetres_velux": 2,
        "couverture_toiture": 0,
        "facade_peinture": 2,
        "portes_volets": 2,
        "piscine": 1,
        "vmc_ventilation": 0,
        "assainissement": 2
      },
      "revenus": {
        "revenu_median": 19160.0,
        "part_menages_imposes": null,
        "taux_pauvrete": null
      },
      "aides_etat": {
        "zone_climatique": "H3",
        "qpv": false,
        "action_coeur_de_ville": false,
        "petites_villes_de_demain": false
      }
    },
    {
      "code_insee": "11010",
      "nom": "Antugnac",
      "nom_a": null,
      "nom_de": null,
      "slug": "antugnac",
      "code_postal": "11190",
      "population": 291,
      "superficie_km2": 984.02,
      "latitude": 42.9627,
      "longitude": 2.2174,
      "villes_proches": [
        {
          "code_insee": "11240",
          "nom": "Montazels",
          "slug": "montazels",
          "code_postal": "11190",
          "population": 528,
          "superficie_km2": 443.34,
          "latitude": 42.9551,
          "longitude": 2.2435,
          "distance_km": 2.29
        },
        {
          "code_insee": "11323",
          "nom": "Roquetaillade-et-Conilhac",
          "slug": "roquetaillade-et-conilhac",
          "code_postal": "11190",
          "population": 265,
          "superficie_km2": 1634.11,
          "latitude": 42.9904,
          "longitude": 2.2075,
          "distance_km": 3.18
        },
        {
          "code_insee": "11376",
          "nom": "La Serpent",
          "slug": "la-serpent",
          "code_postal": "11190",
          "population": 92,
          "superficie_km2": 1004.29,
          "latitude": 42.9651,
          "longitude": 2.1753,
          "distance_km": 3.44
        },
        {
          "code_insee": "11129",
          "nom": "Espéraza",
          "slug": "esperaza",
          "code_postal": "11260",
          "population": 1774,
          "superficie_km2": 1059.74,
          "latitude": 42.9297,
          "longitude": 2.2204,
          "distance_km": 3.68
        },
        {
          "code_insee": "11008",
          "nom": "Alet-les-Bains",
          "slug": "alet-les-bains",
          "code_postal": "11580",
          "population": 379,
          "superficie_km2": 2424.82,
          "latitude": 42.9914,
          "longitude": 2.2618,
          "distance_km": 4.82
        },
        {
          "code_insee": "11209",
          "nom": "Luc-sur-Aude",
          "slug": "luc-sur-aude",
          "code_postal": "11190",
          "population": 257,
          "superficie_km2": 798.9,
          "latitude": 42.9636,
          "longitude": 2.285,
          "distance_km": 5.5
        },
        {
          "code_insee": "11103",
          "nom": "Couiza",
          "slug": "couiza",
          "code_postal": "11190",
          "population": 1132,
          "superficie_km2": 688.22,
          "latitude": 42.9324,
          "longitude": 2.2714,
          "distance_km": 5.54
        },
        {
          "code_insee": "11063",
          "nom": "Campagne-sur-Aude",
          "slug": "campagne-sur-aude",
          "code_postal": "11260",
          "population": 618,
          "superficie_km2": 610.86,
          "latitude": 42.9134,
          "longitude": 2.2021,
          "distance_km": 5.62
        },
        {
          "code_insee": "11045",
          "nom": "Bouriège",
          "slug": "bouriege",
          "code_postal": "11300",
          "population": 151,
          "superficie_km2": 1091.01,
          "latitude": 42.9938,
          "longitude": 2.1575,
          "distance_km": 5.98
        },
        {
          "code_insee": "11131",
          "nom": "Val-du-Faby",
          "slug": "val-du-faby",
          "code_postal": "11260",
          "population": 580,
          "superficie_km2": 2466.9,
          "latitude": 42.9263,
          "longitude": 2.1573,
          "distance_km": 6.35
        },
        {
          "code_insee": "11109",
          "nom": "Coustaussa",
          "slug": "coustaussa",
          "code_postal": "11190",
          "population": 50,
          "superficie_km2": 471.32,
          "latitude": 42.9379,
          "longitude": 2.2884,
          "distance_km": 6.4
        },
        {
          "code_insee": "11073",
          "nom": "Cassaignes",
          "slug": "cassaignes",
          "code_postal": "11190",
          "population": 61,
          "superficie_km2": 385.7,
          "latitude": 42.948,
          "longitude": 2.2942,
          "distance_km": 6.46
        },
        {
          "code_insee": "11211",
          "nom": "Magrie",
          "slug": "magrie",
          "code_postal": "11300",
          "population": 547,
          "superficie_km2": 1028.15,
          "latitude": 43.0271,
          "longitude": 2.2071,
          "distance_km": 7.21
        },
        {
          "code_insee": "11309",
          "nom": "Rennes-le-Château",
          "slug": "rennes-le-chateau",
          "code_postal": "11190",
          "population": 89,
          "superficie_km2": 1503.92,
          "latitude": 42.9154,
          "longitude": 2.2782,
          "distance_km": 7.22
        },
        {
          "code_insee": "11341",
          "nom": "Saint-Ferriol",
          "slug": "saint-ferriol",
          "code_postal": "11500",
          "population": 118,
          "superficie_km2": 1008.17,
          "latitude": 42.8965,
          "longitude": 2.2245,
          "distance_km": 7.38
        },
        {
          "code_insee": "11105",
          "nom": "Cournanel",
          "slug": "cournanel",
          "code_postal": "11300",
          "population": 659,
          "superficie_km2": 639.45,
          "latitude": 43.0308,
          "longitude": 2.2343,
          "distance_km": 7.7
        },
        {
          "code_insee": "11394",
          "nom": "Tourreilles",
          "slug": "tourreilles",
          "code_postal": "11300",
          "population": 128,
          "superficie_km2": 645.06,
          "latitude": 43.0216,
          "longitude": 2.1677,
          "distance_km": 7.7
        },
        {
          "code_insee": "11168",
          "nom": "Granès",
          "slug": "granes",
          "code_postal": "11500",
          "population": 118,
          "superficie_km2": 556.48,
          "latitude": 42.8966,
          "longitude": 2.256,
          "distance_km": 7.99
        },
        {
          "code_insee": "11304",
          "nom": "Quillan",
          "slug": "quillan",
          "code_postal": "11500",
          "population": 2978,
          "superficie_km2": 3596.29,
          "latitude": 42.8833,
          "longitude": 2.1733,
          "distance_km": 9.53
        },
        {
          "code_insee": "11206",
          "nom": "Limoux",
          "slug": "limoux",
          "code_postal": "11300",
          "population": 10532,
          "superficie_km2": 3250.67,
          "latitude": 43.0464,
          "longitude": 2.2452,
          "distance_km": 9.58
        }
      ],
      "zonage_abc": "C",
      "reclassement_abc": "Non",
      "codes_postaux": [
        {
          "code_postal": "11190",
          "libelle_acheminement": "ANTUGNAC"
        }
      ],
      "logement": {
        "logements_total": 218,
        "residences_principales": 144,
        "logements_vacants": 5,
        "residences_secondaires": 69,
        "maisons": 213,
        "appartements": 5,
        "proprietaires": 118,
        "locataires": 21,
        "hlm": 0,
        "construits_avant_1919": 30,
        "construits_1919_1945": 13,
        "construits_1946_1970": 12,
        "construits_1971_1990": 32,
        "construits_1991_2005": 40,
        "construits_2006_2019": 17,
        "chauffage_electrique": 55,
        "chauffage_fioul": 15,
        "chauffage_gaz_ville": 0,
        "chauffage_gaz_bouteille": 7,
        "chauffage_autre": 67,
        "menages": 144,
        "logements_avant_1990": 87
      },
      "artisans": {
        "monte_escalier": 0,
        "chauffage_pac_clim": 0,
        "isolation": 1,
        "menuiserie": 1,
        "fenetres_velux": 1,
        "couverture_toiture": 0,
        "facade_peinture": 0,
        "portes_volets": 1,
        "piscine": 0,
        "vmc_ventilation": 0,
        "assainissement": 0
      },
      "revenus": {
        "revenu_median": 20150.0,
        "part_menages_imposes": null,
        "taux_pauvrete": null
      },
      "aides_etat": {
        "zone_climatique": "H3",
        "qpv": false,
        "action_coeur_de_ville": false,
        "petites_villes_de_demain": false
      }
    },
    {
      "code_insee": "11011",
      "nom": "Aragon",
      "nom_a": null,
      "nom_de": null,
      "slug": "aragon",
      "code_postal": "11600",
      "population": 487,
      "superficie_km2": 2137.28,
      "latitude": 43.2974,
      "longitude": 2.303,
      "villes_proches": [
        {
          "code_insee": "11404",
          "nom": "Ventenac-Cabardès",
          "slug": "ventenac-cabardes",
          "code_postal": "11610",
          "population": 962,
          "superficie_km2": 1081.57,
          "latitude": 43.2777,
          "longitude": 2.2787,
          "distance_km": 2.94
        },
        {
          "code_insee": "11413",
          "nom": "Villardonnel",
          "slug": "villardonnel",
          "code_postal": "11600",
          "population": 515,
          "superficie_km2": 1717.37,
          "latitude": 43.336,
          "longitude": 2.314,
          "distance_km": 4.38
        },
        {
          "code_insee": "11425",
          "nom": "Villegailhenc",
          "slug": "villegailhenc",
          "code_postal": "11600",
          "population": 1718,
          "superficie_km2": 504.45,
          "latitude": 43.2728,
          "longitude": 2.3484,
          "distance_km": 4.58
        },
        {
          "code_insee": "11156",
          "nom": "Fraisse-Cabardès",
          "slug": "fraisse-cabardes",
          "code_postal": "11600",
          "population": 104,
          "superficie_km2": 740.01,
          "latitude": 43.3323,
          "longitude": 2.2718,
          "distance_km": 4.63
        },
        {
          "code_insee": "11279",
          "nom": "Pennautier",
          "slug": "pennautier",
          "code_postal": "11610",
          "population": 2895,
          "superficie_km2": 1852.6,
          "latitude": 43.2522,
          "longitude": 2.3083,
          "distance_km": 5.04
        },
        {
          "code_insee": "11372",
          "nom": "Salsigne",
          "slug": "salsigne",
          "code_postal": "11600",
          "population": 400,
          "superficie_km2": 1182.35,
          "latitude": 43.3243,
          "longitude": 2.3605,
          "distance_km": 5.53
        },
        {
          "code_insee": "11259",
          "nom": "Moussoulens",
          "slug": "moussoulens",
          "code_postal": "11170",
          "population": 956,
          "superficie_km2": 1953.36,
          "latitude": 43.2847,
          "longitude": 2.2343,
          "distance_km": 5.74
        },
        {
          "code_insee": "11099",
          "nom": "Conques-sur-Orbiel",
          "slug": "conques-sur-orbiel",
          "code_postal": "11600",
          "population": 2523,
          "superficie_km2": 2581.32,
          "latitude": 43.2815,
          "longitude": 2.38,
          "distance_km": 6.48
        },
        {
          "code_insee": "11411",
          "nom": "Villanière",
          "slug": "villaniere",
          "code_postal": "11600",
          "population": 152,
          "superficie_km2": 725.42,
          "latitude": 43.3505,
          "longitude": 2.3392,
          "distance_km": 6.59
        },
        {
          "code_insee": "11288",
          "nom": "Pezens",
          "slug": "pezens",
          "code_postal": "11170",
          "population": 1611,
          "superficie_km2": 1123.18,
          "latitude": 43.2557,
          "longitude": 2.244,
          "distance_km": 6.66
        },
        {
          "code_insee": "11052",
          "nom": "Brousses-et-Villaret",
          "slug": "brousses-et-villaret",
          "code_postal": "11390",
          "population": 365,
          "superficie_km2": 1156.72,
          "latitude": 43.3433,
          "longitude": 2.2454,
          "distance_km": 6.91
        },
        {
          "code_insee": "11194",
          "nom": "Lastours",
          "slug": "lastours",
          "code_postal": "11600",
          "population": 144,
          "superficie_km2": 282.18,
          "latitude": 43.3273,
          "longitude": 2.3794,
          "distance_km": 7.02
        },
        {
          "code_insee": "11253",
          "nom": "Montolieu",
          "slug": "montolieu",
          "code_postal": "11170",
          "population": 829,
          "superficie_km2": 2465.87,
          "latitude": 43.3139,
          "longitude": 2.2183,
          "distance_km": 7.1
        },
        {
          "code_insee": "11429",
          "nom": "Villemoustaussou",
          "slug": "villemoustaussou",
          "code_postal": "11620",
          "population": 4401,
          "superficie_km2": 1263.48,
          "latitude": 43.2491,
          "longitude": 2.3712,
          "distance_km": 7.7
        },
        {
          "code_insee": "11174",
          "nom": "Les Ilhes",
          "slug": "les-ilhes",
          "code_postal": "11380",
          "population": 64,
          "superficie_km2": 417.21,
          "latitude": 43.3557,
          "longitude": 2.3726,
          "distance_km": 8.59
        },
        {
          "code_insee": "11084",
          "nom": "Caux-et-Sauzens",
          "slug": "caux-et-sauzens",
          "code_postal": "11170",
          "population": 1025,
          "superficie_km2": 915.42,
          "latitude": 43.227,
          "longitude": 2.2575,
          "distance_km": 8.65
        },
        {
          "code_insee": "11150",
          "nom": "Fontiers-Cabardès",
          "slug": "fontiers-cabardes",
          "code_postal": "11390",
          "population": 476,
          "superficie_km2": 881.28,
          "latitude": 43.3735,
          "longitude": 2.2502,
          "distance_km": 9.48
        },
        {
          "code_insee": "11391",
          "nom": "La Tourette-Cabardès",
          "slug": "la-tourette-cabardes",
          "code_postal": "11380",
          "population": 20,
          "superficie_km2": 520.74,
          "latitude": 43.3815,
          "longitude": 2.3277,
          "distance_km": 9.56
        },
        {
          "code_insee": "11079",
          "nom": "Caudebronde",
          "slug": "caudebronde",
          "code_postal": "11390",
          "population": 221,
          "superficie_km2": 651.69,
          "latitude": 43.3866,
          "longitude": 2.2989,
          "distance_km": 9.92
        },
        {
          "code_insee": "11232",
          "nom": "Miraval-Cabardès",
          "slug": "miraval-cabardes",
          "code_postal": "11380",
          "population": 59,
          "superficie_km2": 1252.61,
          "latitude": 43.3848,
          "longitude": 2.3377,
          "distance_km": 10.12
        }
      ],
      "zonage_abc": "C",
      "reclassement_abc": "Non",
      "codes_postaux": [
        {
          "code_postal": "11600",
          "libelle_acheminement": "ARAGON"
        }
      ],
      "logement": {
        "logements_total": 287,
        "residences_principales": 222,
        "logements_vacants": 20,
        "residences_secondaires": 44,
        "maisons": 275,
        "appartements": 10,
        "proprietaires": 173,
        "locataires": 41,
        "hlm": 0,
        "construits_avant_1919": 75,
        "construits_1919_1945": 6,
        "construits_1946_1970": 10,
        "construits_1971_1990": 50,
        "construits_1991_2005": 44,
        "construits_2006_2019": 35,
        "chauffage_electrique": 103,
        "chauffage_fioul": 37,
        "chauffage_gaz_ville": 0,
        "chauffage_gaz_bouteille": 15,
        "chauffage_autre": 66,
        "menages": 222,
        "logements_avant_1990": 141
      },
      "artisans": {
        "monte_escalier": 0,
        "chauffage_pac_clim": 0,
        "isolation": 0,
        "menuiserie": 0,
        "fenetres_velux": 0,
        "couverture_toiture": 0,
        "facade_peinture": 0,
        "portes_volets": 0,
        "piscine": 0,
        "vmc_ventilation": 0,
        "assainissement": 0
      },
      "revenus": {
        "revenu_median": 22390.0,
        "part_menages_imposes": null,
        "taux_pauvrete": null
      },
      "aides_etat": {
        "zone_climatique": "H3",
        "qpv": false,
        "action_coeur_de_ville": false,
        "petites_villes_de_demain": false
      }
    },
    {
      "code_insee": "11012",
      "nom": "Argeliers",
      "nom_a": null,
      "nom_de": null,
      "slug": "argeliers",
      "code_postal": "11120",
      "population": 2142,
      "superficie_km2": 11.0,
      "latitude": 43.3110008,
      "longitude": 2.911,
      "villes_proches": [
        {
          "code_insee": "11041",
          "nom": "Bize-Minervois",
          "slug": "bize-minervois",
          "code_postal": "11120",
          "population": 1258,
          "superficie_km2": 21.0,
          "latitude": 43.3289986,
          "longitude": 2.872,
          "distance_km": 3.74
        },
        {
          "code_insee": "11164",
          "nom": "Ginestas",
          "slug": "ginestas",
          "code_postal": "11120",
          "population": 1547,
          "superficie_km2": 10.0,
          "latitude": 43.276001,
          "longitude": 2.8770001,
          "distance_km": 4.77
        },
        {
          "code_insee": "11369",
          "nom": "Sallèles-d'Aude",
          "slug": "salleles-d-aude",
          "code_postal": "11590",
          "population": 3064,
          "superficie_km2": 13.0,
          "latitude": 43.2700005,
          "longitude": 2.9349999,
          "distance_km": 4.96
        },
        {
          "code_insee": "11269",
          "nom": "Ouveillan",
          "slug": "ouveillan",
          "code_postal": "11590",
          "population": 2554,
          "superficie_km2": 30.0,
          "latitude": 43.2929993,
          "longitude": 2.97,
          "distance_km": 5.18
        },
        {
          "code_insee": "11353",
          "nom": "Saint-Marcel-sur-Aude",
          "slug": "saint-marcel-sur-aude",
          "code_postal": "11120",
          "population": 2027,
          "superficie_km2": 8.0,
          "latitude": 43.2509995,
          "longitude": 2.924,
          "distance_km": 6.75
        },
        {
          "code_insee": "11360",
          "nom": "Saint-Nazaire-d'Aude",
          "slug": "saint-nazaire-d-aude",
          "code_postal": "11120",
          "population": 2091,
          "superficie_km2": 9.0,
          "latitude": 43.2490006,
          "longitude": 2.891,
          "distance_km": 7.08
        },
        {
          "code_insee": "34226",
          "nom": "Quarante",
          "slug": "quarante",
          "code_postal": "34310",
          "population": 1791,
          "superficie_km2": 30.0,
          "latitude": 43.3510017,
          "longitude": 2.9809999,
          "distance_km": 7.2
        },
        {
          "code_insee": "11217",
          "nom": "Marcorignan",
          "slug": "marcorignan",
          "code_postal": "11120",
          "population": 1303,
          "superficie_km2": 6.0,
          "latitude": 43.2249985,
          "longitude": 2.915,
          "distance_km": 9.57
        },
        {
          "code_insee": "11258",
          "nom": "Moussan",
          "slug": "moussan",
          "code_postal": "11120",
          "population": 2066,
          "superficie_km2": 15.0,
          "latitude": 43.230999,
          "longitude": 2.9560001,
          "distance_km": 9.61
        },
        {
          "code_insee": "11116",
          "nom": "Cuxac-d'Aude",
          "slug": "cuxac-d-aude",
          "code_postal": "11590",
          "population": 4061,
          "superficie_km2": 22.0,
          "latitude": 43.2579994,
          "longitude": 3.006,
          "distance_km": 9.69
        },
        {
          "code_insee": "34089",
          "nom": "Creissan",
          "slug": "creissan",
          "code_postal": "34370",
          "population": 1371,
          "superficie_km2": 9.0,
          "latitude": 43.3769989,
          "longitude": 3.0,
          "distance_km": 10.28
        },
        {
          "code_insee": "34052",
          "nom": "Capestang",
          "slug": "capestang",
          "code_postal": "34310",
          "population": 3318,
          "superficie_km2": 41.0,
          "latitude": 43.3219986,
          "longitude": 3.0480001,
          "distance_km": 11.15
        },
        {
          "code_insee": "11067",
          "nom": "Canet",
          "slug": "canet",
          "code_postal": "11200",
          "population": 1833,
          "superficie_km2": 14.0,
          "latitude": 43.2260017,
          "longitude": 2.8310001,
          "distance_km": 11.46
        },
        {
          "code_insee": "11264",
          "nom": "Névian",
          "slug": "nevian",
          "code_postal": "11200",
          "population": 1280,
          "superficie_km2": 14.0,
          "latitude": 43.2039986,
          "longitude": 2.8859999,
          "distance_km": 12.07
        },
        {
          "code_insee": "34245",
          "nom": "Saint-Chinian",
          "slug": "saint-chinian",
          "code_postal": "34360",
          "population": 1740,
          "superficie_km2": 23.0,
          "latitude": 43.4210014,
          "longitude": 2.931,
          "distance_km": 12.34
        },
        {
          "code_insee": "34225",
          "nom": "Puisserguier",
          "slug": "puisserguier",
          "code_postal": "34620",
          "population": 3020,
          "superficie_km2": 28.0,
          "latitude": 43.3769989,
          "longitude": 3.046,
          "distance_km": 13.15
        },
        {
          "code_insee": "11106",
          "nom": "Coursan",
          "slug": "coursan",
          "code_postal": "11110",
          "population": 5751,
          "superficie_km2": 25.0,
          "latitude": 43.2470017,
          "longitude": 3.059,
          "distance_km": 13.94
        },
        {
          "code_insee": "34189",
          "nom": "Olonzac",
          "slug": "olonzac",
          "code_postal": "34210",
          "population": 1687,
          "superficie_km2": 19.0,
          "latitude": 43.2809982,
          "longitude": 2.737,
          "distance_km": 14.47
        },
        {
          "code_insee": "11255",
          "nom": "Montredon-des-Corbières",
          "slug": "montredon-des-corbieres",
          "code_postal": "11100",
          "population": 1480,
          "superficie_km2": 17.0,
          "latitude": 43.1809998,
          "longitude": 2.925,
          "distance_km": 14.5
        },
        {
          "code_insee": "11267",
          "nom": "Ornaisons",
          "slug": "ornaisons",
          "code_postal": "11200",
          "population": 1102,
          "superficie_km2": 11.0,
          "latitude": 43.1780014,
          "longitude": 2.8369999,
          "distance_km": 15.96
        }
      ],
      "zonage_abc": "C",
      "reclassement_abc": "Non",
      "codes_postaux": [
        {
          "code_postal": "11120",
          "libelle_acheminement": "ARGELIERS"
        }
      ],
      "logement": {
        "logements_total": 1187,
        "residences_principales": 933,
        "logements_vacants": 152,
        "residences_secondaires": 102,
        "maisons": 1113,
        "appartements": 67,
        "proprietaires": 751,
        "locataires": 159,
        "hlm": 21,
        "construits_avant_1919": 121,
        "construits_1919_1945": 51,
        "construits_1946_1970": 99,
        "construits_1971_1990": 178,
        "construits_1991_2005": 191,
        "construits_2006_2019": 268,
        "chauffage_electrique": 621,
        "chauffage_fioul": 52,
        "chauffage_gaz_ville": 90,
        "chauffage_gaz_bouteille": 13,
        "chauffage_autre": 157,
        "menages": 933,
        "logements_avant_1990": 449
      },
      "artisans": {
        "monte_escalier": 0,
        "chauffage_pac_clim": 7,
        "isolation": 0,
        "menuiserie": 6,
        "fenetres_velux": 6,
        "couverture_toiture": 0,
        "facade_peinture": 5,
        "portes_volets": 6,
        "piscine": 0,
        "vmc_ventilation": 4,
        "assainissement": 3
      },
      "revenus": {
        "revenu_median": 20810.0,
        "part_menages_imposes": null,
        "taux_pauvrete": null
      },
      "aides_etat": {
        "zone_climatique": "H3",
        "qpv": false,
        "action_coeur_de_ville": false,
        "petites_villes_de_demain": false
      }
    },
    {
      "code_insee": "11013",
      "nom": "Argens-Minervois",
      "nom_a": null,
      "nom_de": null,
      "slug": "argens-minervois",
      "code_postal": "11200",
      "population": 395,
      "superficie_km2": 460.98,
      "latitude": 43.2458,
      "longitude": 2.7692,
      "villes_proches": [
        {
          "code_insee": "11324",
          "nom": "Roubia",
          "slug": "roubia",
          "code_postal": "11200",
          "population": 520,
          "superficie_km2": 756.78,
          "latitude": 43.2507,
          "longitude": 2.7977,
          "distance_km": 2.37
        },
        {
          "code_insee": "11393",
          "nom": "Tourouzelle",
          "slug": "tourouzelle",
          "code_postal": "11200",
          "population": 494,
          "superficie_km2": 1436.77,
          "latitude": 43.2451,
          "longitude": 2.7241,
          "distance_km": 3.65
        },
        {
          "code_insee": "11273",
          "nom": "Paraza",
          "slug": "paraza",
          "code_postal": "11200",
          "population": 700,
          "superficie_km2": 954.89,
          "latitude": 43.2561,
          "longitude": 2.8133,
          "distance_km": 3.75
        },
        {
          "code_insee": "11172",
          "nom": "Homps",
          "slug": "homps",
          "code_postal": "11200",
          "population": 609,
          "superficie_km2": 308.92,
          "latitude": 43.2685,
          "longitude": 2.7247,
          "distance_km": 4.4
        },
        {
          "code_insee": "34189",
          "nom": "Olonzac",
          "slug": "olonzac",
          "code_postal": "34210",
          "population": 1693,
          "superficie_km2": 1923.7,
          "latitude": 43.2816,
          "longitude": 2.7431,
          "distance_km": 4.51
        },