{
  "departement": {
    "code": "13",
    "nom": "Bouches-du-Rhône",
    "slug": "bouches-du-rhone",
    "population_totale": 2058154
  },
  "region": {
    "id": 19,
    "code": "18",
    "nom": "Provence-Alpes-Côte d'Azur",
    "slug": "provence-alpes-cote-d-azur"
  },
  "voisins": [
    {
      "dep_code": "04",
      "dep_nom": "Alpes-de-Haute-Provence",
      "dep_slug": "alpes-de-haute-provence"
    },
    {
      "dep_code": "05",
      "dep_nom": "Hautes-Alpes",
      "dep_slug": "hautes-alpes"
    },
    {
      "dep_code": "06",
      "dep_nom": "Alpes-Maritimes",
      "dep_slug": "alpes-maritimes"
    },
    {
      "dep_code": "83",
      "dep_nom": "Var",
      "dep_slug": "var"
    }
  ],
  "communes_count": 119,
  "communes": [
    {
      "code_insee": "13001",
      "nom": "Aix-en-Provence",
      "nom_a": null,
      "nom_de": null,
      "slug": "aix-en-provence",
      "code_postal": "13100",
      "population": 147478,
      "superficie_km2": 188.0,
      "latitude": 43.5359993,
      "longitude": 5.3990002,
      "villes_proches": [
        {
          "code_insee": "13032",
          "nom": "Éguilles",
          "slug": "eguilles",
          "code_postal": "13510",
          "population": 8220,
          "superficie_km2": 34.0,
          "latitude": 43.5709992,
          "longitude": 5.329,
          "distance_km": 6.85
        },
        {
          "code_insee": "13114",
          "nom": "Ventabren",
          "slug": "ventabren",
          "code_postal": "13122",
          "population": 5484,
          "superficie_km2": 26.0,
          "latitude": 43.5419998,
          "longitude": 5.3060002,
          "distance_km": 7.53
        },
        {
          "code_insee": "13109",
          "nom": "Le Tholonet",
          "slug": "le-tholonet",
          "code_postal": "13100",
          "population": 2355,
          "superficie_km2": 11.0,
          "latitude": 43.5200005,
          "longitude": 5.5079999,
          "distance_km": 8.97
        },
        {
          "code_insee": "13060",
          "nom": "Meyreuil",
          "slug": "meyreuil",
          "code_postal": "13590",
          "population": 5935,
          "superficie_km2": 20.0,
          "latitude": 43.4910011,
          "longitude": 5.5009999,
          "distance_km": 9.63
        },
        {
          "code_insee": "13113",
          "nom": "Venelles",
          "slug": "venelles",
          "code_postal": "13770",
          "population": 8426,
          "superficie_km2": 21.0,
          "latitude": 43.5929985,
          "longitude": 5.4910002,
          "distance_km": 9.75
        },
        {
          "code_insee": "13015",
          "nom": "Bouc-Bel-Air",
          "slug": "bouc-bel-air",
          "code_postal": "13320",
          "population": 15248,
          "superficie_km2": 22.0,
          "latitude": 43.4469986,
          "longitude": 5.4120002,
          "distance_km": 9.95
        },
        {
          "code_insee": "13095",
          "nom": "Saint-Marc-Jaumegarde",
          "slug": "saint-marc-jaumegarde",
          "code_postal": "13100",
          "population": 1247,
          "superficie_km2": 23.0,
          "latitude": 43.5559998,
          "longitude": 5.5219998,
          "distance_km": 10.16
        },
        {
          "code_insee": "13019",
          "nom": "Cabriès",
          "slug": "cabries",
          "code_postal": "13480",
          "population": 10070,
          "superficie_km2": 37.0,
          "latitude": 43.4500008,
          "longitude": 5.3499999,
          "distance_km": 10.35
        },
        {
          "code_insee": "13041",
          "nom": "Gardanne",
          "slug": "gardanne",
          "code_postal": "13120",
          "population": 21174,
          "superficie_km2": 27.0,
          "latitude": 43.4529991,
          "longitude": 5.48,
          "distance_km": 11.31
        },
        {
          "code_insee": "13091",
          "nom": "Saint-Cannat",
          "slug": "saint-cannat",
          "code_postal": "13760",
          "population": 5653,
          "superficie_km2": 37.0,
          "latitude": 43.6139984,
          "longitude": 5.3070002,
          "distance_km": 11.41
        },
        {
          "code_insee": "13118",
          "nom": "Coudoux",
          "slug": "coudoux",
          "code_postal": "13111",
          "population": 3726,
          "superficie_km2": 13.0,
          "latitude": 43.5600014,
          "longitude": 5.2540002,
          "distance_km": 11.99
        },
        {
          "code_insee": "13112",
          "nom": "Velaux",
          "slug": "velaux",
          "code_postal": "13880",
          "population": 8713,
          "superficie_km2": 25.0,
          "latitude": 43.5239983,
          "longitude": 5.25,
          "distance_km": 12.09
        },
        {
          "code_insee": "13080",
          "nom": "Le Puy-Sainte-Réparade",
          "slug": "le-puy-sainte-reparade",
          "code_postal": "13610",
          "population": 5830,
          "superficie_km2": 45.0,
          "latitude": 43.6520004,
          "longitude": 5.4400001,
          "distance_km": 13.31
        },
        {
          "code_insee": "13059",
          "nom": "Meyrargues",
          "slug": "meyrargues",
          "code_postal": "13650",
          "population": 3830,
          "superficie_km2": 42.0,
          "latitude": 43.6240006,
          "longitude": 5.5229998,
          "distance_km": 13.98
        },
        {
          "code_insee": "13107",
          "nom": "Simiane-Collongue",
          "slug": "simiane-collongue",
          "code_postal": "13109",
          "population": 5849,
          "superficie_km2": 30.0,
          "latitude": 43.4119988,
          "longitude": 5.4380002,
          "distance_km": 14.14
        },
        {
          "code_insee": "13081",
          "nom": "Rognac",
          "slug": "rognac",
          "code_postal": "13340",
          "population": 12175,
          "superficie_km2": 18.0,
          "latitude": 43.4970017,
          "longitude": 5.2309999,
          "distance_km": 14.22
        },
        {
          "code_insee": "13117",
          "nom": "Vitrolles",
          "slug": "vitrolles",
          "code_postal": "13127",
          "population": 35532,
          "superficie_km2": 37.0,
          "latitude": 43.4500008,
          "longitude": 5.2639999,
          "distance_km": 14.49
        },
        {
          "code_insee": "13025",
          "nom": "Châteauneuf-le-Rouge",
          "slug": "chateauneuf-le-rouge",
          "code_postal": "13790",
          "population": 2357,
          "superficie_km2": 13.0,
          "latitude": 43.4910011,
          "longitude": 5.5679998,
          "distance_km": 14.52
        },
        {
          "code_insee": "13082",
          "nom": "Rognes",
          "slug": "rognes",
          "code_postal": "13840",
          "population": 4586,
          "superficie_km2": 58.0,
          "latitude": 43.6650009,
          "longitude": 5.3520002,
          "distance_km": 14.84
        },
        {
          "code_insee": "13040",
          "nom": "Fuveau",
          "slug": "fuveau",
          "code_postal": "13710",
          "population": 10115,
          "superficie_km2": 30.0,
          "latitude": 43.4599991,
          "longitude": 5.553,
          "distance_km": 15.02
        }
      ],
      "zonage_abc": "A",
      "reclassement_abc": "Non",
      "codes_postaux": [
        {
          "code_postal": "13080",
          "libelle_acheminement": "AIX EN PROVENCE"
        },
        {
          "code_postal": "13090",
          "libelle_acheminement": "AIX EN PROVENCE"
        },
        {
          "code_postal": "13100",
          "libelle_acheminement": "AIX EN PROVENCE"
        },
        {
          "code_postal": "13290",
          "libelle_acheminement": "AIX EN PROVENCE"
        },
        {
          "code_postal": "13540",
          "libelle_acheminement": "AIX EN PROVENCE"
        }
      ],
      "logement": {
        "logements_total": 89240,
        "residences_principales": 75353,
        "logements_vacants": 7520,
        "residences_secondaires": 6365,
        "maisons": 17343,
        "appartements": 70902,
        "proprietaires": 29489,
        "locataires": 43836,
        "hlm": 10718,
        "construits_avant_1919": 6382,
        "construits_1919_1945": 2945,
        "construits_1946_1970": 18860,
        "construits_1971_1990": 24250,
        "construits_1991_2005": 12047,
        "construits_2006_2019": 9525,
        "chauffage_electrique": 37200,
        "chauffage_fioul": 4412,
        "chauffage_gaz_ville": 29592,
        "chauffage_gaz_bouteille": 912,
        "chauffage_autre": 3234,
        "menages": 75353,
        "logements_avant_1990": 52437
      },
      "artisans": {
        "monte_escalier": 17,
        "chauffage_pac_clim": 227,
        "isolation": 132,
        "menuiserie": 161,
        "fenetres_velux": 161,
        "couverture_toiture": 71,
        "facade_peinture": 236,
        "portes_volets": 161,
        "piscine": 34,
        "vmc_ventilation": 93,
        "assainissement": 169
      },
      "revenus": {
        "revenu_median": 25130.0,
        "part_menages_imposes": 58.0,
        "taux_pauvrete": 14.0
      },
      "aides_etat": {
        "zone_climatique": "H3",
        "qpv": true,
        "action_coeur_de_ville": false,
        "petites_villes_de_demain": false
      }
    },
    {
      "code_insee": "13002",
      "nom": "Allauch",
      "nom_a": null,
      "nom_de": null,
      "slug": "allauch",
      "code_postal": "13190",
      "population": 21490,
      "superficie_km2": 50.0,
      "latitude": 43.3530006,
      "longitude": 5.5110002,
      "villes_proches": [
        {
          "code_insee": "13075",
          "nom": "Plan-de-Cuques",
          "slug": "plan-de-cuques",
          "code_postal": "13380",
          "population": 11396,
          "superficie_km2": 9.0,
          "latitude": 43.3670006,
          "longitude": 5.4650002,
          "distance_km": 4.03
        },
        {
          "code_insee": "13020",
          "nom": "Cadolive",
          "slug": "cadolive",
          "code_postal": "13950",
          "population": 2202,
          "superficie_km2": 4.0,
          "latitude": 43.394001,
          "longitude": 5.5320001,
          "distance_km": 4.86
        },
        {
          "code_insee": "13073",
          "nom": "Peypin",
          "slug": "peypin",
          "code_postal": "13124",
          "population": 5613,
          "superficie_km2": 13.0,
          "latitude": 43.3849983,
          "longitude": 5.5710001,
          "distance_km": 6.02
        },
        {
          "code_insee": "13101",
          "nom": "Saint-Savournin",
          "slug": "saint-savournin",
          "code_postal": "13119",
          "population": 3501,
          "superficie_km2": 6.0,
          "latitude": 43.4059982,
          "longitude": 5.5310001,
          "distance_km": 6.11
        },
        {
          "code_insee": "13062",
          "nom": "Mimet",
          "slug": "mimet",
          "code_postal": "13105",
          "population": 4187,
          "superficie_km2": 19.0,
          "latitude": 43.4129982,
          "longitude": 5.4990001,
          "distance_km": 6.74
        },
        {
          "code_insee": "13086",
          "nom": "Roquevaire",
          "slug": "roquevaire",
          "code_postal": "13360",
          "population": 8673,
          "superficie_km2": 24.0,
          "latitude": 43.3440018,
          "longitude": 5.5980001,
          "distance_km": 7.11
        },
        {
          "code_insee": "13031",
          "nom": "La Destrousse",
          "slug": "la-destrousse",
          "code_postal": "13112",
          "population": 3913,
          "superficie_km2": 3.0,
          "latitude": 43.3759995,
          "longitude": 5.599,
          "distance_km": 7.56
        },
        {
          "code_insee": "13005",
          "nom": "Aubagne",
          "slug": "aubagne",
          "code_postal": "13400",
          "population": 47342,
          "superficie_km2": 55.0,
          "latitude": 43.2939987,
          "longitude": 5.5630002,
          "distance_km": 7.79
        },
        {
          "code_insee": "13070",
          "nom": "La Penne-sur-Huveaune",
          "slug": "la-penne-sur-huveaune",
          "code_postal": "13821",
          "population": 6569,
          "superficie_km2": 4.0,
          "latitude": 43.2770004,
          "longitude": 5.5180001,
          "distance_km": 8.47
        },
        {
          "code_insee": "13046",
          "nom": "Gréasque",
          "slug": "greasque",
          "code_postal": "13850",
          "population": 4392,
          "superficie_km2": 6.0,
          "latitude": 43.4259987,
          "longitude": 5.5469999,
          "distance_km": 8.62
        },
        {
          "code_insee": "13107",
          "nom": "Simiane-Collongue",
          "slug": "simiane-collongue",
          "code_postal": "13109",
          "population": 5849,
          "superficie_km2": 30.0,
          "latitude": 43.4119988,
          "longitude": 5.4380002,
          "distance_km": 8.82
        },
        {
          "code_insee": "13013",
          "nom": "Belcodène",
          "slug": "belcodene",
          "code_postal": "13720",
          "population": 1948,
          "superficie_km2": 13.0,
          "latitude": 43.4220009,
          "longitude": 5.5840001,
          "distance_km": 9.68
        },
        {
          "code_insee": "13016",
          "nom": "La Bouilladisse",
          "slug": "la-bouilladisse",
          "code_postal": "13720",
          "population": 6341,
          "superficie_km2": 13.0,
          "latitude": 43.3969994,
          "longitude": 5.6199999,
          "distance_km": 10.08
        },
        {
          "code_insee": "13055",
          "nom": "Marseille",
          "slug": "marseille",
          "code_postal": "13000",
          "population": 873076,
          "superficie_km2": 241.0,
          "latitude": 43.3,
          "longitude": 5.4,
          "distance_km": 10.74
        },
        {
          "code_insee": "13041",
          "nom": "Gardanne",
          "slug": "gardanne",
          "code_postal": "13120",
          "population": 21174,
          "superficie_km2": 27.0,
          "latitude": 43.4529991,
          "longitude": 5.48,
          "distance_km": 11.4
        },
        {
          "code_insee": "13106",
          "nom": "Septèmes-les-Vallons",
          "slug": "septemes-les-vallons",
          "code_postal": "13240",
          "population": 11734,
          "superficie_km2": 18.0,
          "latitude": 43.394001,
          "longitude": 5.381,
          "distance_km": 11.45
        },
        {
          "code_insee": "13119",
          "nom": "Carnoux-en-Provence",
          "slug": "carnoux-en-provence",
          "code_postal": "13470",
          "population": 6747,
          "superficie_km2": 4.0,
          "latitude": 43.2579994,
          "longitude": 5.566,
          "distance_km": 11.46
        },
        {
          "code_insee": "13007",
          "nom": "Auriol",
          "slug": "auriol",
          "code_postal": "13390",
          "population": 12839,
          "superficie_km2": 45.0,
          "latitude": 43.3610001,
          "longitude": 5.658,
          "distance_km": 11.92
        },
        {
          "code_insee": "13040",
          "nom": "Fuveau",
          "slug": "fuveau",
          "code_postal": "13710",
          "population": 10115,
          "superficie_km2": 30.0,
          "latitude": 43.4599991,
          "longitude": 5.553,
          "distance_km": 12.37
        },
        {
          "code_insee": "13042",
          "nom": "Gémenos",
          "slug": "gemenos",
          "code_postal": "13420",
          "population": 6794,
          "superficie_km2": 33.0,
          "latitude": 43.2980003,
          "longitude": 5.6440001,
          "distance_km": 12.38
        }
      ],
      "zonage_abc": "A",
      "reclassement_abc": "Non",
      "codes_postaux": [
        {
          "code_postal": "13190",
          "libelle_acheminement": "ALLAUCH"
        }
      ],
      "logement": {
        "logements_total": 9948,
        "residences_principales": 8965,
        "logements_vacants": 673,
        "residences_secondaires": 309,
        "maisons": 7232,
        "appartements": 2675,
        "proprietaires": 6744,
        "locataires": 2029,
        "hlm": 599,
        "construits_avant_1919": 504,
        "construits_1919_1945": 688,
        "construits_1946_1970": 1428,
        "construits_1971_1990": 2874,
        "construits_1991_2005": 1491,
        "construits_2006_2019": 1815,
        "chauffage_electrique": 5077,
        "chauffage_fioul": 782,
        "chauffage_gaz_ville": 1734,
        "chauffage_gaz_bouteille": 374,
        "chauffage_autre": 997,
        "menages": 8965,
        "logements_avant_1990": 5494
      },
      "artisans": {
        "monte_escalier": 2,
        "chauffage_pac_clim": 90,
        "isolation": 16,
        "menuiserie": 29,
        "fenetres_velux": 29,
        "couverture_toiture": 7,
        "facade_peinture": 30,
        "portes_volets": 29,
        "piscine": 5,
        "vmc_ventilation": 32,
        "assainissement": 60
      },
      "revenus": {
        "revenu_median": 26950.0,
        "part_menages_imposes": 66.0,
        "taux_pauvrete": 7.0
      },
      "aides_etat": {
        "zone_climatique": "H3",
        "qpv": false,
        "action_coeur_de_ville": false,
        "petites_villes_de_demain": false
      }
    },
    {
      "code_insee": "13003",
      "nom": "Alleins",
      "nom_a": null,
      "nom_de": null,
      "slug": "alleins",
      "code_postal": "13980",
      "population": 2764,
      "superficie_km2": 17.0,
      "latitude": 43.7070007,
      "longitude": 5.151,
      "villes_proches": [
        {
          "code_insee": "13053",
          "nom": "Mallemort",
          "slug": "mallemort",
          "code_postal": "13370",
          "population": 6172,
          "superficie_km2": 29.0,
          "latitude": 43.7290001,
          "longitude": 5.1830001,
          "distance_km": 3.55
        },
        {
          "code_insee": "13115",
          "nom": "Vernègues",
          "slug": "vernegues",
          "code_postal": "13116",
          "population": 2123,
          "superficie_km2": 16.0,
          "latitude": 43.6839981,
          "longitude": 5.1880002,
          "distance_km": 3.92
        },
        {
          "code_insee": "13049",
          "nom": "Lamanon",
          "slug": "lamanon",
          "code_postal": "13113",
          "population": 2046,
          "superficie_km2": 19.0,
          "latitude": 43.7050018,
          "longitude": 5.0890002,
          "distance_km": 4.99
        },
        {
          "code_insee": "13105",
          "nom": "Sénas",
          "slug": "senas",
          "code_postal": "13560",
          "population": 6838,
          "superficie_km2": 31.0,
          "latitude": 43.7449989,
          "longitude": 5.0869999,
          "distance_km": 6.66
        },
        {
          "code_insee": "84074",
          "nom": "Mérindol",
          "slug": "merindol",
          "code_postal": "84360",
          "population": 2251,
          "superficie_km2": 27.0,
          "latitude": 43.762001,
          "longitude": 5.2020001,
          "distance_km": 7.36
        },
        {
          "code_insee": "13024",
          "nom": "Charleval",
          "slug": "charleval",
          "code_postal": "13350",
          "population": 2628,
          "superficie_km2": 14.0,
          "latitude": 43.7210007,
          "longitude": 5.2459998,
          "distance_km": 7.79
        },
        {
          "code_insee": "13069",
          "nom": "Pélissanne",
          "slug": "pelissanne",
          "code_postal": "13330",
          "population": 10554,
          "superficie_km2": 19.0,
          "latitude": 43.6310005,
          "longitude": 5.1599998,
          "distance_km": 8.48
        },
        {
          "code_insee": "84038",
          "nom": "Cheval-Blanc",
          "slug": "cheval-blanc",
          "code_postal": "84460",
          "population": 4317,
          "superficie_km2": 59.0,
          "latitude": 43.7890015,
          "longitude": 5.1240001,
          "distance_km": 9.37
        },
        {
          "code_insee": "13103",
          "nom": "Salon-de-Provence",
          "slug": "salon-de-provence",
          "code_postal": "13300",
          "population": 44731,
          "superficie_km2": 71.0,
          "latitude": 43.6459999,
          "longitude": 5.0679998,
          "distance_km": 9.52
        },
        {
          "code_insee": "13050",
          "nom": "Lambesc",
          "slug": "lambesc",
          "code_postal": "13410",
          "population": 9991,
          "superficie_km2": 65.0,
          "latitude": 43.6619988,
          "longitude": 5.2519999,
          "distance_km": 9.54
        },
        {
          "code_insee": "13035",
          "nom": "Eyguières",
          "slug": "eyguieres",
          "code_postal": "13430",
          "population": 6887,
          "superficie_km2": 69.0,
          "latitude": 43.7029991,
          "longitude": 5.0159998,
          "distance_km": 10.86
        },
        {
          "code_insee": "13084",
          "nom": "La Roque-d'Anthéron",
          "slug": "la-roque-d-antheron",
          "code_postal": "13640",
          "population": 5377,
          "superficie_km2": 25.0,
          "latitude": 43.7179985,
          "longitude": 5.302,
          "distance_km": 12.2
        },
        {
          "code_insee": "13067",
          "nom": "Orgon",
          "slug": "orgon",
          "code_postal": "13660",
          "population": 2698,
          "superficie_km2": 35.0,
          "latitude": 43.7799988,
          "longitude": 5.0229998,
          "distance_km": 13.1
        },
        {
          "code_insee": "13044",
          "nom": "Grans",
          "slug": "grans",
          "code_postal": "13450",
          "population": 5274,
          "superficie_km2": 28.0,
          "latitude": 43.6139984,
          "longitude": 5.0450001,
          "distance_km": 13.4
        },
        {
          "code_insee": "84065",
          "nom": "Lauris",
          "slug": "lauris",
          "code_postal": "84360",
          "population": 3896,
          "superficie_km2": 22.0,
          "latitude": 43.7630005,
          "longitude": 5.303,
          "distance_km": 13.71
        },
        {
          "code_insee": "84086",
          "nom": "Oppède",
          "slug": "oppede",
          "code_postal": "84580",
          "population": 1284,
          "superficie_km2": 24.0,
          "latitude": 43.8310013,
          "longitude": 5.1700001,
          "distance_km": 13.87
        },
        {
          "code_insee": "13051",
          "nom": "Lançon-Provence",
          "slug": "lancon-provence",
          "code_postal": "13680",
          "population": 9340,
          "superficie_km2": 69.0,
          "latitude": 43.5760002,
          "longitude": 5.1599998,
          "distance_km": 14.58
        },
        {
          "code_insee": "84131",
          "nom": "Taillades",
          "slug": "taillades",
          "code_postal": "84300",
          "population": 1957,
          "superficie_km2": 7.0,
          "latitude": 43.8320007,
          "longitude": 5.0949998,
          "distance_km": 14.61
        },
        {
          "code_insee": "84071",
          "nom": "Maubec",
          "slug": "maubec",
          "code_postal": "84660",
          "population": 1914,
          "superficie_km2": 9.0,
          "latitude": 43.8419991,
          "longitude": 5.138,
          "distance_km": 15.05
        },
        {
          "code_insee": "13029",
          "nom": "Cornillon-Confoux",
          "slug": "cornillon-confoux",
          "code_postal": "13250",
          "population": 1571,
          "superficie_km2": 15.0,
          "latitude": 43.5779991,
          "longitude": 5.0770001,
          "distance_km": 15.53
        }
      ],
      "zonage_abc": "B2",
      "reclassement_abc": "Non",
      "codes_postaux": [
        {
          "code_postal": "13980",
          "libelle_acheminement": "ALLEINS"
        }
      ],
      "logement": {
        "logements_total": 1300,
        "residences_principales": 1189,
        "logements_vacants": 68,
        "residences_secondaires": 43,
        "maisons": 1122,
        "appartements": 172,
        "proprietaires": 861,
        "locataires": 300,
        "hlm": 113,
        "construits_avant_1919": 214,
        "construits_1919_1945": 54,
        "construits_1946_1970": 75,
        "construits_1971_1990": 334,
        "construits_1991_2005": 218,
        "construits_2006_2019": 247,
        "chauffage_electrique": 713,
        "chauffage_fioul": 103,
        "chauffage_gaz_ville": 145,
        "chauffage_gaz_bouteille": 15,
        "chauffage_autre": 213,
        "menages": 1189,
        "logements_avant_1990": 677
      },
      "artisans": {
        "monte_escalier": 0,
        "chauffage_pac_clim": 10,
        "isolation": 2,
        "menuiserie": 3,
        "fenetres_velux": 3,
        "couverture_toiture": 1,
        "facade_peinture": 6,
        "portes_volets": 3,
        "piscine": 1,
        "vmc_ventilation": 4,
        "assainissement": 6
      },
      "revenus": {
        "revenu_median": 24990.0,
        "part_menages_imposes": 58.0,
        "taux_pauvrete": 9.0
      },
      "aides_etat": {
        "zone_climatique": "H3",
        "qpv": false,
        "action_coeur_de_ville": false,
        "petites_villes_de_demain": false
      }
    },
    {
      "code_insee": "13004",
      "nom": "Arles",
      "nom_a": null,
      "nom_de": null,
      "slug": "arles",
      "code_postal": "13280",
      "population": 50415,
      "superficie_km2": 758.0,
      "latitude": 43.5470009,
      "longitude": 4.6620002,
      "villes_proches": [
        {
          "code_insee": "13096",
          "nom": "Saintes-Maries-de-la-Mer",
          "slug": "saintes-maries-de-la-mer",
          "code_postal": "13460",
          "population": 2120,
          "superficie_km2": 372.0,
          "latitude": 43.5040016,
          "longitude": 4.4640002,
          "distance_km": 16.66
        },
        {
          "code_insee": "13097",
          "nom": "Saint-Martin-de-Crau",
          "slug": "saint-martin-de-crau",
          "code_postal": "13310",
          "population": 13729,
          "superficie_km2": 215.0,
          "latitude": 43.6119995,
          "longitude": 4.8569999,
          "distance_km": 17.29
        },
        {
          "code_insee": "13078",
          "nom": "Port-Saint-Louis-du-Rhône",
          "slug": "port-saint-louis-du-rhone",
          "code_postal": "13230",
          "population": 8446,
          "superficie_km2": 83.0,
          "latitude": 43.4150009,
          "longitude": 4.8070002,
          "distance_km": 18.77
        },
        {
          "code_insee": "13038",
          "nom": "Fontvieille",
          "slug": "fontvieille",
          "code_postal": "13990",
          "population": 3521,
          "superficie_km2": 40.0,
          "latitude": 43.7229996,
          "longitude": 4.7230001,
          "distance_km": 20.18
        },
        {
          "code_insee": "13068",
          "nom": "Paradou",
          "slug": "paradou",
          "code_postal": "13520",
          "population": 2200,
          "superficie_km2": 16.0,
          "latitude": 43.7080002,
          "longitude": 4.7779999,
          "distance_km": 20.19
        },
        {
          "code_insee": "30117",
          "nom": "Fourques",
          "slug": "fourques",
          "code_postal": "30300",
          "population": 2719,
          "superficie_km2": 38.0,
          "latitude": 43.7120018,
          "longitude": 4.5489998,
          "distance_km": 20.48
        },
        {
          "code_insee": "13039",
          "nom": "Fos-sur-Mer",
          "slug": "fos-sur-mer",
          "code_postal": "13270",
          "population": 15469,
          "superficie_km2": 89.0,
          "latitude": 43.4560013,
          "longitude": 4.9039998,
          "distance_km": 21.99
        },
        {
          "code_insee": "13058",
          "nom": "Maussane-les-Alpilles",
          "slug": "maussane-les-alpilles",
          "code_postal": "13520",
          "population": 2396,
          "superficie_km2": 32.0,
          "latitude": 43.7140007,
          "longitude": 4.8330002,
          "distance_km": 23.11
        },
        {
          "code_insee": "13047",
          "nom": "Istres",
          "slug": "istres",
          "code_postal": "13118",
          "population": 44577,
          "superficie_km2": 114.0,
          "latitude": 43.5499992,
          "longitude": 4.9510002,
          "distance_km": 23.29
        },
        {
          "code_insee": "30258",
          "nom": "Saint-Gilles",
          "slug": "saint-gilles",
          "code_postal": "30800",
          "population": 14264,
          "superficie_km2": 152.0,
          "latitude": 43.658001,
          "longitude": 4.408,
          "distance_km": 23.89
        },
        {
          "code_insee": "13065",
          "nom": "Mouriès",
          "slug": "mouries",
          "code_postal": "13890",
          "population": 3414,
          "superficie_km2": 38.0,
          "latitude": 43.7010002,
          "longitude": 4.8899999,
          "distance_km": 25.1
        },
        {
          "code_insee": "30034",
          "nom": "Bellegarde",
          "slug": "bellegarde",
          "code_postal": "30127",
          "population": 7740,
          "superficie_km2": 45.0,
          "latitude": 43.7519989,
          "longitude": 4.4959998,
          "distance_km": 26.42
        },
        {
          "code_insee": "30032",
          "nom": "Beaucaire",
          "slug": "beaucaire",
          "code_postal": "30300",
          "population": 15680,
          "superficie_km2": 86.0,
          "latitude": 43.7799988,
          "longitude": 4.5939999,
          "distance_km": 26.48
        },
        {
          "code_insee": "13094",
          "nom": "Saint-Étienne-du-Grès",
          "slug": "saint-etienne-du-gres",
          "code_postal": "13103",
          "population": 2486,
          "superficie_km2": 29.0,
          "latitude": 43.7849999,
          "longitude": 4.7360001,
          "distance_km": 27.13
        },
        {
          "code_insee": "13108",
          "nom": "Tarascon",
          "slug": "tarascon",
          "code_postal": "13150",
          "population": 15423,
          "superficie_km2": 74.0,
          "latitude": 43.7939987,
          "longitude": 4.6859999,
          "distance_km": 27.53
        },
        {
          "code_insee": "13006",
          "nom": "Aureille",
          "slug": "aureille",
          "code_postal": "13930",
          "population": 1541,
          "superficie_km2": 22.0,
          "latitude": 43.7000008,
          "longitude": 4.9450002,
          "distance_km": 28.43
        },
        {
          "code_insee": "13063",
          "nom": "Miramas",
          "slug": "miramas",
          "code_postal": "13140",
          "population": 26405,
          "superficie_km2": 26.0,
          "latitude": 43.5839996,
          "longitude": 5.0139999,
          "distance_km": 28.66
        },
        {
          "code_insee": "30341",
          "nom": "Vauvert",
          "slug": "vauvert",
          "code_postal": "30600",
          "population": 11774,
          "superficie_km2": 111.0,
          "latitude": 43.6259995,
          "longitude": 4.3060002,
          "distance_km": 29.99
        },
        {
          "code_insee": "13077",
          "nom": "Port-de-Bouc",
          "slug": "port-de-bouc",
          "code_postal": "13110",
          "population": 16136,
          "superficie_km2": 12.0,
          "latitude": 43.4230003,
          "longitude": 4.993,
          "distance_km": 30.05
        },
        {
          "code_insee": "13098",
          "nom": "Saint-Mitre-les-Remparts",
          "slug": "saint-mitre-les-remparts",
          "code_postal": "13920",
          "population": 5816,
          "superficie_km2": 21.0,
          "latitude": 43.4550018,
          "longitude": 5.0149999,
          "distance_km": 30.25
        }
      ],
      "zonage_abc": "B1",
      "reclassement_abc": "Non",
      "codes_postaux": [
        {
          "code_postal": "13104",
          "libelle_acheminement": "ARLES"
        },
        {
          "code_postal": "13123",
          "libelle_acheminement": "ARLES"
        },
        {
          "code_postal": "13129",
          "libelle_acheminement": "ARLES"
        },
        {
          "code_postal": "13200",
          "libelle_acheminement": "ARLES"
        },
        {
          "code_postal": "13280",
          "libelle_acheminement": "ARLES"
        }
      ],
      "logement": {
        "logements_total": 29028,
        "residences_principales": 23788,
        "logements_vacants": 3177,
        "residences_secondaires": 2061,
        "maisons": 15843,
        "appartements": 12951,
        "proprietaires": 12346,
        "locataires": 10830,
        "hlm": 4814,
        "construits_avant_1919": 3667,
        "construits_1919_1945": 2409,
        "construits_1946_1970": 6424,
        "construits_1971_1990": 5594,
        "construits_1991_2005": 2909,
        "construits_2006_2019": 2476,
        "chauffage_electrique": 11535,
        "chauffage_fioul": 1316,
        "chauffage_gaz_ville": 8517,
        "chauffage_gaz_bouteille": 294,
        "chauffage_autre": 2124,
        "menages": 23788,
        "logements_avant_1990": 18094
      },
      "artisans": {
        "monte_escalier": 5,
        "chauffage_pac_clim": 131,
        "isolation": 54,
        "menuiserie": 67,
        "fenetres_velux": 67,
        "couverture_toiture": 16,
        "facade_peinture": 95,
        "portes_volets": 67,
        "piscine": 28,
        "vmc_ventilation": 47,
        "assainissement": 93
      },
      "revenus": {
        "revenu_median": 19340.0,
        "part_menages_imposes": 41.0,
        "taux_pauvrete": 24.0
      },
      "aides_etat": {
        "zone_climatique": "H3",
        "qpv": true,
        "action_coeur_de_ville": true,
        "petites_villes_de_demain": false
      }
    },
    {
      "code_insee": "13005",
      "nom": "Aubagne",
      "nom_a": null,
      "nom_de": null,
      "slug": "aubagne",
      "code_postal": "13400",
      "population": 47342,
      "superficie_km2": 55.0,
      "latitude": 43.2939987,
      "longitude": 5.5630002,
      "villes_proches": [
        {
          "code_insee": "13119",
          "nom": "Carnoux-en-Provence",
          "slug": "carnoux-en-provence",
          "code_postal": "13470",
          "population": 6747,
          "superficie_km2": 4.0,
          "latitude": 43.2579994,
          "longitude": 5.566,
          "distance_km": 4.01
        },
        {
          "code_insee": "13070",
          "nom": "La Penne-sur-Huveaune",
          "slug": "la-penne-sur-huveaune",
          "code_postal": "13821",
          "population": 6569,
          "superficie_km2": 4.0,
          "latitude": 43.2770004,
          "longitude": 5.5180001,
          "distance_km": 4.1
        },
        {
          "code_insee": "13086",
          "nom": "Roquevaire",
          "slug": "roquevaire",
          "code_postal": "13360",
          "population": 8673,
          "superficie_km2": 24.0,
          "latitude": 43.3440018,
          "longitude": 5.5980001,
          "distance_km": 6.24
        },
        {
          "code_insee": "13042",
          "nom": "Gémenos",
          "slug": "gemenos",
          "code_postal": "13420",
          "population": 6794,
          "superficie_km2": 33.0,
          "latitude": 43.2980003,
          "longitude": 5.6440001,
          "distance_km": 6.57
        },
        {
          "code_insee": "13085",
          "nom": "Roquefort-la-Bédoule",
          "slug": "roquefort-la-bedoule",
          "code_postal": "13830",
          "population": 5861,
          "superficie_km2": 31.0,
          "latitude": 43.2509995,
          "longitude": 5.6290002,
          "distance_km": 7.17
        },
        {
          "code_insee": "13002",
          "nom": "Allauch",
          "slug": "allauch",
          "code_postal": "13190",
          "population": 21490,
          "superficie_km2": 50.0,
          "latitude": 43.3530006,
          "longitude": 5.5110002,
          "distance_km": 7.79
        },
        {
          "code_insee": "13022",
          "nom": "Cassis",
          "slug": "cassis",
          "code_postal": "13260",
          "population": 6720,
          "superficie_km2": 26.0,
          "latitude": 43.2229996,
          "longitude": 5.5510001,
          "distance_km": 7.95
        },
        {
          "code_insee": "13031",
          "nom": "La Destrousse",
          "slug": "la-destrousse",
          "code_postal": "13112",
          "population": 3913,
          "superficie_km2": 3.0,
          "latitude": 43.3759995,
          "longitude": 5.599,
          "distance_km": 9.57
        },
        {
          "code_insee": "13023",
          "nom": "Ceyreste",
          "slug": "ceyreste",
          "code_postal": "13600",
          "population": 4813,
          "superficie_km2": 23.0,
          "latitude": 43.223999,
          "longitude": 5.6360002,
          "distance_km": 9.77
        },
        {
          "code_insee": "13073",
          "nom": "Peypin",
          "slug": "peypin",
          "code_postal": "13124",
          "population": 5613,
          "superficie_km2": 13.0,
          "latitude": 43.3849983,
          "longitude": 5.5710001,
          "distance_km": 10.14
        },
        {
          "code_insee": "13007",
          "nom": "Auriol",
          "slug": "auriol",
          "code_postal": "13390",
          "population": 12839,
          "superficie_km2": 45.0,
          "latitude": 43.3610001,
          "longitude": 5.658,
          "distance_km": 10.7
        },
        {
          "code_insee": "13075",
          "nom": "Plan-de-Cuques",
          "slug": "plan-de-cuques",
          "code_postal": "13380",
          "population": 11396,
          "superficie_km2": 9.0,
          "latitude": 43.3670006,
          "longitude": 5.4650002,
          "distance_km": 11.35
        },
        {
          "code_insee": "13020",
          "nom": "Cadolive",
          "slug": "cadolive",
          "code_postal": "13950",
          "population": 2202,
          "superficie_km2": 4.0,
          "latitude": 43.394001,
          "longitude": 5.5320001,
          "distance_km": 11.4
        },
        {
          "code_insee": "13028",
          "nom": "La Ciotat",
          "slug": "la-ciotat",
          "code_postal": "13600",
          "population": 36987,
          "superficie_km2": 32.0,
          "latitude": 43.1930008,
          "longitude": 5.6129999,
          "distance_km": 11.94
        },
        {
          "code_insee": "13030",
          "nom": "Cuges-les-Pins",
          "slug": "cuges-les-pins",
          "code_postal": "13780",
          "population": 5662,
          "superficie_km2": 40.0,
          "latitude": 43.2809982,
          "longitude": 5.71,
          "distance_km": 11.99
        },
        {
          "code_insee": "13016",
          "nom": "La Bouilladisse",
          "slug": "la-bouilladisse",
          "code_postal": "13720",
          "population": 6341,
          "superficie_km2": 13.0,
          "latitude": 43.3969994,
          "longitude": 5.6199999,
          "distance_km": 12.35
        },
        {
          "code_insee": "13101",
          "nom": "Saint-Savournin",
          "slug": "saint-savournin",
          "code_postal": "13119",
          "population": 3501,
          "superficie_km2": 6.0,
          "latitude": 43.4059982,
          "longitude": 5.5310001,
          "distance_km": 12.72
        },
        {
          "code_insee": "13055",
          "nom": "Marseille",
          "slug": "marseille",
          "code_postal": "13000",
          "population": 873076,
          "superficie_km2": 241.0,
          "latitude": 43.3,
          "longitude": 5.4,
          "distance_km": 13.21
        },
        {
          "code_insee": "13062",
          "nom": "Mimet",
          "slug": "mimet",
          "code_postal": "13105",
          "population": 4187,
          "superficie_km2": 19.0,
          "latitude": 43.4129982,
          "longitude": 5.4990001,
          "distance_km": 14.21
        },
        {
          "code_insee": "13013",
          "nom": "Belcodène",
          "slug": "belcodene",
          "code_postal": "13720",
          "population": 1948,
          "superficie_km2": 13.0,
          "latitude": 43.4220009,
          "longitude": 5.5840001,
          "distance_km": 14.33
        }
      ],
      "zonage_abc": "A",
      "reclassement_abc": "Non",
      "codes_postaux": [
        {
          "code_postal": "13400",
          "libelle_acheminement": "AUBAGNE"
        }
      ],
      "logement": {
        "logements_total": 22859,
        "residences_principales": 20999,
        "logements_vacants": 1573,
        "residences_secondaires": 286,
        "maisons": 8495,
        "appartements": 14222,
        "proprietaires": 10320,
        "locataires": 10124,
        "hlm": 5156,
        "construits_avant_1919": 1477,
        "construits_1919_1945": 1484,
        "construits_1946_1970": 5278,
        "construits_1971_1990": 7102,
        "construits_1991_2005": 3058,
        "construits_2006_2019": 2262,
        "chauffage_electrique": 8292,
        "chauffage_fioul": 1306,
        "chauffage_gaz_ville": 9550,
        "chauffage_gaz_bouteille": 416,
        "chauffage_autre": 1433,
        "menages": 20999,
        "logements_avant_1990": 15341
      },
      "artisans": {
        "monte_escalier": 8,
        "chauffage_pac_clim": 174,
        "isolation": 48,
        "menuiserie": 123,
        "fenetres_velux": 123,
        "couverture_toiture": 21,
        "facade_peinture": 102,
        "portes_volets": 123,
        "piscine": 11,
        "vmc_ventilation": 88,
        "assainissement": 92
      },
      "revenus": {
        "revenu_median": 21860.0,
        "part_menages_imposes": 49.0,
        "taux_pauvrete": 15.0
      },
      "aides_etat": {
        "zone_climatique": "H3",
        "qpv": true,
        "action_coeur_de_ville": false,
        "petites_villes_de_demain": false
      }
    },
    {
      "code_insee": "13006",
      "nom": "Aureille",
      "nom_a": null,
      "nom_de": null,
      "slug": "aureille",
      "code_postal": "13930",
      "population": 1541,
      "superficie_km2": 22.0,
      "latitude": 43.7000008,
      "longitude": 4.9450002,
      "villes_proches": [
        {
          "code_insee": "13065",
          "nom": "Mouriès",
          "slug": "mouries",
          "code_postal": "13890",
          "population": 3414,
          "superficie_km2": 38.0,
          "latitude": 43.7010002,
          "longitude": 4.8899999,
          "distance_km": 4.42
        },
        {
          "code_insee": "13035",
          "nom": "Eyguières",
          "slug": "eyguieres",
          "code_postal": "13430",
          "population": 6887,
          "superficie_km2": 69.0,
          "latitude": 43.7029991,
          "longitude": 5.0159998,
          "distance_km": 5.72
        },
        {
          "code_insee": "13034",
          "nom": "Eygalières",
          "slug": "eygalieres",
          "code_postal": "13810",
          "population": 1733,
          "superficie_km2": 34.0,
          "latitude": 43.762001,
          "longitude": 4.9520001,
          "distance_km": 6.92
        },
        {
          "code_insee": "13058",
          "nom": "Maussane-les-Alpilles",
          "slug": "maussane-les-alpilles",
          "code_postal": "13520",
          "population": 2396,
          "superficie_km2": 32.0,
          "latitude": 43.7140007,
          "longitude": 4.8330002,
          "distance_km": 9.14
        },
        {
          "code_insee": "13067",
          "nom": "Orgon",
          "slug": "orgon",
          "code_postal": "13660",
          "population": 2698,
          "superficie_km2": 35.0,
          "latitude": 43.7799988,
          "longitude": 5.0229998,
          "distance_km": 10.88
        },
        {
          "code_insee": "13103",
          "nom": "Salon-de-Provence",
          "slug": "salon-de-provence",
          "code_postal": "13300",
          "population": 44731,
          "superficie_km2": 71.0,
          "latitude": 43.6459999,
          "longitude": 5.0679998,
          "distance_km": 11.57
        },
        {
          "code_insee": "13049",
          "nom": "Lamanon",
          "slug": "lamanon",
          "code_postal": "13113",
          "population": 2046,
          "superficie_km2": 19.0,
          "latitude": 43.7050018,
          "longitude": 5.0890002,
          "distance_km": 11.59
        },
        {
          "code_insee": "13064",
          "nom": "Mollégès",
          "slug": "molleges",
          "code_postal": "13940",
          "population": 2666,
          "superficie_km2": 14.0,
          "latitude": 43.8050003,
          "longitude": 4.9489999,
          "distance_km": 11.68
        },
        {
          "code_insee": "13100",
          "nom": "Saint-Rémy-de-Provence",
          "slug": "saint-remy-de-provence",
          "code_postal": "13210",
          "population": 9619,
          "superficie_km2": 90.0,
          "latitude": 43.783001,
          "longitude": 4.8540001,
          "distance_km": 11.77
        },
        {
          "code_insee": "13097",
          "nom": "Saint-Martin-de-Crau",
          "slug": "saint-martin-de-crau",
          "code_postal": "13310",
          "population": 13729,
          "superficie_km2": 215.0,
          "latitude": 43.6119995,
          "longitude": 4.8569999,
          "distance_km": 12.08
        },
        {
          "code_insee": "13105",
          "nom": "Sénas",
          "slug": "senas",
          "code_postal": "13560",
          "population": 6838,
          "superficie_km2": 31.0,
          "latitude": 43.7449989,
          "longitude": 5.0869999,
          "distance_km": 12.46
        },
        {
          "code_insee": "13044",
          "nom": "Grans",
          "slug": "grans",
          "code_postal": "13450",
          "population": 5274,
          "superficie_km2": 28.0,
          "latitude": 43.6139984,
          "longitude": 5.0450001,
          "distance_km": 12.5
        },
        {
          "code_insee": "13068",
          "nom": "Paradou",
          "slug": "paradou",
          "code_postal": "13520",
          "population": 2200,
          "superficie_km2": 16.0,
          "latitude": 43.7080002,
          "longitude": 4.7779999,
          "distance_km": 13.45
        },
        {
          "code_insee": "13076",
          "nom": "Plan-d'Orgon",
          "slug": "plan-d-orgon",
          "code_postal": "13750",
          "population": 3552,
          "superficie_km2": 15.0,
          "latitude": 43.8180008,
          "longitude": 5.0019999,
          "distance_km": 13.9
        },
        {
          "code_insee": "13063",
          "nom": "Miramas",
          "slug": "miramas",
          "code_postal": "13140",
          "population": 26405,
          "superficie_km2": 26.0,
          "latitude": 43.5839996,
          "longitude": 5.0139999,
          "distance_km": 14.04
        },
        {
          "code_insee": "13089",
          "nom": "Saint-Andiol",
          "slug": "saint-andiol",
          "code_postal": "13670",
          "population": 3380,
          "superficie_km2": 16.0,
          "latitude": 43.8310013,
          "longitude": 4.9499998,
          "distance_km": 14.57
        },
        {
          "code_insee": "13003",
          "nom": "Alleins",
          "slug": "alleins",
          "code_postal": "13980",
          "population": 2764,
          "superficie_km2": 17.0,
          "latitude": 43.7070007,
          "longitude": 5.151,
          "distance_km": 16.58
        },
        {
          "code_insee": "13047",
          "nom": "Istres",
          "slug": "istres",
          "code_postal": "13118",
          "population": 44577,
          "superficie_km2": 114.0,
          "latitude": 43.5499992,
          "longitude": 4.9510002,
          "distance_km": 16.69
        },
        {
          "code_insee": "13029",
          "nom": "Cornillon-Confoux",
          "slug": "cornillon-confoux",
          "code_postal": "13250",
          "population": 1571,
          "superficie_km2": 15.0,
          "latitude": 43.5779991,
          "longitude": 5.0770001,
          "distance_km": 17.23
        },
        {
          "code_insee": "84038",
          "nom": "Cheval-Blanc",
          "slug": "cheval-blanc",
          "code_postal": "84460",
          "population": 4317,
          "superficie_km2": 59.0,
          "latitude": 43.7890015,
          "longitude": 5.1240001,
          "distance_km": 17.46
        }
      ],
      "zonage_abc": "B1",
      "reclassement_abc": "Reclassement",
      "codes_postaux": [
        {
          "code_postal": "13930",
          "libelle_acheminement": "AUREILLE"
        }
      ],
      "logement": {
        "logements_total": 835,
        "residences_principales": 688,
        "logements_vacants": 76,
        "residences_secondaires": 70,
        "maisons": 713,
        "appartements": 120,
        "proprietaires": 439,
        "locataires": 216,
        "hlm": 13,
        "construits_avant_1919": 63,
        "construits_1919_1945": 35,
        "construits_1946_1970": 64,
        "construits_1971_1990": 252,
        "construits_1991_2005": 136,
        "construits_2006_2019": 97,
        "chauffage_electrique": 433,
        "chauffage_fioul": 47,
        "chauffage_gaz_ville": 38,
        "chauffage_gaz_bouteille": 7,
        "chauffage_autre": 160,
        "menages": 688,
        "logements_avant_1990": 414
      },
      "artisans": {
        "monte_escalier": 0,
        "chauffage_pac_clim": 4,
        "isolation": 2,
        "menuiserie": 1,
        "fenetres_velux": 1,
        "couverture_toiture": 2,
        "facade_peinture": 1,
        "portes_volets": 1,
        "piscine": 0,
        "vmc_ventilation": 0,
        "assainissement": 4
      },
      "revenus": {
        "revenu_median": 23980.0,
        "part_menages_imposes": null,
        "taux_pauvrete": null
      },
      "aides_etat": {
        "zone_climatique": "H3",
        "qpv": false,
        "action_coeur_de_ville": false,
        "petites_villes_de_demain": false
      }
    },
    {
      "code_insee": "13007",
      "nom": "Auriol",
      "nom_a": null,
      "nom_de": null,
      "slug": "auriol",
      "code_postal": "13390",
      "population": 12839,
      "superficie_km2": 45.0,
      "latitude": 43.3610001,
      "longitude": 5.658,
      "villes_proches": [
        {
          "code_insee": "13016",
          "nom": "La Bouilladisse",
          "slug": "la-bouilladisse",
          "code_postal": "13720",
          "population": 6341,
          "superficie_km2": 13.0,
          "latitude": 43.3969994,
          "longitude": 5.6199999,
          "distance_km": 5.05
        },
        {
          "code_insee": "13031",
          "nom": "La Destrousse",
          "slug": "la-destrousse",
          "code_postal": "13112",
          "population": 3913,
          "superficie_km2": 3.0,
          "latitude": 43.3759995,
          "longitude": 5.599,
          "distance_km": 5.05
        },
        {
          "code_insee": "83120",
          "nom": "Saint-Zacharie",
          "slug": "saint-zacharie",
          "code_postal": "83640",
          "population": 5931,
          "superficie_km2": 27.0,
          "latitude": 43.3779984,
          "longitude": 5.7179999,
          "distance_km": 5.21
        },
        {
          "code_insee": "13086",
          "nom": "Roquevaire",
          "slug": "roquevaire",
          "code_postal": "13360",
          "population": 8673,
          "superficie_km2": 24.0,
          "latitude": 43.3440018,
          "longitude": 5.5980001,
          "distance_km": 5.21
        },
        {
          "code_insee": "13042",
          "nom": "Gémenos",
          "slug": "gemenos",
          "code_postal": "13420",
          "population": 6794,
          "superficie_km2": 33.0,
          "latitude": 43.2980003,
          "longitude": 5.6440001,
          "distance_km": 7.1
        },
        {
          "code_insee": "83093",
          "nom": "Plan-d'Aups-Sainte-Baume",
          "slug": "plan-d-aups-sainte-baume",
          "code_postal": "83640",
          "population": 2333,
          "superficie_km2": 25.0,
          "latitude": 43.3339996,
          "longitude": 5.7389998,
          "distance_km": 7.21
        },
        {
          "code_insee": "13073",
          "nom": "Peypin",
          "slug": "peypin",
          "code_postal": "13124",
          "population": 5613,
          "superficie_km2": 13.0,
          "latitude": 43.3849983,
          "longitude": 5.5710001,
          "distance_km": 7.52
        },
        {
          "code_insee": "13013",
          "nom": "Belcodène",
          "slug": "belcodene",
          "code_postal": "13720",
          "population": 1948,
          "superficie_km2": 13.0,
          "latitude": 43.4220009,
          "longitude": 5.5840001,
          "distance_km": 9.04
        },
        {
          "code_insee": "13072",
          "nom": "Peynier",
          "slug": "peynier",
          "code_postal": "13790",
          "population": 3650,
          "superficie_km2": 25.0,
          "latitude": 43.4399986,
          "longitude": 5.625,
          "distance_km": 9.18
        },
        {
          "code_insee": "13110",
          "nom": "Trets",
          "slug": "trets",
          "code_postal": "13530",
          "population": 10678,
          "superficie_km2": 70.0,
          "latitude": 43.4379997,
          "longitude": 5.6999998,
          "distance_km": 9.21
        },
        {
          "code_insee": "13030",
          "nom": "Cuges-les-Pins",
          "slug": "cuges-les-pins",
          "code_postal": "13780",
          "population": 5662,
          "superficie_km2": 40.0,
          "latitude": 43.2809982,
          "longitude": 5.71,
          "distance_km": 9.84
        },
        {
          "code_insee": "83087",
          "nom": "Nans-les-Pins",
          "slug": "nans-les-pins",
          "code_postal": "83860",
          "population": 4968,
          "superficie_km2": 49.0,
          "latitude": 43.3790016,
          "longitude": 5.7849998,
          "distance_km": 10.46
        },
        {
          "code_insee": "13005",
          "nom": "Aubagne",
          "slug": "aubagne",
          "code_postal": "13400",
          "population": 47342,
          "superficie_km2": 55.0,
          "latitude": 43.2939987,
          "longitude": 5.5630002,
          "distance_km": 10.7
        },
        {
          "code_insee": "13020",
          "nom": "Cadolive",
          "slug": "cadolive",
          "code_postal": "13950",
          "population": 2202,
          "superficie_km2": 4.0,
          "latitude": 43.394001,
          "longitude": 5.5320001,
          "distance_km": 10.82
        },
        {
          "code_insee": "13101",
          "nom": "Saint-Savournin",
          "slug": "saint-savournin",
          "code_postal": "13119",
          "population": 3501,
          "superficie_km2": 6.0,
          "latitude": 43.4059982,
          "longitude": 5.5310001,
          "distance_km": 11.42
        },
        {
          "code_insee": "13046",
          "nom": "Gréasque",
          "slug": "greasque",
          "code_postal": "13850",
          "population": 4392,
          "superficie_km2": 6.0,
          "latitude": 43.4259987,
          "longitude": 5.5469999,
          "distance_km": 11.52
        },
        {
          "code_insee": "13002",
          "nom": "Allauch",
          "slug": "allauch",
          "code_postal": "13190",
          "population": 21490,
          "superficie_km2": 50.0,
          "latitude": 43.3530006,
          "longitude": 5.5110002,
          "distance_km": 11.92
        },
        {
          "code_insee": "13085",
          "nom": "Roquefort-la-Bédoule",
          "slug": "roquefort-la-bedoule",
          "code_postal": "13830",
          "population": 5861,
          "superficie_km2": 31.0,
          "latitude": 43.2509995,
          "longitude": 5.6290002,
          "distance_km": 12.45
        },
        {
          "code_insee": "13119",
          "nom": "Carnoux-en-Provence",
          "slug": "carnoux-en-provence",
          "code_postal": "13470",
          "population": 6747,
          "superficie_km2": 4.0,
          "latitude": 43.2579994,
          "longitude": 5.566,
          "distance_km": 13.66
        },
        {
          "code_insee": "13040",
          "nom": "Fuveau",
          "slug": "fuveau",
          "code_postal": "13710",
          "population": 10115,
          "superficie_km2": 30.0,
          "latitude": 43.4599991,
          "longitude": 5.553,
          "distance_km": 13.9
        }
      ],
      "zonage_abc": "A",
      "reclassement_abc": "Non",
      "codes_postaux": [
        {
          "code_postal": "13390",
          "libelle_acheminement": "AURIOL"
        }
      ],
      "logement": {
        "logements_total": 6071,
        "residences_principales": 5474,
        "logements_vacants": 335,
        "residences_secondaires": 262,
        "maisons": 4090,
        "appartements": 1946,
        "proprietaires": 3600,
        "locataires": 1735,
        "hlm": 371,
        "construits_avant_1919": 570,
        "construits_1919_1945": 379,
        "construits_1946_1970": 600,
        "construits_1971_1990": 1734,
        "construits_1991_2005": 1437,
        "construits_2006_2019": 651,
        "chauffage_electrique": 3648,
        "chauffage_fioul": 493,
        "chauffage_gaz_ville": 170,
        "chauffage_gaz_bouteille": 206,
        "chauffage_autre": 954,
        "menages": 5474,
        "logements_avant_1990": 3283
      },
      "artisans": {
        "monte_escalier": 1,
        "chauffage_pac_clim": 42,
        "isolation": 13,
        "menuiserie": 23,
        "fenetres_velux": 23,
        "couverture_toiture": 3,
        "facade_peinture": 24,
        "portes_volets": 23,
        "piscine": 3,
        "vmc_ventilation": 18,
        "assainissement": 27
      },
      "revenus": {
        "revenu_median": 25430.0,
        "part_menages_imposes": 58.0,
        "taux_pauvrete": 8.0
      },
      "aides_etat": {
        "zone_climatique": "H3",
        "qpv": false,
        "action_coeur_de_ville": false,
        "petites_villes_de_demain": false
      }
    },
    {
      "code_insee": "13008",
      "nom": "Aurons",
      "nom_a": null,
      "nom_de": null,
      "slug": "aurons",
      "code_postal": "13121",
      "population": 555,
      "superficie_km2": 1253.53,
      "latitude": 43.6722,
      "longitude": 5.149,
      "villes_proches": [
        {
          "code_insee": "13115",
          "nom": "Vernègues",
          "slug": "vernegues",
          "code_postal": "13116",
          "population": 2166,
          "superficie_km2": 1596.19,
          "latitude": 43.6841,
          "longitude": 5.1892,
          "distance_km": 3.49
        },
        {
          "code_insee": "13003",
          "nom": "Alleins",
          "slug": "alleins",
          "code_postal": "13980",
          "population": 2852,
          "superficie_km2": 1685.31,
          "latitude": 43.7098,
          "longitude": 5.1558,
          "distance_km": 4.22
        },
        {
          "code_insee": "13069",
          "nom": "Pélissanne",
          "slug": "pelissanne",
          "code_postal": "13330",
          "population": 11085,
          "superficie_km2": 1913.06,
          "latitude": 43.63,
          "longitude": 5.1628,
          "distance_km": 4.82
        },
        {
          "code_insee": "13049",
          "nom": "Lamanon",
          "slug": "lamanon",
          "code_postal": "13113",
          "population": 2097,
          "superficie_km2": 1940.79,
          "latitude": 43.7073,
          "longitude": 5.0898,
          "distance_km": 6.16
        },
        {
          "code_insee": "13053",
          "nom": "Mallemort",
          "slug": "mallemort",
          "code_postal": "13370",
          "population": 6166,
          "superficie_km2": 2861.37,
          "latitude": 43.728,
          "longitude": 5.1849,
          "distance_km": 6.84
        },
        {
          "code_insee": "13009",
          "nom": "La Barben",
          "slug": "la-barben",
          "code_postal": "13330",
          "population": 868,
          "superficie_km2": 2291.44,
          "latitude": 43.6189,
          "longitude": 5.2123,
          "distance_km": 7.81
        },
        {
          "code_insee": "13050",
          "nom": "Lambesc",
          "slug": "lambesc",
          "code_postal": "13410",
          "population": 10024,
          "superficie_km2": 6520.29,
          "latitude": 43.6636,
          "longitude": 5.2493,
          "distance_km": 8.12
        },
        {
          "code_insee": "13103",
          "nom": "Salon-de-Provence",
          "slug": "salon-de-provence",
          "code_postal": "13300",
          "population": 44194,
          "superficie_km2": 7052.85,
          "latitude": 43.643,
          "longitude": 5.049,
          "distance_km": 8.68
        },
        {
          "code_insee": "13024",
          "nom": "Charleval",
          "slug": "charleval",
          "code_postal": "13350",
          "population": 2640,
          "superficie_km2": 1435.93,
          "latitude": 43.7205,
          "longitude": 5.2461,
          "distance_km": 9.48
        },
        {
          "code_insee": "13105",
          "nom": "Sénas",
          "slug": "senas",
          "code_postal": "13560",
          "population": 6925,
          "superficie_km2": 3065.74,
          "latitude": 43.7402,
          "longitude": 5.073,
          "distance_km": 9.72
        },
        {
          "code_insee": "13044",
          "nom": "Grans",
          "slug": "grans",
          "code_postal": "13450",
          "population": 5489,
          "superficie_km2": 2772.17,
          "latitude": 43.6172,
          "longitude": 5.0431,
          "distance_km": 10.49
        },
        {
          "code_insee": "84074",
          "nom": "Mérindol",
          "slug": "merindol",
          "code_postal": "84360",
          "population": 2283,
          "superficie_km2": 2710.4,
          "latitude": 43.7648,
          "longitude": 5.1884,
          "distance_km": 10.77
        },
        {
          "code_insee": "13051",
          "nom": "Lançon-Provence",
          "slug": "lancon-provence",
          "code_postal": "13680",
          "population": 9915,
          "superficie_km2": 6912.24,
          "latitude": 43.5728,
          "longitude": 5.1725,
          "distance_km": 11.21
        },
        {
          "code_insee": "13035",
          "nom": "Eyguières",
          "slug": "eyguieres",
          "code_postal": "13430",
          "population": 7119,
          "superficie_km2": 6883.84,
          "latitude": 43.7005,
          "longitude": 5.0132,
          "distance_km": 11.36
        },
        {
          "code_insee": "13029",
          "nom": "Cornillon-Confoux",
          "slug": "cornillon-confoux",
          "code_postal": "13250",
          "population": 1667,
          "superficie_km2": 1486.52,
          "latitude": 43.5762,
          "longitude": 5.0753,
          "distance_km": 12.21
        },
        {
          "code_insee": "84038",
          "nom": "Cheval-Blanc",
          "slug": "cheval-blanc",
          "code_postal": "84460",
          "population": 4362,
          "superficie_km2": 5852.98,
          "latitude": 43.7875,
          "longitude": 5.1204,
          "distance_km": 13.03
        },
        {
          "code_insee": "13037",
          "nom": "La Fare-les-Oliviers",
          "slug": "la-fare-les-oliviers",
          "code_postal": "13580",
          "population": 9039,
          "superficie_km2": 1424.69,
          "latitude": 43.5541,
          "longitude": 5.2051,
          "distance_km": 13.89
        },
        {
          "code_insee": "84093",
          "nom": "Puget",
          "slug": "puget",
          "code_postal": "84360",
          "population": 894,
          "superficie_km2": 1956.31,
          "latitude": 43.7699,
          "longitude": 5.2572,
          "distance_km": 13.91
        },
        {
          "code_insee": "13118",
          "nom": "Coudoux",
          "slug": "coudoux",
          "code_postal": "13111",
          "population": 3825,
          "superficie_km2": 1266.07,
          "latitude": 43.5587,
          "longitude": 5.2559,
          "distance_km": 15.28
        },
        {
          "code_insee": "13092",
          "nom": "Saint-Chamas",
          "slug": "saint-chamas",
          "code_postal": "13250",
          "population": 8676,
          "superficie_km2": 2674.77,
          "latitude": 43.5414,
          "longitude": 5.072,
          "distance_km": 15.81
        }
      ],
      "zonage_abc": "B1",
      "reclassement_abc": "Non",
      "codes_postaux": [
        {
          "code_postal": "13121",
          "libelle_acheminement": "AURONS"
        }
      ],
      "logement": {
        "logements_total": 257,
        "residences_principales": 232,
        "logements_vacants": 15,
        "residences_secondaires": 9,
        "maisons": 244,
        "appartements": 12,
        "proprietaires": 191,
        "locataires": 37,
        "hlm": 0,
        "construits_avant_1919": 37,
        "construits_1919_1945": 6,
        "construits_1946_1970": 37,
        "construits_1971_1990": 64,
        "construits_1991_2005": 56,
        "construits_2006_2019": 29,
        "chauffage_electrique": 153,
        "chauffage_fioul": 21,
        "chauffage_gaz_ville": 0,
        "chauffage_gaz_bouteille": 7,
        "chauffage_autre": 49,
        "menages": 232,
        "logements_avant_1990": 144
      },
      "artisans": {
        "monte_escalier": 0,
        "chauffage_pac_clim": 0,
        "isolation": 1,
        "menuiserie": 0,
        "fenetres_velux": 0,
        "couverture_toiture": 0,
        "facade_peinture": 2,
        "portes_volets": 0,
        "piscine": 0,
        "vmc_ventilation": 0,
        "assainissement": 0
      },
      "revenus": {
        "revenu_median": 29180.0,
        "part_menages_imposes": null,
        "taux_pauvrete": null
      },
      "aides_etat": {
        "zone_climatique": "H3",
        "qpv": false,
        "action_coeur_de_ville": false,
        "petites_villes_de_demain": false
      }
    },
    {
      "code_insee": "13010",
      "nom": "Barbentane",
      "nom_a": null,
      "nom_de": null,
      "slug": "barbentane",
      "code_postal": "13570",
      "population": 4236,
      "superficie_km2": 27.0,
      "latitude": 43.8950005,
      "longitude": 4.7490001,
      "villes_proches": [
        {
          "code_insee": "13083",
          "nom": "Rognonas",
          "slug": "rognonas",
          "code_postal": "13870",
          "population": 4111,
          "superficie_km2": 8.0,
          "latitude": 43.9000015,
          "longitude": 4.7989998,
          "distance_km": 4.04
        },
        {
          "code_insee": "13045",
          "nom": "Graveson",
          "slug": "graveson",
          "code_postal": "13690",
          "population": 4791,
          "superficie_km2": 24.0,
          "latitude": 43.8540001,
          "longitude": 4.7670002,
          "distance_km": 4.78
        },
        {
          "code_insee": "13017",
          "nom": "Boulbon",
          "slug": "boulbon",
          "code_postal": "13150",
          "population": 1519,
          "superficie_km2": 19.0,
          "latitude": 43.868,
          "longitude": 4.698,
          "distance_km": 5.07
        },
        {
          "code_insee": "30012",
          "nom": "Aramon",
          "slug": "aramon",
          "code_postal": "30390",
          "population": 4127,
          "superficie_km2": 31.0,
          "latitude": 43.9039993,
          "longitude": 4.6830001,
          "distance_km": 5.38
        },
        {
          "code_insee": "30011",
          "nom": "Les Angles",
          "slug": "les-angles",
          "code_postal": "30133",
          "population": 8480,
          "superficie_km2": 17.0,
          "latitude": 43.9469986,
          "longitude": 4.7529998,
          "distance_km": 5.79
        },
        {
          "code_insee": "30315",
          "nom": "Saze",
          "slug": "saze",
          "code_postal": "30650",
          "population": 2104,
          "superficie_km2": 13.0,
          "latitude": 43.9449997,
          "longitude": 4.698,
          "distance_km": 6.9
        },
        {
          "code_insee": "13027",
          "nom": "Châteaurenard",
          "slug": "chateaurenard",
          "code_postal": "13160",
          "population": 16669,
          "superficie_km2": 35.0,
          "latitude": 43.882,
          "longitude": 4.8400002,
          "distance_km": 7.43
        },
        {
          "code_insee": "13052",
          "nom": "Maillane",
          "slug": "maillane",
          "code_postal": "13910",
          "population": 2738,
          "superficie_km2": 17.0,
          "latitude": 43.8230019,
          "longitude": 4.7849998,
          "distance_km": 8.51
        },
        {
          "code_insee": "84007",
          "nom": "Avignon",
          "slug": "avignon",
          "code_postal": "84000",
          "population": 90330,
          "superficie_km2": 65.0,
          "latitude": 43.9350014,
          "longitude": 4.8410001,
          "distance_km": 8.61
        },
        {
          "code_insee": "13036",
          "nom": "Eyragues",
          "slug": "eyragues",
          "code_postal": "13630",
          "population": 4355,
          "superficie_km2": 21.0,
          "latitude": 43.8429985,
          "longitude": 4.8429999,
          "distance_km": 9.5
        },
        {
          "code_insee": "30351",
          "nom": "Villeneuve-lès-Avignon",
          "slug": "villeneuve-les-avignon",
          "code_postal": "30400",
          "population": 12617,
          "superficie_km2": 18.0,
          "latitude": 43.9770012,
          "longitude": 4.7950001,
          "distance_km": 9.83
        },
        {
          "code_insee": "30328",
          "nom": "Théziers",
          "slug": "theziers",
          "code_postal": "30390",
          "population": 1053,
          "superficie_km2": 11.0,
          "latitude": 43.9039993,
          "longitude": 4.6259999,
          "distance_km": 9.91
        },
        {
          "code_insee": "30336",
          "nom": "Vallabrègues",
          "slug": "vallabregues",
          "code_postal": "30300",
          "population": 1376,
          "superficie_km2": 14.0,
          "latitude": 43.8569984,
          "longitude": 4.6339998,
          "distance_km": 10.14
        },
        {
          "code_insee": "30217",
          "nom": "Rochefort-du-Gard",
          "slug": "rochefort-du-gard",
          "code_postal": "30650",
          "population": 7921,
          "superficie_km2": 34.0,
          "latitude": 43.980999,
          "longitude": 4.6820002,
          "distance_km": 10.96
        },
        {
          "code_insee": "30209",
          "nom": "Pujaut",
          "slug": "pujaut",
          "code_postal": "30131",
          "population": 3908,
          "superficie_km2": 24.0,
          "latitude": 43.9990006,
          "longitude": 4.7649999,
          "distance_km": 11.64
        },
        {
          "code_insee": "13094",
          "nom": "Saint-Étienne-du-Grès",
          "slug": "saint-etienne-du-gres",
          "code_postal": "13103",
          "population": 2486,
          "superficie_km2": 29.0,
          "latitude": 43.7849999,
          "longitude": 4.7360001,
          "distance_km": 12.28
        },
        {
          "code_insee": "13108",
          "nom": "Tarascon",
          "slug": "tarascon",
          "code_postal": "13150",
          "population": 15423,
          "superficie_km2": 74.0,
          "latitude": 43.7939987,
          "longitude": 4.6859999,
          "distance_km": 12.32
        },
        {
          "code_insee": "30116",
          "nom": "Fournès",
          "slug": "fournes",
          "code_postal": "30210",
          "population": 1064,
          "superficie_km2": 18.0,
          "latitude": 43.9329987,
          "longitude": 4.6040001,
          "distance_km": 12.36
        },
        {
          "code_insee": "84092",
          "nom": "Le Pontet",
          "slug": "le-pontet",
          "code_postal": "84130",
          "population": 17551,
          "superficie_km2": 11.0,
          "latitude": 43.9679985,
          "longitude": 4.8660002,
          "distance_km": 12.4
        },
        {
          "code_insee": "30179",
          "nom": "Montfrin",
          "slug": "montfrin",
          "code_postal": "30490",
          "population": 3129,
          "superficie_km2": 15.0,
          "latitude": 43.875,
          "longitude": 4.592,
          "distance_km": 12.78
        }
      ],
      "zonage_abc": "B1",
      "reclassement_abc": "Non",
      "codes_postaux": [
        {
          "code_postal": "13570",
          "libelle_acheminement": "BARBENTANE"
        }
      ],
      "logement": {
        "logements_total": 2285,
        "residences_principales": 1971,
        "logements_vacants": 211,
        "residences_secondaires": 102,
        "maisons": 1768,
        "appartements": 480,
        "proprietaires": 1275,
        "locataires": 622,
        "hlm": 50,
        "construits_avant_1919": 435,
        "construits_1919_1945": 202,
        "construits_1946_1970": 220,
        "construits_1971_1990": 516,
        "construits_1991_2005": 306,
        "construits_2006_2019": 286,
        "chauffage_electrique": 1050,
        "chauffage_fioul": 385,
        "chauffage_gaz_ville": 203,
        "chauffage_gaz_bouteille": 40,
        "chauffage_autre": 291,
        "menages": 1971,
        "logements_avant_1990": 1373
      },
      "artisans": {
        "monte_escalier": 3,
        "chauffage_pac_clim": 5,
        "isolation": 3,
        "menuiserie": 12,
        "fenetres_velux": 12,
        "couverture_toiture": 1,
        "facade_peinture": 12,
        "portes_volets": 12,
        "piscine": 3,
        "vmc_ventilation": 0,
        "assainissement": 5
      },
      "revenus": {
        "revenu_median": 23130.0,
        "part_menages_imposes": 52.0,
        "taux_pauvrete": 11.0
      },
      "aides_etat": {
        "zone_climatique": "H3",
        "qpv": false,
        "action_coeur_de_ville": false,
        "petites_villes_de_demain": false
      }
    },
    {
      "code_insee": "13012",
      "nom": "Beaurecueil",
      "nom_a": null,
      "nom_de": null,
      "slug": "beaurecueil",
      "code_postal": "13100",
      "population": 585,
      "superficie_km2": 1006.49,
      "latitude": 43.5197,
      "longitude": 5.5481,
      "villes_proches": [
        {
          "code_insee": "13109",
          "nom": "Le Tholonet",
          "slug": "le-tholonet",
          "code_postal": "13100",
          "population": 2391,
          "superficie_km2": 1084.96,
          "latitude": 43.5218,
          "longitude": 5.5053,
          "distance_km": 3.46
        },
        {
          "code_insee": "13025",
          "nom": "Châteauneuf-le-Rouge",
          "slug": "chateauneuf-le-rouge",
          "code_postal": "13790",
          "population": 2376,
          "superficie_km2": 1321.56,
          "latitude": 43.4892,
          "longitude": 5.5691,
          "distance_km": 3.79
        },
        {
          "code_insee": "13090",
          "nom": "Saint-Antonin-sur-Bayon",
          "slug": "saint-antonin-sur-bayon",
          "code_postal": "13100",
          "population": 126,
          "superficie_km2": 1755.78,
          "latitude": 43.5191,
          "longitude": 5.5972,
          "distance_km": 3.96
        },
        {
          "code_insee": "13095",
          "nom": "Saint-Marc-Jaumegarde",
          "slug": "saint-marc-jaumegarde",
          "code_postal": "13100",
          "population": 1273,
          "superficie_km2": 2327.21,
          "latitude": 43.5567,
          "longitude": 5.5202,
          "distance_km": 4.69
        },
        {
          "code_insee": "13060",
          "nom": "Meyreuil",
          "slug": "meyreuil",
          "code_postal": "13590",
          "population": 6747,
          "superficie_km2": 2014.74,
          "latitude": 43.488,
          "longitude": 5.5002,
          "distance_km": 5.23
        },
        {
          "code_insee": "13087",
          "nom": "Rousset",
          "slug": "rousset",
          "code_postal": "13790",
          "population": 5425,
          "superficie_km2": 1953.71,
          "latitude": 43.4869,
          "longitude": 5.6202,
          "distance_km": 6.86
        },
        {
          "code_insee": "13040",
          "nom": "Fuveau",
          "slug": "fuveau",
          "code_postal": "13710",
          "population": 10337,
          "superficie_km2": 3007.04,
          "latitude": 43.4575,
          "longitude": 5.5537,
          "distance_km": 6.93
        },
        {
          "code_insee": "13111",
          "nom": "Vauvenargues",
          "slug": "vauvenargues",
          "code_postal": "13126",
          "population": 1058,
          "superficie_km2": 5436.53,
          "latitude": 43.5619,
          "longitude": 5.6207,
          "distance_km": 7.5
        },
        {
          "code_insee": "13041",
          "nom": "Gardanne",
          "slug": "gardanne",
          "code_postal": "13120",
          "population": 21597,
          "superficie_km2": 2717.28,
          "latitude": 43.4585,
          "longitude": 5.4857,
          "distance_km": 8.46
        },
        {
          "code_insee": "13113",
          "nom": "Venelles",
          "slug": "venelles",
          "code_postal": "13770",
          "population": 8418,
          "superficie_km2": 2053.32,
          "latitude": 43.5951,
          "longitude": 5.4991,
          "distance_km": 9.27
        },
        {
          "code_insee": "13079",
          "nom": "Puyloubier",
          "slug": "puyloubier",
          "code_postal": "13114",
          "population": 1768,
          "superficie_km2": 4093.07,
          "latitude": 43.5192,
          "longitude": 5.6718,
          "distance_km": 9.97
        },
        {
          "code_insee": "13046",
          "nom": "Gréasque",
          "slug": "greasque",
          "code_postal": "13850",
          "population": 4554,
          "superficie_km2": 623.14,
          "latitude": 43.4252,
          "longitude": 5.547,
          "distance_km": 10.51
        },
        {
          "code_insee": "13072",
          "nom": "Peynier",
          "slug": "peynier",
          "code_postal": "13790",
          "population": 3739,
          "superficie_km2": 2478.24,
          "latitude": 43.4375,
          "longitude": 5.6204,
          "distance_km": 10.84
        },
        {
          "code_insee": "13013",
          "nom": "Belcodène",
          "slug": "belcodene",
          "code_postal": "13720",
          "population": 2009,
          "superficie_km2": 1310.49,
          "latitude": 43.4231,
          "longitude": 5.5846,
          "distance_km": 11.14
        },
        {
          "code_insee": "13059",
          "nom": "Meyrargues",
          "slug": "meyrargues",
          "code_postal": "13650",
          "population": 3847,
          "superficie_km2": 4175.92,
          "latitude": 43.6229,
          "longitude": 5.5321,
          "distance_km": 11.55
        },
        {
          "code_insee": "13074",
          "nom": "Peyrolles-en-Provence",
          "slug": "peyrolles-en-provence",
          "code_postal": "13860",
          "population": 5409,
          "superficie_km2": 3504.18,
          "latitude": 43.6262,
          "longitude": 5.5763,
          "distance_km": 12.06
        },
        {
          "code_insee": "13062",
          "nom": "Mimet",
          "slug": "mimet",
          "code_postal": "13105",
          "population": 4241,
          "superficie_km2": 1886.62,
          "latitude": 43.4123,
          "longitude": 5.5001,
          "distance_km": 12.55
        },
        {
          "code_insee": "13101",
          "nom": "Saint-Savournin",
          "slug": "saint-savournin",
          "code_postal": "13119",
          "population": 3397,
          "superficie_km2": 591.25,
          "latitude": 43.4025,
          "longitude": 5.5321,
          "distance_km": 13.1
        },
        {
          "code_insee": "13020",
          "nom": "Cadolive",
          "slug": "cadolive",
          "code_postal": "13950",
          "population": 2236,
          "superficie_km2": 419.14,
          "latitude": 43.3943,
          "longitude": 5.5303,
          "distance_km": 14.02
        },
        {
          "code_insee": "13073",
          "nom": "Peypin",
          "slug": "peypin",
          "code_postal": "13124",
          "population": 5771,
          "superficie_km2": 1326.78,
          "latitude": 43.3834,
          "longitude": 5.57,
          "distance_km": 15.26
        }
      ],
      "zonage_abc": "A",
      "reclassement_abc": "Non",
      "codes_postaux": [
        {
          "code_postal": "13100",
          "libelle_acheminement": "BEAURECUEIL"
        }
      ],
      "logement": {
        "logements_total": 245,
        "residences_principales": 209,
        "logements_vacants": 14,
        "residences_secondaires": 21,
        "maisons": 218,
        "appartements": 25,
        "proprietaires": 146,
        "locataires": 54,
        "hlm": 0,
        "construits_avant_1919": 35,
        "construits_1919_1945": 8,
        "construits_1946_1970": 33,
        "construits_1971_1990": 67,
        "construits_1991_2005": 23,
        "construits_2006_2019": 35,
        "chauffage_electrique": 105,
        "chauffage_fioul": 42,
        "chauffage_gaz_ville": 1,
        "chauffage_gaz_bouteille": 12,
        "chauffage_autre": 48,
        "menages": 209,
        "logements_avant_1990": 143
      },
      "artisans": {
        "monte_escalier": 0,
        "chauffage_pac_clim": 3,
        "isolation": 0,
        "menuiserie": 0,
        "fenetres_velux": 0,
        "couverture_toiture": 0,
        "facade_peinture": 1,
        "portes_volets": 0,
        "piscine": 0,
        "vmc_ventilation": 2,
        "assainissement": 1
      },
      "revenus": {
        "revenu_median": 34270.0,
        "part_menages_imposes": null,
        "taux_pauvrete": null
      },
      "aides_etat": {
        "zone_climatique": "H3",
        "qpv": false,
        "action_coeur_de_ville": false,
        "petites_villes_de_demain": false
      }
    },
    {
      "code_insee": "13013",
      "nom": "Belcodène",
      "nom_a": null,
      "nom_de": null,
      "slug": "belcodene",
      "code_postal": "13720",
      "population": 1948,
      "superficie_km2": 13.0,
      "latitude": 43.4220009,
      "longitude": 5.5840001,
      "villes_proches": [
        {
          "code_insee": "13046",
          "nom": "Gréasque",
          "slug": "greasque",
          "code_postal": "13850",
          "population": 4392,
          "superficie_km2": 6.0,
          "latitude": 43.4259987,
          "longitude": 5.5469999,
          "distance_km": 3.02
        },
        {
          "code_insee": "13072",
          "nom": "Peynier",
          "slug": "peynier",
          "code_postal": "13790",
          "population": 3650,
          "superficie_km2": 25.0,
          "latitude": 43.4399986,
          "longitude": 5.625,
          "distance_km": 3.87
        },
        {
          "code_insee": "13016",
          "nom": "La Bouilladisse",
          "slug": "la-bouilladisse",
          "code_postal": "13720",
          "population": 6341,
          "superficie_km2": 13.0,
          "latitude": 43.3969994,
          "longitude": 5.6199999,
          "distance_km": 4.02
        },
        {
          "code_insee": "13073",
          "nom": "Peypin",
          "slug": "peypin",
          "code_postal": "13124",
          "population": 5613,
          "superficie_km2": 13.0,
          "latitude": 43.3849983,
          "longitude": 5.5710001,
          "distance_km": 4.25
        },
        {
          "code_insee": "13101",
          "nom": "Saint-Savournin",
          "slug": "saint-savournin",
          "code_postal": "13119",
          "population": 3501,
          "superficie_km2": 6.0,
          "latitude": 43.4059982,
          "longitude": 5.5310001,
          "distance_km": 4.64
        },
        {
          "code_insee": "13040",
          "nom": "Fuveau",
          "slug": "fuveau",
          "code_postal": "13710",
          "population": 10115,
          "superficie_km2": 30.0,
          "latitude": 43.4599991,
          "longitude": 5.553,
          "distance_km": 4.91
        },
        {
          "code_insee": "13020",
          "nom": "Cadolive",
          "slug": "cadolive",
          "code_postal": "13950",
          "population": 2202,
          "superficie_km2": 4.0,
          "latitude": 43.394001,
          "longitude": 5.5320001,
          "distance_km": 5.23
        },
        {
          "code_insee": "13031",
          "nom": "La Destrousse",
          "slug": "la-destrousse",
          "code_postal": "13112",
          "population": 3913,
          "superficie_km2": 3.0,
          "latitude": 43.3759995,
          "longitude": 5.599,
          "distance_km": 5.26
        },
        {
          "code_insee": "13062",
          "nom": "Mimet",
          "slug": "mimet",
          "code_postal": "13105",
          "population": 4187,
          "superficie_km2": 19.0,
          "latitude": 43.4129982,
          "longitude": 5.4990001,
          "distance_km": 6.94
        },
        {
          "code_insee": "13087",
          "nom": "Rousset",
          "slug": "rousset",
          "code_postal": "13790",
          "population": 5209,
          "superficie_km2": 20.0,
          "latitude": 43.4840012,
          "longitude": 5.6240001,
          "distance_km": 7.61
        },
        {
          "code_insee": "13025",
          "nom": "Châteauneuf-le-Rouge",
          "slug": "chateauneuf-le-rouge",
          "code_postal": "13790",
          "population": 2357,
          "superficie_km2": 13.0,
          "latitude": 43.4910011,
          "longitude": 5.5679998,
          "distance_km": 7.78
        },
        {
          "code_insee": "13086",
          "nom": "Roquevaire",
          "slug": "roquevaire",
          "code_postal": "13360",
          "population": 8673,
          "superficie_km2": 24.0,
          "latitude": 43.3440018,
          "longitude": 5.5980001,
          "distance_km": 8.75
        },
        {
          "code_insee": "13007",
          "nom": "Auriol",
          "slug": "auriol",
          "code_postal": "13390",
          "population": 12839,
          "superficie_km2": 45.0,
          "latitude": 43.3610001,
          "longitude": 5.658,
          "distance_km": 9.04
        },
        {
          "code_insee": "13041",
          "nom": "Gardanne",
          "slug": "gardanne",
          "code_postal": "13120",
          "population": 21174,
          "superficie_km2": 27.0,
          "latitude": 43.4529991,
          "longitude": 5.48,
          "distance_km": 9.08
        },
        {
          "code_insee": "13110",
          "nom": "Trets",
          "slug": "trets",
          "code_postal": "13530",
          "population": 10678,
          "superficie_km2": 70.0,
          "latitude": 43.4379997,
          "longitude": 5.6999998,
          "distance_km": 9.53
        },
        {
          "code_insee": "13002",
          "nom": "Allauch",
          "slug": "allauch",
          "code_postal": "13190",
          "population": 21490,
          "superficie_km2": 50.0,
          "latitude": 43.3530006,
          "longitude": 5.5110002,
          "distance_km": 9.68
        },
        {
          "code_insee": "13060",
          "nom": "Meyreuil",
          "slug": "meyreuil",
          "code_postal": "13590",
          "population": 5935,
          "superficie_km2": 20.0,
          "latitude": 43.4910011,
          "longitude": 5.5009999,
          "distance_km": 10.19
        },
        {
          "code_insee": "13075",
          "nom": "Plan-de-Cuques",
          "slug": "plan-de-cuques",
          "code_postal": "13380",
          "population": 11396,
          "superficie_km2": 9.0,
          "latitude": 43.3670006,
          "longitude": 5.4650002,
          "distance_km": 11.4
        },
        {
          "code_insee": "13107",
          "nom": "Simiane-Collongue",
          "slug": "simiane-collongue",
          "code_postal": "13109",
          "population": 5849,
          "superficie_km2": 30.0,
          "latitude": 43.4119988,
          "longitude": 5.4380002,
          "distance_km": 11.84
        },
        {
          "code_insee": "83120",
          "nom": "Saint-Zacharie",
          "slug": "saint-zacharie",
          "code_postal": "83640",
          "population": 5931,
          "superficie_km2": 27.0,
          "latitude": 43.3779984,
          "longitude": 5.7179999,
          "distance_km": 11.88
        }
      ],
      "zonage_abc": "A",
      "reclassement_abc": "Non",
      "codes_postaux": [
        {
          "code_postal": "13720",
          "libelle_acheminement": "BELCODENE"
        }
      ],
      "logement": {
        "logements_total": 821,
        "residences_principales": 760,
        "logements_vacants": 41,
        "residences_secondaires": 19,
        "maisons": 752,
        "appartements": 67,
        "proprietaires": 585,
        "locataires": 138,
        "hlm": 1,
        "construits_avant_1919": 25,
        "construits_1919_1945": 14,
        "construits_1946_1970": 82,
        "construits_1971_1990": 262,
        "construits_1991_2005": 225,
        "construits_2006_2019": 113,
        "chauffage_electrique": 458,
        "chauffage_fioul": 77,
        "chauffage_gaz_ville": 3,
        "chauffage_gaz_bouteille": 54,
        "chauffage_autre": 165,
        "menages": 760,
        "logements_avant_1990": 383
      },
      "artisans": {
        "monte_escalier": 1,
        "chauffage_pac_clim": 7,
        "isolation": 1,
        "menuiserie": 4,
        "fenetres_velux": 4,
        "couverture_toiture": 0,
        "facade_peinture": 1,
        "portes_volets": 4,
        "piscine": 1,
        "vmc_ventilation": 1,
        "assainissement": 6
      },
      "revenus": {
        "revenu_median": 29180.0,
        "part_menages_imposes": null,
        "taux_pauvrete": null
      },
      "aides_etat": {
        "zone_climatique": "H3",
        "qpv": false,
        "action_coeur_de_ville": false,
        "petites_villes_de_demain": false
      }
    },
    {
      "code_insee": "13014",
      "nom": "Berre-l'Étang",
      "nom_a": null,
      "nom_de": null,
      "slug": "berre-l-etang",
      "code_postal": "13130",
      "population": 13912,
      "superficie_km2": 44.0,
      "latitude": 43.5040016,
      "longitude": 5.1609998,
      "villes_proches": [
        {
          "code_insee": "13081",
          "nom": "Rognac",
          "slug": "rognac",
          "code_postal": "13340",
          "population": 12175,
          "superficie_km2": 18.0,
          "latitude": 43.4970017,
          "longitude": 5.2309999,
          "distance_km": 5.7
        },
        {
          "code_insee": "13037",
          "nom": "La Fare-les-Oliviers",
          "slug": "la-fare-les-oliviers",
          "code_postal": "13580",
          "population": 8867,
          "superficie_km2": 14.0,
          "latitude": 43.5540009,
          "longitude": 5.2020001,
          "distance_km": 6.47
        },
        {
          "code_insee": "13112",
          "nom": "Velaux",
          "slug": "velaux",
          "code_postal": "13880",
          "population": 8713,
          "superficie_km2": 25.0,
          "latitude": 43.5239983,
          "longitude": 5.25,
          "distance_km": 7.51
        },
        {
          "code_insee": "13051",
          "nom": "Lançon-Provence",
          "slug": "lancon-provence",
          "code_postal": "13680",
          "population": 9340,
          "superficie_km2": 69.0,
          "latitude": 43.5760002,
          "longitude": 5.1599998,
          "distance_km": 8.01
        },
        {
          "code_insee": "13092",
          "nom": "Saint-Chamas",
          "slug": "saint-chamas",
          "code_postal": "13250",
          "population": 8643,
          "superficie_km2": 27.0,
          "latitude": 43.5439987,
          "longitude": 5.073,
          "distance_km": 8.37
        },
        {
          "code_insee": "13118",
          "nom": "Coudoux",
          "slug": "coudoux",
          "code_postal": "13111",
          "population": 3726,
          "superficie_km2": 13.0,
          "latitude": 43.5600014,
          "longitude": 5.2540002,
          "distance_km": 9.75
        },
        {
          "code_insee": "13117",
          "nom": "Vitrolles",
          "slug": "vitrolles",
          "code_postal": "13127",
          "population": 35532,
          "superficie_km2": 37.0,
          "latitude": 43.4500008,
          "longitude": 5.2639999,
          "distance_km": 10.25
        },
        {
          "code_insee": "13054",
          "nom": "Marignane",
          "slug": "marignane",
          "code_postal": "13700",
          "population": 33003,
          "superficie_km2": 24.0,
          "latitude": 43.4169998,
          "longitude": 5.2119999,
          "distance_km": 10.51
        },
        {
          "code_insee": "13029",
          "nom": "Cornillon-Confoux",
          "slug": "cornillon-confoux",
          "code_postal": "13250",
          "population": 1571,
          "superficie_km2": 15.0,
          "latitude": 43.5779991,
          "longitude": 5.0770001,
          "distance_km": 10.66
        },
        {
          "code_insee": "13114",
          "nom": "Ventabren",
          "slug": "ventabren",
          "code_postal": "13122",
          "population": 5484,
          "superficie_km2": 26.0,
          "latitude": 43.5419998,
          "longitude": 5.3060002,
          "distance_km": 12.43
        },
        {
          "code_insee": "13102",
          "nom": "Saint-Victoret",
          "slug": "saint-victoret",
          "code_postal": "13730",
          "population": 6648,
          "superficie_km2": 5.0,
          "latitude": 43.4140015,
          "longitude": 5.2540002,
          "distance_km": 12.51
        },
        {
          "code_insee": "13098",
          "nom": "Saint-Mitre-les-Remparts",
          "slug": "saint-mitre-les-remparts",
          "code_postal": "13920",
          "population": 5816,
          "superficie_km2": 21.0,
          "latitude": 43.4550018,
          "longitude": 5.0149999,
          "distance_km": 12.98
        },
        {
          "code_insee": "13026",
          "nom": "Châteauneuf-les-Martigues",
          "slug": "chateauneuf-les-martigues",
          "code_postal": "13220",
          "population": 17909,
          "superficie_km2": 33.0,
          "latitude": 43.387001,
          "longitude": 5.1479998,
          "distance_km": 13.05
        },
        {
          "code_insee": "13043",
          "nom": "Gignac-la-Nerthe",
          "slug": "gignac-la-nerthe",
          "code_postal": "13180",
          "population": 10083,
          "superficie_km2": 9.0,
          "latitude": 43.3899994,
          "longitude": 5.2280002,
          "distance_km": 13.78
        },
        {
          "code_insee": "13069",
          "nom": "Pélissanne",
          "slug": "pelissanne",
          "code_postal": "13330",
          "population": 10554,
          "superficie_km2": 19.0,
          "latitude": 43.6310005,
          "longitude": 5.1599998,
          "distance_km": 14.12
        },
        {
          "code_insee": "13063",
          "nom": "Miramas",
          "slug": "miramas",
          "code_postal": "13140",
          "population": 26405,
          "superficie_km2": 26.0,
          "latitude": 43.5839996,
          "longitude": 5.0139999,
          "distance_km": 14.82
        },
        {
          "code_insee": "13044",
          "nom": "Grans",
          "slug": "grans",
          "code_postal": "13450",
          "population": 5274,
          "superficie_km2": 28.0,
          "latitude": 43.6139984,
          "longitude": 5.0450001,
          "distance_km": 15.39
        },
        {
          "code_insee": "13032",
          "nom": "Éguilles",
          "slug": "eguilles",
          "code_postal": "13510",
          "population": 8220,
          "superficie_km2": 34.0,
          "latitude": 43.5709992,
          "longitude": 5.329,
          "distance_km": 15.46
        },
        {
          "code_insee": "13077",
          "nom": "Port-de-Bouc",
          "slug": "port-de-bouc",
          "code_postal": "13110",
          "population": 16136,
          "superficie_km2": 12.0,
          "latitude": 43.4230003,
          "longitude": 4.993,
          "distance_km": 16.28
        },
        {
          "code_insee": "13019",
          "nom": "Cabriès",
          "slug": "cabries",
          "code_postal": "13480",
          "population": 10070,
          "superficie_km2": 37.0,
          "latitude": 43.4500008,
          "longitude": 5.3499999,
          "distance_km": 16.39
        }
      ],
      "zonage_abc": "A",
      "reclassement_abc": "Non",
      "codes_postaux": [
        {
          "code_postal": "13130",
          "libelle_acheminement": "BERRE L ETANG"
        }
      ],
      "logement": {
        "logements_total": 6009,
        "residences_principales": 5536,
        "logements_vacants": 380,
        "residences_secondaires": 91,
        "maisons": 3050,
        "appartements": 2819,
        "proprietaires": 2610,
        "locataires": 2693,
        "hlm": 1174,
        "construits_avant_1919": 178,
        "construits_1919_1945": 560,
        "construits_1946_1970": 2026,
        "construits_1971_1990": 1490,
        "construits_1991_2005": 678,
        "construits_2006_2019": 578,
        "chauffage_electrique": 2750,
        "chauffage_fioul": 539,
        "chauffage_gaz_ville": 1730,
        "chauffage_gaz_bouteille": 65,
        "chauffage_autre": 450,
        "menages": 5536,
        "logements_avant_1990": 4254
      },
      "artisans": {
        "monte_escalier": 1,
        "chauffage_pac_clim": 17,
        "isolation": 42,
        "menuiserie": 27,
        "fenetres_velux": 27,
        "couverture_toiture": 28,
        "facade_peinture": 16,
        "portes_volets": 27,
        "piscine": 2,
        "vmc_ventilation": 11,
        "assainissement": 7
      },
      "revenus": {
        "revenu_median": 19950.0,
        "part_menages_imposes": 41.0,
        "taux_pauvrete": 18.0
      },
      "aides_etat": {
        "zone_climatique": "H3",
        "qpv": true,
        "action_coeur_de_ville": false,
        "petites_villes_de_demain": true
      }
    },