{
  "departement": {
    "code": "18",
    "nom": "Cher",
    "slug": "cher",
    "population_totale": 298334
  },
  "region": {
    "id": 5,
    "code": "04",
    "nom": "Centre-Val de Loire",
    "slug": "centre-val-de-loire"
  },
  "voisins": [
    {
      "dep_code": "28",
      "dep_nom": "Eure-et-Loir",
      "dep_slug": "eure-et-loir"
    },
    {
      "dep_code": "36",
      "dep_nom": "Indre",
      "dep_slug": "indre"
    },
    {
      "dep_code": "37",
      "dep_nom": "Indre-et-Loire",
      "dep_slug": "indre-et-loire"
    },
    {
      "dep_code": "41",
      "dep_nom": "Loir-et-Cher",
      "dep_slug": "loir-et-cher"
    }
  ],
  "communes_count": 286,
  "communes": [
    {
      "code_insee": "18001",
      "nom": "Achères",
      "nom_a": null,
      "nom_de": null,
      "slug": "acheres",
      "code_postal": "18250",
      "population": 326,
      "superficie_km2": 1300.6,
      "latitude": 47.2828,
      "longitude": 2.4601,
      "villes_proches": [
        {
          "code_insee": "18145",
          "nom": "Menetou-Salon",
          "slug": "menetou-salon",
          "code_postal": "18510",
          "population": 1626,
          "superficie_km2": 3817.22,
          "latitude": 47.2436,
          "longitude": 2.4874,
          "distance_km": 4.82
        },
        {
          "code_insee": "18229",
          "nom": "Saint-Palais",
          "slug": "saint-palais",
          "code_postal": "18110",
          "population": 610,
          "superficie_km2": 2645.83,
          "latitude": 47.2476,
          "longitude": 2.4064,
          "distance_km": 5.63
        },
        {
          "code_insee": "18189",
          "nom": "Quantilly",
          "slug": "quantilly",
          "code_postal": "18110",
          "population": 490,
          "superficie_km2": 1280.95,
          "latitude": 47.2309,
          "longitude": 2.4462,
          "distance_km": 5.87
        },
        {
          "code_insee": "18109",
          "nom": "Henrichemont",
          "slug": "henrichemont",
          "code_postal": "18250",
          "population": 1721,
          "superficie_km2": 2592.78,
          "latitude": 47.3,
          "longitude": 2.5376,
          "distance_km": 6.15
        },
        {
          "code_insee": "18149",
          "nom": "Méry-ès-Bois",
          "slug": "mery-es-bois",
          "code_postal": "18380",
          "population": 533,
          "superficie_km2": 9146.01,
          "latitude": 47.3047,
          "longitude": 2.3817,
          "distance_km": 6.39
        },
        {
          "code_insee": "18176",
          "nom": "Parassy",
          "slug": "parassy",
          "code_postal": "18220",
          "population": 415,
          "superficie_km2": 2666.31,
          "latitude": 47.2399,
          "longitude": 2.539,
          "distance_km": 7.63
        },
        {
          "code_insee": "18223",
          "nom": "Saint-Martin-d'Auxigny",
          "slug": "saint-martin-d-auxigny",
          "code_postal": "18110",
          "population": 2546,
          "superficie_km2": 2430.79,
          "latitude": 47.2164,
          "longitude": 2.3843,
          "distance_km": 9.34
        },
        {
          "code_insee": "18115",
          "nom": "Ivoy-le-Pré",
          "slug": "ivoy-le-pre",
          "code_postal": "18380",
          "population": 771,
          "superficie_km2": 9940.64,
          "latitude": 47.3576,
          "longitude": 2.5187,
          "distance_km": 9.42
        },
        {
          "code_insee": "18047",
          "nom": "La Chapelle-d'Angillon",
          "slug": "la-chapelle-d-angillon",
          "code_postal": "18380",
          "population": 606,
          "superficie_km2": 1031.14,
          "latitude": 47.3705,
          "longitude": 2.4416,
          "distance_km": 9.85
        },
        {
          "code_insee": "18156",
          "nom": "Morogues",
          "slug": "morogues",
          "code_postal": "18220",
          "population": 424,
          "superficie_km2": 3099.88,
          "latitude": 47.255,
          "longitude": 2.5953,
          "distance_km": 10.66
        },
        {
          "code_insee": "18280",
          "nom": "Vignoux-sous-les-Aix",
          "slug": "vignoux-sous-les-aix",
          "code_postal": "18110",
          "population": 708,
          "superficie_km2": 1511.12,
          "latitude": 47.1836,
          "longitude": 2.4683,
          "distance_km": 11.05
        },
        {
          "code_insee": "18211",
          "nom": "Saint-Georges-sur-Moulon",
          "slug": "saint-georges-sur-moulon",
          "code_postal": "18110",
          "population": 728,
          "superficie_km2": 955.06,
          "latitude": 47.1837,
          "longitude": 2.4162,
          "distance_km": 11.51
        },
        {
          "code_insee": "18016",
          "nom": "Aubinges",
          "slug": "aubinges",
          "code_postal": "18220",
          "population": 401,
          "superficie_km2": 1090.91,
          "latitude": 47.2202,
          "longitude": 2.5893,
          "distance_km": 11.98
        },
        {
          "code_insee": "18253",
          "nom": "Soulangis",
          "slug": "soulangis",
          "code_postal": "18220",
          "population": 454,
          "superficie_km2": 1404.46,
          "latitude": 47.1788,
          "longitude": 2.5162,
          "distance_km": 12.32
        },
        {
          "code_insee": "18003",
          "nom": "Les Aix-d'Angillon",
          "slug": "les-aix-d-angillon",
          "code_postal": "18220",
          "population": 1877,
          "superficie_km2": 1470.67,
          "latitude": 47.193,
          "longitude": 2.5625,
          "distance_km": 12.63
        },
        {
          "code_insee": "18179",
          "nom": "Pigny",
          "slug": "pigny",
          "code_postal": "18110",
          "population": 966,
          "superficie_km2": 825.26,
          "latitude": 47.1633,
          "longitude": 2.4446,
          "distance_km": 13.34
        },
        {
          "code_insee": "18271",
          "nom": "Vasselay",
          "slug": "vasselay",
          "code_postal": "18110",
          "population": 1579,
          "superficie_km2": 2014.31,
          "latitude": 47.1577,
          "longitude": 2.3886,
          "distance_km": 14.92
        },
        {
          "code_insee": "18088",
          "nom": "Ennordres",
          "slug": "ennordres",
          "code_postal": "18380",
          "population": 204,
          "superficie_km2": 6438.36,
          "latitude": 47.4204,
          "longitude": 2.4211,
          "distance_km": 15.58
        },
        {
          "code_insee": "18097",
          "nom": "Fussy",
          "slug": "fussy",
          "code_postal": "18110",
          "population": 1891,
          "superficie_km2": 1122.68,
          "latitude": 47.1436,
          "longitude": 2.427,
          "distance_km": 15.68
        },
        {
          "code_insee": "18226",
          "nom": "Saint-Michel-de-Volangis",
          "slug": "saint-michel-de-volangis",
          "code_postal": "18390",
          "population": 474,
          "superficie_km2": 1747.19,
          "latitude": 47.1406,
          "longitude": 2.4812,
          "distance_km": 15.89
        }
      ],
      "zonage_abc": "C",
      "reclassement_abc": "Non",
      "codes_postaux": [
        {
          "code_postal": "18250",
          "libelle_acheminement": "ACHERES"
        }
      ],
      "logement": {
        "logements_total": 227,
        "residences_principales": 168,
        "logements_vacants": 23,
        "residences_secondaires": 36,
        "maisons": 222,
        "appartements": 1,
        "proprietaires": 145,
        "locataires": 13,
        "hlm": 0,
        "construits_avant_1919": 58,
        "construits_1919_1945": 12,
        "construits_1946_1970": 15,
        "construits_1971_1990": 47,
        "construits_1991_2005": 14,
        "construits_2006_2019": 21,
        "chauffage_electrique": 53,
        "chauffage_fioul": 17,
        "chauffage_gaz_ville": 1,
        "chauffage_gaz_bouteille": 11,
        "chauffage_autre": 86,
        "menages": 168,
        "logements_avant_1990": 132
      },
      "artisans": {
        "monte_escalier": 0,
        "chauffage_pac_clim": 1,
        "isolation": 0,
        "menuiserie": 0,
        "fenetres_velux": 0,
        "couverture_toiture": 1,
        "facade_peinture": 0,
        "portes_volets": 0,
        "piscine": 0,
        "vmc_ventilation": 1,
        "assainissement": 0
      },
      "revenus": {
        "revenu_median": 22290.0,
        "part_menages_imposes": null,
        "taux_pauvrete": null
      },
      "aides_etat": {
        "zone_climatique": "H1",
        "qpv": false,
        "action_coeur_de_ville": false,
        "petites_villes_de_demain": false
      }
    },
    {
      "code_insee": "18002",
      "nom": "Ainay-le-Vieil",
      "nom_a": null,
      "nom_de": null,
      "slug": "ainay-le-vieil",
      "code_postal": "18200",
      "population": 189,
      "superficie_km2": 1382.79,
      "latitude": 46.6573,
      "longitude": 2.5413,
      "villes_proches": [
        {
          "code_insee": "18041",
          "nom": "La Celette",
          "slug": "la-celette",
          "code_postal": "18360",
          "population": 205,
          "superficie_km2": 2530.3,
          "latitude": 46.6363,
          "longitude": 2.5272,
          "distance_km": 2.57
        },
        {
          "code_insee": "18178",
          "nom": "La Perche",
          "slug": "la-perche",
          "code_postal": "18200",
          "population": 205,
          "superficie_km2": 1043.14,
          "latitude": 46.6309,
          "longitude": 2.5751,
          "distance_km": 3.91
        },
        {
          "code_insee": "03143",
          "nom": "Lételon",
          "slug": "letelon",
          "code_postal": "03360",
          "population": 93,
          "superficie_km2": 631.35,
          "latitude": 46.6582,
          "longitude": 2.5954,
          "distance_km": 4.13
        },
        {
          "code_insee": "18107",
          "nom": "La Groutte",
          "slug": "la-groutte",
          "code_postal": "18200",
          "population": 115,
          "superficie_km2": 293.03,
          "latitude": 46.6891,
          "longitude": 2.5117,
          "distance_km": 4.2
        },
        {
          "code_insee": "18086",
          "nom": "Drevant",
          "slug": "drevant",
          "code_postal": "18200",
          "population": 555,
          "superficie_km2": 482.9,
          "latitude": 46.6977,
          "longitude": 2.5242,
          "distance_km": 4.68
        },
        {
          "code_insee": "18069",
          "nom": "Colombiers",
          "slug": "colombiers",
          "code_postal": "18200",
          "population": 409,
          "superficie_km2": 966.78,
          "latitude": 46.6983,
          "longitude": 2.5584,
          "distance_km": 4.74
        },
        {
          "code_insee": "18076",
          "nom": "Coust",
          "slug": "coust",
          "code_postal": "18210",
          "population": 415,
          "superficie_km2": 2218.54,
          "latitude": 46.685,
          "longitude": 2.5956,
          "distance_km": 5.16
        },
        {
          "code_insee": "18209",
          "nom": "Saint-Georges-de-Poisieux",
          "slug": "saint-georges-de-poisieux",
          "code_postal": "18200",
          "population": 430,
          "superficie_km2": 1594.16,
          "latitude": 46.6838,
          "longitude": 2.4808,
          "distance_km": 5.48
        },
        {
          "code_insee": "03293",
          "nom": "Urçay",
          "slug": "urcay",
          "code_postal": "03360",
          "population": 296,
          "superficie_km2": 1258.49,
          "latitude": 46.6361,
          "longitude": 2.612,
          "distance_km": 5.89
        },
        {
          "code_insee": "18093",
          "nom": "Faverdines",
          "slug": "faverdines",
          "code_postal": "18360",
          "population": 135,
          "superficie_km2": 1884.96,
          "latitude": 46.6337,
          "longitude": 2.4627,
          "distance_km": 6.55
        },
        {
          "code_insee": "18197",
          "nom": "Saint-Amand-Montrond",
          "slug": "saint-amand-montrond",
          "code_postal": "18200",
          "population": 9899,
          "superficie_km2": 2021.2,
          "latitude": 46.7236,
          "longitude": 2.5167,
          "distance_km": 7.61
        },
        {
          "code_insee": "18034",
          "nom": "Bouzais",
          "slug": "bouzais",
          "code_postal": "18200",
          "population": 273,
          "superficie_km2": 334.16,
          "latitude": 46.7045,
          "longitude": 2.4684,
          "distance_km": 7.65
        },
        {
          "code_insee": "18245",
          "nom": "Saulzais-le-Potier",
          "slug": "saulzais-le-potier",
          "code_postal": "18360",
          "population": 472,
          "superficie_km2": 3299.68,
          "latitude": 46.5988,
          "longitude": 2.4872,
          "distance_km": 7.71
        },
        {
          "code_insee": "18172",
          "nom": "Orval",
          "slug": "orval",
          "code_postal": "18200",
          "population": 1619,
          "superficie_km2": 765.38,
          "latitude": 46.723,
          "longitude": 2.4676,
          "distance_km": 9.22
        },
        {
          "code_insee": "18089",
          "nom": "Épineuil-le-Fleuriel",
          "slug": "epineuil-le-fleuriel",
          "code_postal": "18360",
          "population": 436,
          "superficie_km2": 4258.86,
          "latitude": 46.5738,
          "longitude": 2.5514,
          "distance_km": 9.32
        },
        {
          "code_insee": "03037",
          "nom": "Braize",
          "slug": "braize",
          "code_postal": "03360",
          "population": 259,
          "superficie_km2": 2101.7,
          "latitude": 46.6619,
          "longitude": 2.6646,
          "distance_km": 9.42
        },
        {
          "code_insee": "18009",
          "nom": "Arcomps",
          "slug": "arcomps",
          "code_postal": "18200",
          "population": 280,
          "superficie_km2": 2059.63,
          "latitude": 46.6743,
          "longitude": 2.4197,
          "distance_km": 9.47
        },
        {
          "code_insee": "18231",
          "nom": "Saint-Pierre-les-Étieux",
          "slug": "saint-pierre-les-etieux",
          "code_postal": "18210",
          "population": 729,
          "superficie_km2": 2789.27,
          "latitude": 46.738,
          "longitude": 2.5944,
          "distance_km": 9.84
        },
        {
          "code_insee": "03168",
          "nom": "Meaulne-Vitray",
          "slug": "meaulne-vitray",
          "code_postal": "03360",
          "population": 906,
          "superficie_km2": 4989.64,
          "latitude": 46.6065,
          "longitude": 2.6485,
          "distance_km": 9.95
        },
        {
          "code_insee": "18238",
          "nom": "Saint-Vitte",
          "slug": "saint-vitte",
          "code_postal": "18360",
          "population": 117,
          "superficie_km2": 1669.41,
          "latitude": 46.5395,
          "longitude": 2.5292,
          "distance_km": 13.13
        }
      ],
      "zonage_abc": "C",
      "reclassement_abc": "Non",
      "codes_postaux": [
        {
          "code_postal": "18200",
          "libelle_acheminement": "AINAY LE VIEIL"
        }
      ],
      "logement": {
        "logements_total": 142,
        "residences_principales": 94,
        "logements_vacants": 24,
        "residences_secondaires": 24,
        "maisons": 140,
        "appartements": 1,
        "proprietaires": 73,
        "locataires": 17,
        "hlm": 8,
        "construits_avant_1919": 41,
        "construits_1919_1945": 13,
        "construits_1946_1970": 18,
        "construits_1971_1990": 11,
        "construits_1991_2005": 2,
        "construits_2006_2019": 9,
        "chauffage_electrique": 22,
        "chauffage_fioul": 14,
        "chauffage_gaz_ville": 0,
        "chauffage_gaz_bouteille": 9,
        "chauffage_autre": 49,
        "menages": 94,
        "logements_avant_1990": 83
      },
      "artisans": {
        "monte_escalier": 0,
        "chauffage_pac_clim": 0,
        "isolation": 1,
        "menuiserie": 0,
        "fenetres_velux": 0,
        "couverture_toiture": 1,
        "facade_peinture": 0,
        "portes_volets": 0,
        "piscine": 1,
        "vmc_ventilation": 0,
        "assainissement": 0
      },
      "revenus": {
        "revenu_median": 20020.0,
        "part_menages_imposes": null,
        "taux_pauvrete": null
      },
      "aides_etat": {
        "zone_climatique": "H1",
        "qpv": false,
        "action_coeur_de_ville": false,
        "petites_villes_de_demain": false
      }
    },
    {
      "code_insee": "18004",
      "nom": "Allogny",
      "nom_a": null,
      "nom_de": null,
      "slug": "allogny",
      "code_postal": "18110",
      "population": 1111,
      "superficie_km2": 50.0,
      "latitude": 47.2340012,
      "longitude": 2.3069999,
      "villes_proches": [
        {
          "code_insee": "18223",
          "nom": "Saint-Martin-d'Auxigny",
          "slug": "saint-martin-d-auxigny",
          "code_postal": "18110",
          "population": 2505,
          "superficie_km2": 24.0,
          "latitude": 47.2099991,
          "longitude": 2.382,
          "distance_km": 6.26
        },
        {
          "code_insee": "18206",
          "nom": "Saint-Éloy-de-Gy",
          "slug": "saint-eloy-de-gy",
          "code_postal": "18110",
          "population": 1558,
          "superficie_km2": 31.0,
          "latitude": 47.1689987,
          "longitude": 2.3310001,
          "distance_km": 7.45
        },
        {
          "code_insee": "18005",
          "nom": "Allouis",
          "slug": "allouis",
          "code_postal": "18500",
          "population": 1079,
          "superficie_km2": 36.0,
          "latitude": 47.1780014,
          "longitude": 2.2409999,
          "distance_km": 7.98
        },
        {
          "code_insee": "18281",
          "nom": "Vignoux-sur-Barangeon",
          "slug": "vignoux-sur-barangeon",
          "code_postal": "18500",
          "population": 2095,
          "superficie_km2": 25.0,
          "latitude": 47.2080002,
          "longitude": 2.1800001,
          "distance_km": 10.02
        },
        {
          "code_insee": "18271",
          "nom": "Vasselay",
          "slug": "vasselay",
          "code_postal": "18110",
          "population": 1552,
          "superficie_km2": 20.0,
          "latitude": 47.1609993,
          "longitude": 2.3859999,
          "distance_km": 10.08
        },
        {
          "code_insee": "18165",
          "nom": "Neuvy-sur-Barangeon",
          "slug": "neuvy-sur-barangeon",
          "code_postal": "18330",
          "population": 1101,
          "superficie_km2": 67.0,
          "latitude": 47.3219986,
          "longitude": 2.2709999,
          "distance_km": 10.15
        },
        {
          "code_insee": "18028",
          "nom": "Berry-Bouy",
          "slug": "berry-bouy",
          "code_postal": "18500",
          "population": 1168,
          "superficie_km2": 32.0,
          "latitude": 47.1310005,
          "longitude": 2.296,
          "distance_km": 11.48
        },
        {
          "code_insee": "18141",
          "nom": "Mehun-sur-Yèvre",
          "slug": "mehun-sur-yevre",
          "code_postal": "18500",
          "population": 6448,
          "superficie_km2": 24.0,
          "latitude": 47.1360016,
          "longitude": 2.22,
          "distance_km": 12.73
        },
        {
          "code_insee": "18096",
          "nom": "Foëcy",
          "slug": "foecy",
          "code_postal": "18500",
          "population": 2069,
          "superficie_km2": 16.0,
          "latitude": 47.1800003,
          "longitude": 2.155,
          "distance_km": 12.96
        },
        {
          "code_insee": "18097",
          "nom": "Fussy",
          "slug": "fussy",
          "code_postal": "18110",
          "population": 1938,
          "superficie_km2": 11.0,
          "latitude": 47.1409988,
          "longitude": 2.4260001,
          "distance_km": 13.7
        },
        {
          "code_insee": "18145",
          "nom": "Menetou-Salon",
          "slug": "menetou-salon",
          "code_postal": "18510",
          "population": 1614,
          "superficie_km2": 38.0,
          "latitude": 47.2420006,
          "longitude": 2.49,
          "distance_km": 13.84
        },
        {
          "code_insee": "18205",
          "nom": "Saint-Doulchard",
          "slug": "saint-doulchard",
          "code_postal": "18230",
          "population": 9645,
          "superficie_km2": 24.0,
          "latitude": 47.1110001,
          "longitude": 2.3570001,
          "distance_km": 14.19
        },
        {
          "code_insee": "18138",
          "nom": "Marmagne",
          "slug": "marmagne",
          "code_postal": "18500",
          "population": 1905,
          "superficie_km2": 38.0,
          "latitude": 47.0890007,
          "longitude": 2.2709999,
          "distance_km": 16.35
        },
        {
          "code_insee": "18279",
          "nom": "Vierzon",
          "slug": "vierzon",
          "code_postal": "18100",
          "population": 25348,
          "superficie_km2": 75.0,
          "latitude": 47.2369995,
          "longitude": 2.079,
          "distance_km": 17.22
        },
        {
          "code_insee": "18109",
          "nom": "Henrichemont",
          "slug": "henrichemont",
          "code_postal": "18250",
          "population": 1706,
          "superficie_km2": 26.0,
          "latitude": 47.2980003,
          "longitude": 2.536,
          "distance_km": 18.69
        },
        {
          "code_insee": "18213",
          "nom": "Saint-Germain-du-Puy",
          "slug": "saint-germain-du-puy",
          "code_postal": "18390",
          "population": 4924,
          "superficie_km2": 22.0,
          "latitude": 47.1080017,
          "longitude": 2.4790001,
          "distance_km": 19.11
        },
        {
          "code_insee": "18033",
          "nom": "Bourges",
          "slug": "bourges",
          "code_postal": "18000",
          "population": 63702,
          "superficie_km2": 69.0,
          "latitude": 47.0750008,
          "longitude": 2.404,
          "distance_km": 19.14
        },
        {
          "code_insee": "18050",
          "nom": "La Chapelle-Saint-Ursin",
          "slug": "la-chapelle-saint-ursin",
          "code_postal": "18570",
          "population": 3692,
          "superficie_km2": 8.0,
          "latitude": 47.0579987,
          "longitude": 2.319,
          "distance_km": 19.59
        },
        {
          "code_insee": "18003",
          "nom": "Les Aix-d'Angillon",
          "slug": "les-aix-d-angillon",
          "code_postal": "18220",
          "population": 1872,
          "superficie_km2": 15.0,
          "latitude": 47.1930008,
          "longitude": 2.562,
          "distance_km": 19.79
        },
        {
          "code_insee": "18148",
          "nom": "Méreau",
          "slug": "mereau",
          "code_postal": "18120",
          "population": 2644,
          "superficie_km2": 19.0,
          "latitude": 47.1790009,
          "longitude": 2.052,
          "distance_km": 20.21
        }
      ],
      "zonage_abc": "C",
      "reclassement_abc": "Non",
      "codes_postaux": [
        {
          "code_postal": "18110",
          "libelle_acheminement": "ALLOGNY"
        }
      ],
      "logement": {
        "logements_total": 595,
        "residences_principales": 496,
        "logements_vacants": 52,
        "residences_secondaires": 47,
        "maisons": 582,
        "appartements": 12,
        "proprietaires": 420,
        "locataires": 66,
        "hlm": 19,
        "construits_avant_1919": 75,
        "construits_1919_1945": 25,
        "construits_1946_1970": 45,
        "construits_1971_1990": 177,
        "construits_1991_2005": 82,
        "construits_2006_2019": 89,
        "chauffage_electrique": 204,
        "chauffage_fioul": 99,
        "chauffage_gaz_ville": 0,
        "chauffage_gaz_bouteille": 26,
        "chauffage_autre": 165,
        "menages": 496,
        "logements_avant_1990": 322
      },
      "artisans": {
        "monte_escalier": 0,
        "chauffage_pac_clim": 1,
        "isolation": 2,
        "menuiserie": 1,
        "fenetres_velux": 1,
        "couverture_toiture": 1,
        "facade_peinture": 0,
        "portes_volets": 1,
        "piscine": 0,
        "vmc_ventilation": 0,
        "assainissement": 1
      },
      "revenus": {
        "revenu_median": 24330.0,
        "part_menages_imposes": null,
        "taux_pauvrete": null
      },
      "aides_etat": {
        "zone_climatique": "H1",
        "qpv": false,
        "action_coeur_de_ville": false,
        "petites_villes_de_demain": false
      }
    },
    {
      "code_insee": "18005",
      "nom": "Allouis",
      "nom_a": null,
      "nom_de": null,
      "slug": "allouis",
      "code_postal": "18500",
      "population": 1079,
      "superficie_km2": 36.0,
      "latitude": 47.1780014,
      "longitude": 2.2409999,
      "villes_proches": [
        {
          "code_insee": "18141",
          "nom": "Mehun-sur-Yèvre",
          "slug": "mehun-sur-yevre",
          "code_postal": "18500",
          "population": 6448,
          "superficie_km2": 24.0,
          "latitude": 47.1360016,
          "longitude": 2.22,
          "distance_km": 4.93
        },
        {
          "code_insee": "18281",
          "nom": "Vignoux-sur-Barangeon",
          "slug": "vignoux-sur-barangeon",
          "code_postal": "18500",
          "population": 2095,
          "superficie_km2": 25.0,
          "latitude": 47.2080002,
          "longitude": 2.1800001,
          "distance_km": 5.69
        },
        {
          "code_insee": "18096",
          "nom": "Foëcy",
          "slug": "foecy",
          "code_postal": "18500",
          "population": 2069,
          "superficie_km2": 16.0,
          "latitude": 47.1800003,
          "longitude": 2.155,
          "distance_km": 6.5
        },
        {
          "code_insee": "18028",
          "nom": "Berry-Bouy",
          "slug": "berry-bouy",
          "code_postal": "18500",
          "population": 1168,
          "superficie_km2": 32.0,
          "latitude": 47.1310005,
          "longitude": 2.296,
          "distance_km": 6.68
        },
        {
          "code_insee": "18206",
          "nom": "Saint-Éloy-de-Gy",
          "slug": "saint-eloy-de-gy",
          "code_postal": "18110",
          "population": 1558,
          "superficie_km2": 31.0,
          "latitude": 47.1689987,
          "longitude": 2.3310001,
          "distance_km": 6.88
        },
        {
          "code_insee": "18004",
          "nom": "Allogny",
          "slug": "allogny",
          "code_postal": "18110",
          "population": 1111,
          "superficie_km2": 50.0,
          "latitude": 47.2340012,
          "longitude": 2.3069999,
          "distance_km": 7.98
        },
        {
          "code_insee": "18138",
          "nom": "Marmagne",
          "slug": "marmagne",
          "code_postal": "18500",
          "population": 1905,
          "superficie_km2": 38.0,
          "latitude": 47.0890007,
          "longitude": 2.2709999,
          "distance_km": 10.15
        },
        {
          "code_insee": "18271",
          "nom": "Vasselay",
          "slug": "vasselay",
          "code_postal": "18110",
          "population": 1552,
          "superficie_km2": 20.0,
          "latitude": 47.1609993,
          "longitude": 2.3859999,
          "distance_km": 11.12
        },
        {
          "code_insee": "18223",
          "nom": "Saint-Martin-d'Auxigny",
          "slug": "saint-martin-d-auxigny",
          "code_postal": "18110",
          "population": 2505,
          "superficie_km2": 24.0,
          "latitude": 47.2099991,
          "longitude": 2.382,
          "distance_km": 11.23
        },
        {
          "code_insee": "18205",
          "nom": "Saint-Doulchard",
          "slug": "saint-doulchard",
          "code_postal": "18230",
          "population": 9645,
          "superficie_km2": 24.0,
          "latitude": 47.1110001,
          "longitude": 2.3570001,
          "distance_km": 11.51
        },
        {
          "code_insee": "18279",
          "nom": "Vierzon",
          "slug": "vierzon",
          "code_postal": "18100",
          "population": 25348,
          "superficie_km2": 75.0,
          "latitude": 47.2369995,
          "longitude": 2.079,
          "distance_km": 13.88
        },
        {
          "code_insee": "18148",
          "nom": "Méreau",
          "slug": "mereau",
          "code_postal": "18120",
          "population": 2644,
          "superficie_km2": 19.0,
          "latitude": 47.1790009,
          "longitude": 2.052,
          "distance_km": 14.29
        },
        {
          "code_insee": "18097",
          "nom": "Fussy",
          "slug": "fussy",
          "code_postal": "18110",
          "population": 1938,
          "superficie_km2": 11.0,
          "latitude": 47.1409988,
          "longitude": 2.4260001,
          "distance_km": 14.58
        },
        {
          "code_insee": "18050",
          "nom": "La Chapelle-Saint-Ursin",
          "slug": "la-chapelle-saint-ursin",
          "code_postal": "18570",
          "population": 3692,
          "superficie_km2": 8.0,
          "latitude": 47.0579987,
          "longitude": 2.319,
          "distance_km": 14.59
        },
        {
          "code_insee": "18165",
          "nom": "Neuvy-sur-Barangeon",
          "slug": "neuvy-sur-barangeon",
          "code_postal": "18330",
          "population": 1101,
          "superficie_km2": 67.0,
          "latitude": 47.3219986,
          "longitude": 2.2709999,
          "distance_km": 16.17
        },
        {
          "code_insee": "18033",
          "nom": "Bourges",
          "slug": "bourges",
          "code_postal": "18000",
          "population": 63702,
          "superficie_km2": 69.0,
          "latitude": 47.0750008,
          "longitude": 2.404,
          "distance_km": 16.83
        },
        {
          "code_insee": "18140",
          "nom": "Massay",
          "slug": "massay",
          "code_postal": "18120",
          "population": 1348,
          "superficie_km2": 48.0,
          "latitude": 47.1549988,
          "longitude": 1.9859999,
          "distance_km": 19.45
        },
        {
          "code_insee": "18213",
          "nom": "Saint-Germain-du-Puy",
          "slug": "saint-germain-du-puy",
          "code_postal": "18390",
          "population": 4924,
          "superficie_km2": 22.0,
          "latitude": 47.1080017,
          "longitude": 2.4790001,
          "distance_km": 19.61
        },
        {
          "code_insee": "18267",
          "nom": "Trouy",
          "slug": "trouy",
          "code_postal": "18570",
          "population": 4005,
          "superficie_km2": 23.0,
          "latitude": 47.0200005,
          "longitude": 2.3659999,
          "distance_km": 19.95
        },
        {
          "code_insee": "18145",
          "nom": "Menetou-Salon",
          "slug": "menetou-salon",
          "code_postal": "18510",
          "population": 1614,
          "superficie_km2": 38.0,
          "latitude": 47.2420006,
          "longitude": 2.49,
          "distance_km": 20.11
        }
      ],
      "zonage_abc": "C",
      "reclassement_abc": "Non",
      "codes_postaux": [
        {
          "code_postal": "18500",
          "libelle_acheminement": "ALLOUIS"
        }
      ],
      "logement": {
        "logements_total": 457,
        "residences_principales": 414,
        "logements_vacants": 33,
        "residences_secondaires": 9,
        "maisons": 451,
        "appartements": 6,
        "proprietaires": 365,
        "locataires": 44,
        "hlm": 3,
        "construits_avant_1919": 60,
        "construits_1919_1945": 34,
        "construits_1946_1970": 47,
        "construits_1971_1990": 99,
        "construits_1991_2005": 69,
        "construits_2006_2019": 95,
        "chauffage_electrique": 175,
        "chauffage_fioul": 37,
        "chauffage_gaz_ville": 57,
        "chauffage_gaz_bouteille": 7,
        "chauffage_autre": 136,
        "menages": 414,
        "logements_avant_1990": 240
      },
      "artisans": {
        "monte_escalier": 0,
        "chauffage_pac_clim": 2,
        "isolation": 3,
        "menuiserie": 1,
        "fenetres_velux": 1,
        "couverture_toiture": 2,
        "facade_peinture": 5,
        "portes_volets": 1,
        "piscine": 0,
        "vmc_ventilation": 0,
        "assainissement": 2
      },
      "revenus": {
        "revenu_median": 23810.0,
        "part_menages_imposes": null,
        "taux_pauvrete": null
      },
      "aides_etat": {
        "zone_climatique": "H1",
        "qpv": false,
        "action_coeur_de_ville": false,
        "petites_villes_de_demain": false
      }
    },
    {
      "code_insee": "18006",
      "nom": "Annoix",
      "nom_a": null,
      "nom_de": null,
      "slug": "annoix",
      "code_postal": "18340",
      "population": 250,
      "superficie_km2": 1218.53,
      "latitude": 46.9712,
      "longitude": 2.545,
      "villes_proches": [
        {
          "code_insee": "18289",
          "nom": "Vornay",
          "slug": "vornay",
          "code_postal": "18130",
          "population": 584,
          "superficie_km2": 2678.38,
          "latitude": 46.9682,
          "longitude": 2.5934,
          "distance_km": 3.69
        },
        {
          "code_insee": "18218",
          "nom": "Saint-Just",
          "slug": "saint-just",
          "code_postal": "18340",
          "population": 656,
          "superficie_km2": 1488.29,
          "latitude": 46.9884,
          "longitude": 2.501,
          "distance_km": 3.85
        },
        {
          "code_insee": "18204",
          "nom": "Saint-Denis-de-Palin",
          "slug": "saint-denis-de-palin",
          "code_postal": "18130",
          "population": 274,
          "superficie_km2": 3095.56,
          "latitude": 46.9394,
          "longitude": 2.5214,
          "distance_km": 3.96
        },
        {
          "code_insee": "18081",
          "nom": "Crosses",
          "slug": "crosses",
          "code_postal": "18340",
          "population": 375,
          "superficie_km2": 2685.39,
          "latitude": 47.0071,
          "longitude": 2.5669,
          "distance_km": 4.32
        },
        {
          "code_insee": "18288",
          "nom": "Vorly",
          "slug": "vorly",
          "code_postal": "18340",
          "population": 247,
          "superficie_km2": 1867.41,
          "latitude": 46.9409,
          "longitude": 2.4767,
          "distance_km": 6.18
        },
        {
          "code_insee": "18254",
          "nom": "Soye-en-Septaine",
          "slug": "soye-en-septaine",
          "code_postal": "18340",
          "population": 582,
          "superficie_km2": 1893.54,
          "latitude": 47.0328,
          "longitude": 2.4906,
          "distance_km": 8.0
        },
        {
          "code_insee": "18119",
          "nom": "Jussy-Champagne",
          "slug": "jussy-champagne",
          "code_postal": "18130",
          "population": 205,
          "superficie_km2": 2775.54,
          "latitude": 46.9886,
          "longitude": 2.6484,
          "distance_km": 8.08
        },
        {
          "code_insee": "18248",
          "nom": "Senneçay",
          "slug": "sennecay",
          "code_postal": "18340",
          "population": 443,
          "superficie_km2": 1459.48,
          "latitude": 46.9467,
          "longitude": 2.4436,
          "distance_km": 8.16
        },
        {
          "code_insee": "18247",
          "nom": "Savigny-en-Septaine",
          "slug": "savigny-en-septaine",
          "code_postal": "18390",
          "population": 685,
          "superficie_km2": 2284.8,
          "latitude": 47.0466,
          "longitude": 2.5652,
          "distance_km": 8.52
        },
        {
          "code_insee": "18180",
          "nom": "Plaimpied-Givaudins",
          "slug": "plaimpied-givaudins",
          "code_postal": "18340",
          "population": 2101,
          "superficie_km2": 4107.63,
          "latitude": 47.0116,
          "longitude": 2.445,
          "distance_km": 8.82
        },
        {
          "code_insee": "18087",
          "nom": "Dun-sur-Auron",
          "slug": "dun-sur-auron",
          "code_postal": "18130",
          "population": 3524,
          "superficie_km2": 4997.8,
          "latitude": 46.8918,
          "longitude": 2.5538,
          "distance_km": 8.85
        },
        {
          "code_insee": "18040",
          "nom": "Bussy",
          "slug": "bussy",
          "code_postal": "18130",
          "population": 354,
          "superficie_km2": 2695.54,
          "latitude": 46.9001,
          "longitude": 2.6223,
          "distance_km": 9.85
        },
        {
          "code_insee": "18173",
          "nom": "Osmery",
          "slug": "osmery",
          "code_postal": "18130",
          "population": 264,
          "superficie_km2": 2700.22,
          "latitude": 46.9385,
          "longitude": 2.6698,
          "distance_km": 10.15
        },
        {
          "code_insee": "18174",
          "nom": "Osmoy",
          "slug": "osmoy",
          "code_postal": "18390",
          "population": 291,
          "superficie_km2": 2299.81,
          "latitude": 47.063,
          "longitude": 2.5094,
          "distance_km": 10.56
        },
        {
          "code_insee": "18121",
          "nom": "Lantan",
          "slug": "lantan",
          "code_postal": "18130",
          "population": 96,
          "superficie_km2": 1365.4,
          "latitude": 46.9035,
          "longitude": 2.6589,
          "distance_km": 11.47
        },
        {
          "code_insee": "18212",
          "nom": "Saint-Germain-des-Bois",
          "slug": "saint-germain-des-bois",
          "code_postal": "18340",
          "population": 587,
          "superficie_km2": 2909.55,
          "latitude": 46.8858,
          "longitude": 2.4496,
          "distance_km": 11.94
        },
        {
          "code_insee": "18071",
          "nom": "Contres",
          "slug": "contres",
          "code_postal": "18130",
          "population": 35,
          "superficie_km2": 1599.33,
          "latitude": 46.8603,
          "longitude": 2.4956,
          "distance_km": 12.89
        },
        {
          "code_insee": "18177",
          "nom": "Parnay",
          "slug": "parnay",
          "code_postal": "18130",
          "population": 49,
          "superficie_km2": 1742.52,
          "latitude": 46.8537,
          "longitude": 2.5559,
          "distance_km": 13.09
        },
        {
          "code_insee": "18166",
          "nom": "Nohant-en-Goût",
          "slug": "nohant-en-gout",
          "code_postal": "18390",
          "population": 548,
          "superficie_km2": 2500.9,
          "latitude": 47.0902,
          "longitude": 2.5838,
          "distance_km": 13.56
        },
        {
          "code_insee": "18158",
          "nom": "Moulins-sur-Yèvre",
          "slug": "moulins-sur-yevre",
          "code_postal": "18390",
          "population": 850,
          "superficie_km2": 1536.24,
          "latitude": 47.0958,
          "longitude": 2.5259,
          "distance_km": 13.93
        }
      ],
      "zonage_abc": "B2",
      "reclassement_abc": "Non",
      "codes_postaux": [
        {
          "code_postal": "18340",
          "libelle_acheminement": "ANNOIX"
        }
      ],
      "logement": {
        "logements_total": 131,
        "residences_principales": 111,
        "logements_vacants": 12,
        "residences_secondaires": 8,
        "maisons": 129,
        "appartements": 1,
        "proprietaires": 91,
        "locataires": 16,
        "hlm": 2,
        "construits_avant_1919": 34,
        "construits_1919_1945": 8,
        "construits_1946_1970": 8,
        "construits_1971_1990": 39,
        "construits_1991_2005": 8,
        "construits_2006_2019": 12,
        "chauffage_electrique": 35,
        "chauffage_fioul": 28,
        "chauffage_gaz_ville": 0,
        "chauffage_gaz_bouteille": 10,
        "chauffage_autre": 37,
        "menages": 111,
        "logements_avant_1990": 89
      },
      "artisans": {
        "monte_escalier": 0,
        "chauffage_pac_clim": 0,
        "isolation": 0,
        "menuiserie": 0,
        "fenetres_velux": 0,
        "couverture_toiture": 0,
        "facade_peinture": 0,
        "portes_volets": 0,
        "piscine": 0,
        "vmc_ventilation": 0,
        "assainissement": 0
      },
      "revenus": {
        "revenu_median": 22660.0,
        "part_menages_imposes": null,
        "taux_pauvrete": null
      },
      "aides_etat": {
        "zone_climatique": "H1",
        "qpv": false,
        "action_coeur_de_ville": false,
        "petites_villes_de_demain": false
      }
    },
    {
      "code_insee": "18007",
      "nom": "Apremont-sur-Allier",
      "nom_a": null,
      "nom_de": null,
      "slug": "apremont-sur-allier",
      "code_postal": "18150",
      "population": 66,
      "superficie_km2": 3082.17,
      "latitude": 46.9092,
      "longitude": 3.0189,
      "villes_proches": [
        {
          "code_insee": "58225",
          "nom": "Saincaize-Meauce",
          "slug": "saincaize-meauce",
          "code_postal": "58470",
          "population": 358,
          "superficie_km2": 2157.74,
          "latitude": 46.9088,
          "longitude": 3.0869,
          "distance_km": 5.17
        },
        {
          "code_insee": "18164",
          "nom": "Neuvy-le-Barrois",
          "slug": "neuvy-le-barrois",
          "code_postal": "18600",
          "population": 147,
          "superficie_km2": 4230.47,
          "latitude": 46.8627,
          "longitude": 3.0154,
          "distance_km": 5.18
        },
        {
          "code_insee": "18048",
          "nom": "La Chapelle-Hugon",
          "slug": "la-chapelle-hugon",
          "code_postal": "18150",
          "population": 387,
          "superficie_km2": 1644.77,
          "latitude": 46.8921,
          "longitude": 2.9502,
          "distance_km": 5.56
        },
        {
          "code_insee": "58126",
          "nom": "Gimouille",
          "slug": "gimouille",
          "code_postal": "58470",
          "population": 405,
          "superficie_km2": 1419.23,
          "latitude": 46.9397,
          "longitude": 3.0942,
          "distance_km": 6.65
        },
        {
          "code_insee": "18106",
          "nom": "Grossouvre",
          "slug": "grossouvre",
          "code_postal": "18600",
          "population": 264,
          "superficie_km2": 1590.8,
          "latitude": 46.8741,
          "longitude": 2.9399,
          "distance_km": 7.16
        },
        {
          "code_insee": "18082",
          "nom": "Cuffy",
          "slug": "cuffy",
          "code_postal": "18150",
          "population": 1020,
          "superficie_km2": 3568.08,
          "latitude": 46.974,
          "longitude": 3.0372,
          "distance_km": 7.34
        },
        {
          "code_insee": "18108",
          "nom": "La Guerche-sur-l'Aubois",
          "slug": "la-guerche-sur-l-aubois",
          "code_postal": "18150",
          "population": 3151,
          "superficie_km2": 5357.83,
          "latitude": 46.9528,
          "longitude": 2.945,
          "distance_km": 7.42
        },
        {
          "code_insee": "58158",
          "nom": "Mars-sur-Allier",
          "slug": "mars-sur-allier",
          "code_postal": "58240",
          "population": 301,
          "superficie_km2": 2118.78,
          "latitude": 46.8597,
          "longitude": 3.0879,
          "distance_km": 7.6
        },
        {
          "code_insee": "18062",
          "nom": "Le Chautay",
          "slug": "le-chautay",
          "code_postal": "18150",
          "population": 256,
          "superficie_km2": 1459.2,
          "latitude": 46.9855,
          "longitude": 2.9639,
          "distance_km": 9.46
        },
        {
          "code_insee": "58051",
          "nom": "Challuy",
          "slug": "challuy",
          "code_postal": "58000",
          "population": 1453,
          "superficie_km2": 1898.29,
          "latitude": 46.9446,
          "longitude": 3.1368,
          "distance_km": 9.78
        },
        {
          "code_insee": "58160",
          "nom": "Marzy",
          "slug": "marzy",
          "code_postal": "58180",
          "population": 3623,
          "superficie_km2": 2160.8,
          "latitude": 46.9865,
          "longitude": 3.0942,
          "distance_km": 10.32
        },
        {
          "code_insee": "18155",
          "nom": "Mornay-sur-Allier",
          "slug": "mornay-sur-allier",
          "code_postal": "18600",
          "population": 413,
          "superficie_km2": 2215.13,
          "latitude": 46.816,
          "longitude": 3.0084,
          "distance_km": 10.39
        },
        {
          "code_insee": "58152",
          "nom": "Magny-Cours",
          "slug": "magny-cours",
          "code_postal": "58470",
          "population": 1432,
          "superficie_km2": 3221.75,
          "latitude": 46.8906,
          "longitude": 3.1562,
          "distance_km": 10.63
        },
        {
          "code_insee": "18101",
          "nom": "Germigny-l'Exempt",
          "slug": "germigny-l-exempt",
          "code_postal": "18150",
          "population": 293,
          "superficie_km2": 2853.57,
          "latitude": 46.9128,
          "longitude": 2.8782,
          "distance_km": 10.7
        },
        {
          "code_insee": "58138",
          "nom": "Langeron",
          "slug": "langeron",
          "code_postal": "58240",
          "population": 337,
          "superficie_km2": 2032.62,
          "latitude": 46.818,
          "longitude": 3.0832,
          "distance_km": 11.26
        },
        {
          "code_insee": "18265",
          "nom": "Torteron",
          "slug": "torteron",
          "code_postal": "18320",
          "population": 785,
          "superficie_km2": 1379.52,
          "latitude": 47.009,
          "longitude": 2.9883,
          "distance_km": 11.34
        },
        {
          "code_insee": "18075",
          "nom": "Cours-les-Barres",
          "slug": "cours-les-barres",
          "code_postal": "18320",
          "population": 1021,
          "superficie_km2": 2157.75,
          "latitude": 47.0227,
          "longitude": 3.0325,
          "distance_km": 12.66
        },
        {
          "code_insee": "58117",
          "nom": "Fourchambault",
          "slug": "fourchambault",
          "code_postal": "58600",
          "population": 3992,
          "superficie_km2": 444.97,
          "latitude": 47.0159,
          "longitude": 3.0932,
          "distance_km": 13.14
        },
        {
          "code_insee": "03064",
          "nom": "Château-sur-Allier",
          "slug": "chateau-sur-allier",
          "code_postal": "03320",
          "population": 160,
          "superficie_km2": 2792.32,
          "latitude": 46.7812,
          "longitude": 2.9841,
          "distance_km": 14.48
        },
        {
          "code_insee": "18118",
          "nom": "Jouet-sur-l'Aubois",
          "slug": "jouet-sur-l-aubois",
          "code_postal": "18320",
          "population": 1303,
          "superficie_km2": 1735.68,
          "latitude": 47.0454,
          "longitude": 3.0061,
          "distance_km": 15.18
        }
      ],
      "zonage_abc": "C",
      "reclassement_abc": "Non",
      "codes_postaux": [
        {
          "code_postal": "18150",
          "libelle_acheminement": "APREMONT SUR ALLIER"
        }
      ],
      "logement": {
        "logements_total": 60,
        "residences_principales": 37,
        "logements_vacants": 8,
        "residences_secondaires": 13,
        "maisons": 58,
        "appartements": 2,
        "proprietaires": 10,
        "locataires": 23,
        "hlm": 0,
        "construits_avant_1919": 25,
        "construits_1919_1945": 5,
        "construits_1946_1970": 6,
        "construits_1971_1990": 1,
        "construits_1991_2005": 0,
        "construits_2006_2019": 0,
        "chauffage_electrique": 9,
        "chauffage_fioul": 10,
        "chauffage_gaz_ville": 0,
        "chauffage_gaz_bouteille": 4,
        "chauffage_autre": 14,
        "menages": 37,
        "logements_avant_1990": 37
      },
      "artisans": {
        "monte_escalier": 0,
        "chauffage_pac_clim": 0,
        "isolation": 0,
        "menuiserie": 0,
        "fenetres_velux": 0,
        "couverture_toiture": 0,
        "facade_peinture": 0,
        "portes_volets": 0,
        "piscine": 0,
        "vmc_ventilation": 0,
        "assainissement": 0
      },
      "revenus": {
        "revenu_median": null,
        "part_menages_imposes": null,
        "taux_pauvrete": null
      },
      "aides_etat": {
        "zone_climatique": "H1",
        "qpv": false,
        "action_coeur_de_ville": false,
        "petites_villes_de_demain": false
      }
    },
    {
      "code_insee": "18009",
      "nom": "Arcomps",
      "nom_a": null,
      "nom_de": null,
      "slug": "arcomps",
      "code_postal": "18200",
      "population": 280,
      "superficie_km2": 2059.63,
      "latitude": 46.6743,
      "longitude": 2.4197,
      "villes_proches": [
        {
          "code_insee": "18171",
          "nom": "Orcenais",
          "slug": "orcenais",
          "code_postal": "18200",
          "population": 239,
          "superficie_km2": 1886.35,
          "latitude": 46.7093,
          "longitude": 2.4155,
          "distance_km": 3.9
        },
        {
          "code_insee": "18130",
          "nom": "Loye-sur-Arnon",
          "slug": "loye-sur-arnon",
          "code_postal": "18170",
          "population": 305,
          "superficie_km2": 3463.68,
          "latitude": 46.6338,
          "longitude": 2.402,
          "distance_km": 4.7
        },
        {
          "code_insee": "18209",
          "nom": "Saint-Georges-de-Poisieux",
          "slug": "saint-georges-de-poisieux",
          "code_postal": "18200",
          "population": 430,
          "superficie_km2": 1594.16,
          "latitude": 46.6838,
          "longitude": 2.4808,
          "distance_km": 4.78
        },
        {
          "code_insee": "18034",
          "nom": "Bouzais",
          "slug": "bouzais",
          "code_postal": "18200",
          "population": 273,
          "superficie_km2": 334.16,
          "latitude": 46.7045,
          "longitude": 2.4684,
          "distance_km": 5.01
        },
        {
          "code_insee": "18093",
          "nom": "Faverdines",
          "slug": "faverdines",
          "code_postal": "18360",
          "population": 135,
          "superficie_km2": 1884.96,
          "latitude": 46.6337,
          "longitude": 2.4627,
          "distance_km": 5.58
        },
        {
          "code_insee": "18136",
          "nom": "Marçais",
          "slug": "marcais",
          "code_postal": "18170",
          "population": 308,
          "superficie_km2": 2928.75,
          "latitude": 46.7024,
          "longitude": 2.3519,
          "distance_km": 6.04
        },
        {
          "code_insee": "18010",
          "nom": "Ardenais",
          "slug": "ardenais",
          "code_postal": "18170",
          "population": 205,
          "superficie_km2": 1758.26,
          "latitude": 46.6471,
          "longitude": 2.3487,
          "distance_km": 6.21
        },
        {
          "code_insee": "18172",
          "nom": "Orval",
          "slug": "orval",
          "code_postal": "18200",
          "population": 1619,
          "superficie_km2": 765.38,
          "latitude": 46.723,
          "longitude": 2.4676,
          "distance_km": 6.53
        },
        {
          "code_insee": "18169",
          "nom": "Nozières",
          "slug": "nozieres",
          "code_postal": "18200",
          "population": 235,
          "superficie_km2": 1039.45,
          "latitude": 46.7366,
          "longitude": 2.425,
          "distance_km": 6.94
        },
        {
          "code_insee": "18107",
          "nom": "La Groutte",
          "slug": "la-groutte",
          "code_postal": "18200",
          "population": 115,
          "superficie_km2": 293.03,
          "latitude": 46.6891,
          "longitude": 2.5117,
          "distance_km": 7.21
        },
        {
          "code_insee": "18086",
          "nom": "Drevant",
          "slug": "drevant",
          "code_postal": "18200",
          "population": 555,
          "superficie_km2": 482.9,
          "latitude": 46.6977,
          "longitude": 2.5242,
          "distance_km": 8.39
        },
        {
          "code_insee": "18197",
          "nom": "Saint-Amand-Montrond",
          "slug": "saint-amand-montrond",
          "code_postal": "18200",
          "population": 9899,
          "superficie_km2": 2021.2,
          "latitude": 46.7236,
          "longitude": 2.5167,
          "distance_km": 9.21
        },
        {
          "code_insee": "18153",
          "nom": "Morlac",
          "slug": "morlac",
          "code_postal": "18170",
          "population": 269,
          "superficie_km2": 3326.06,
          "latitude": 46.7228,
          "longitude": 2.3218,
          "distance_km": 9.21
        },
        {
          "code_insee": "18041",
          "nom": "La Celette",
          "slug": "la-celette",
          "code_postal": "18360",
          "population": 205,
          "superficie_km2": 2530.3,
          "latitude": 46.6363,
          "longitude": 2.5272,
          "distance_km": 9.23
        },
        {
          "code_insee": "18091",
          "nom": "Farges-Allichamps",
          "slug": "farges-allichamps",
          "code_postal": "18200",
          "population": 256,
          "superficie_km2": 831.1,
          "latitude": 46.7601,
          "longitude": 2.4089,
          "distance_km": 9.58
        },
        {
          "code_insee": "18203",
          "nom": "Saint-Christophe-le-Chaudry",
          "slug": "saint-christophe-le-chaudry",
          "code_postal": "18270",
          "population": 95,
          "superficie_km2": 1755.84,
          "latitude": 46.5878,
          "longitude": 2.3934,
          "distance_km": 9.83
        },
        {
          "code_insee": "18245",
          "nom": "Saulzais-le-Potier",
          "slug": "saulzais-le-potier",
          "code_postal": "18360",
          "population": 472,
          "superficie_km2": 3299.68,
          "latitude": 46.5988,
          "longitude": 2.4872,
          "distance_km": 9.85
        },
        {
          "code_insee": "18270",
          "nom": "Vallenay",
          "slug": "vallenay",
          "code_postal": "18190",
          "population": 687,
          "superficie_km2": 2601.12,
          "latitude": 46.7664,
          "longitude": 2.3819,
          "distance_km": 10.64
        },
        {
          "code_insee": "18042",
          "nom": "La Celle",
          "slug": "la-celle",
          "code_postal": "18200",
          "population": 326,
          "superficie_km2": 1278.26,
          "latitude": 46.7676,
          "longitude": 2.4577,
          "distance_km": 10.77
        },
        {
          "code_insee": "18038",
          "nom": "Bruère-Allichamps",
          "slug": "bruere-allichamps",
          "code_postal": "18200",
          "population": 567,
          "superficie_km2": 1410.34,
          "latitude": 46.7737,
          "longitude": 2.4274,
          "distance_km": 11.07
        }
      ],
      "zonage_abc": "C",
      "reclassement_abc": "Non",
      "codes_postaux": [
        {
          "code_postal": "18200",
          "libelle_acheminement": "ARCOMPS"
        }
      ],
      "logement": {
        "logements_total": 176,
        "residences_principales": 139,
        "logements_vacants": 19,
        "residences_secondaires": 18,
        "maisons": 176,
        "appartements": 0,
        "proprietaires": 105,
        "locataires": 29,
        "hlm": 4,
        "construits_avant_1919": 52,
        "construits_1919_1945": 29,
        "construits_1946_1970": 15,
        "construits_1971_1990": 22,
        "construits_1991_2005": 11,
        "construits_2006_2019": 8,
        "chauffage_electrique": 27,
        "chauffage_fioul": 13,
        "chauffage_gaz_ville": 0,
        "chauffage_gaz_bouteille": 15,
        "chauffage_autre": 83,
        "menages": 139,
        "logements_avant_1990": 118
      },
      "artisans": {
        "monte_escalier": 0,
        "chauffage_pac_clim": 1,
        "isolation": 1,
        "menuiserie": 1,
        "fenetres_velux": 1,
        "couverture_toiture": 1,
        "facade_peinture": 0,
        "portes_volets": 1,
        "piscine": 1,
        "vmc_ventilation": 0,
        "assainissement": 1
      },
      "revenus": {
        "revenu_median": 20700.0,
        "part_menages_imposes": null,
        "taux_pauvrete": null
      },
      "aides_etat": {
        "zone_climatique": "H1",
        "qpv": false,
        "action_coeur_de_ville": false,
        "petites_villes_de_demain": false
      }
    },
    {
      "code_insee": "18010",
      "nom": "Ardenais",
      "nom_a": null,
      "nom_de": null,
      "slug": "ardenais",
      "code_postal": "18170",
      "population": 205,
      "superficie_km2": 1758.26,
      "latitude": 46.6471,
      "longitude": 2.3487,
      "villes_proches": [
        {
          "code_insee": "18130",
          "nom": "Loye-sur-Arnon",
          "slug": "loye-sur-arnon",
          "code_postal": "18170",
          "population": 305,
          "superficie_km2": 3463.68,
          "latitude": 46.6338,
          "longitude": 2.402,
          "distance_km": 4.33
        },
        {
          "code_insee": "18059",
          "nom": "Le Châtelet",
          "slug": "le-chatelet",
          "code_postal": "18170",
          "population": 920,
          "superficie_km2": 3267.48,
          "latitude": 46.6265,
          "longitude": 2.2942,
          "distance_km": 4.75
        },
        {
          "code_insee": "18230",
          "nom": "Saint-Pierre-les-Bois",
          "slug": "saint-pierre-les-bois",
          "code_postal": "18170",
          "population": 261,
          "superficie_km2": 2071.03,
          "latitude": 46.672,
          "longitude": 2.2822,
          "distance_km": 5.78
        },
        {
          "code_insee": "18136",
          "nom": "Marçais",
          "slug": "marcais",
          "code_postal": "18170",
          "population": 308,
          "superficie_km2": 2928.75,
          "latitude": 46.7024,
          "longitude": 2.3519,
          "distance_km": 6.15
        },
        {
          "code_insee": "18009",
          "nom": "Arcomps",
          "slug": "arcomps",
          "code_postal": "18200",
          "population": 280,
          "superficie_km2": 2059.63,
          "latitude": 46.6743,
          "longitude": 2.4197,
          "distance_km": 6.21
        },
        {
          "code_insee": "18192",
          "nom": "Reigny",
          "slug": "reigny",
          "code_postal": "18270",
          "population": 234,
          "superficie_km2": 2451.64,
          "latitude": 46.5875,
          "longitude": 2.3388,
          "distance_km": 6.67
        },
        {
          "code_insee": "18203",
          "nom": "Saint-Christophe-le-Chaudry",
          "slug": "saint-christophe-le-chaudry",
          "code_postal": "18270",
          "population": 95,
          "superficie_km2": 1755.84,
          "latitude": 46.5878,
          "longitude": 2.3934,
          "distance_km": 7.43
        },
        {
          "code_insee": "18171",
          "nom": "Orcenais",
          "slug": "orcenais",
          "code_postal": "18200",
          "population": 239,
          "superficie_km2": 1886.35,
          "latitude": 46.7093,
          "longitude": 2.4155,
          "distance_km": 8.59
        },
        {
          "code_insee": "18153",
          "nom": "Morlac",
          "slug": "morlac",
          "code_postal": "18170",
          "population": 269,
          "superficie_km2": 3326.06,
          "latitude": 46.7228,
          "longitude": 2.3218,
          "distance_km": 8.66
        },
        {
          "code_insee": "18093",
          "nom": "Faverdines",
          "slug": "faverdines",
          "code_postal": "18360",
          "population": 135,
          "superficie_km2": 1884.96,
          "latitude": 46.6337,
          "longitude": 2.4627,
          "distance_km": 8.83
        },
        {
          "code_insee": "18135",
          "nom": "Maisonnais",
          "slug": "maisonnais",
          "code_postal": "18170",
          "population": 227,
          "superficie_km2": 2693.34,
          "latitude": 46.6484,
          "longitude": 2.2251,
          "distance_km": 9.44
        },
        {
          "code_insee": "18217",
          "nom": "Saint-Jeanvrin",
          "slug": "saint-jeanvrin",
          "code_postal": "18370",
          "population": 169,
          "superficie_km2": 1791.47,
          "latitude": 46.6004,
          "longitude": 2.2396,
          "distance_km": 9.82
        },
        {
          "code_insee": "18225",
          "nom": "Saint-Maur",
          "slug": "saint-maur",
          "code_postal": "18270",
          "population": 253,
          "superficie_km2": 2610.14,
          "latitude": 46.5678,
          "longitude": 2.2864,
          "distance_km": 10.02
        },
        {
          "code_insee": "18112",
          "nom": "Ids-Saint-Roch",
          "slug": "ids-saint-roch",
          "code_postal": "18170",
          "population": 295,
          "superficie_km2": 2783.43,
          "latitude": 46.7153,
          "longitude": 2.2558,
          "distance_km": 10.38
        },
        {
          "code_insee": "18034",
          "nom": "Bouzais",
          "slug": "bouzais",
          "code_postal": "18200",
          "population": 273,
          "superficie_km2": 334.16,
          "latitude": 46.7045,
          "longitude": 2.4684,
          "distance_km": 11.14
        },
        {
          "code_insee": "18169",
          "nom": "Nozières",
          "slug": "nozieres",
          "code_postal": "18200",
          "population": 235,
          "superficie_km2": 1039.45,
          "latitude": 46.7366,
          "longitude": 2.425,
          "distance_km": 11.53
        },
        {
          "code_insee": "18083",
          "nom": "Culan",
          "slug": "culan",
          "code_postal": "18270",
          "population": 779,
          "superficie_km2": 2016.95,
          "latitude": 46.5419,
          "longitude": 2.3534,
          "distance_km": 11.7
        },
        {
          "code_insee": "18278",
          "nom": "Vesdun",
          "slug": "vesdun",
          "code_postal": "18360",
          "population": 540,
          "superficie_km2": 4994.38,
          "latitude": 46.5594,
          "longitude": 2.4345,
          "distance_km": 11.75
        },
        {
          "code_insee": "18091",
          "nom": "Farges-Allichamps",
          "slug": "farges-allichamps",
          "code_postal": "18200",
          "population": 256,
          "superficie_km2": 831.1,
          "latitude": 46.7601,
          "longitude": 2.4089,
          "distance_km": 13.38
        },
        {
          "code_insee": "18270",
          "nom": "Vallenay",
          "slug": "vallenay",
          "code_postal": "18190",
          "population": 687,
          "superficie_km2": 2601.12,
          "latitude": 46.7664,
          "longitude": 2.3819,
          "distance_km": 13.5
        }
      ],
      "zonage_abc": "C",
      "reclassement_abc": "Non",
      "codes_postaux": [
        {
          "code_postal": "18170",
          "libelle_acheminement": "ARDENAIS"
        }
      ],
      "logement": {
        "logements_total": 122,
        "residences_principales": 89,
        "logements_vacants": 10,
        "residences_secondaires": 23,
        "maisons": 122,
        "appartements": 0,
        "proprietaires": 71,
        "locataires": 11,
        "hlm": 0,
        "construits_avant_1919": 30,
        "construits_1919_1945": 15,
        "construits_1946_1970": 9,
        "construits_1971_1990": 11,
        "construits_1991_2005": 7,
        "construits_2006_2019": 11,
        "chauffage_electrique": 11,
        "chauffage_fioul": 4,
        "chauffage_gaz_ville": 1,
        "chauffage_gaz_bouteille": 2,
        "chauffage_autre": 67,
        "menages": 89,
        "logements_avant_1990": 65
      },
      "artisans": {
        "monte_escalier": 0,
        "chauffage_pac_clim": 0,
        "isolation": 1,
        "menuiserie": 0,
        "fenetres_velux": 0,
        "couverture_toiture": 0,
        "facade_peinture": 0,
        "portes_volets": 0,
        "piscine": 0,
        "vmc_ventilation": 0,
        "assainissement": 0
      },
      "revenus": {
        "revenu_median": 21290.0,
        "part_menages_imposes": null,
        "taux_pauvrete": null
      },
      "aides_etat": {
        "zone_climatique": "H1",
        "qpv": false,
        "action_coeur_de_ville": false,
        "petites_villes_de_demain": false
      }
    },
    {
      "code_insee": "18011",
      "nom": "Argent-sur-Sauldre",
      "nom_a": null,
      "nom_de": null,
      "slug": "argent-sur-sauldre",
      "code_postal": "18410",
      "population": 2057,
      "superficie_km2": 68.0,
      "latitude": 47.5629997,
      "longitude": 2.4300001,
      "villes_proches": [
        {
          "code_insee": "45108",
          "nom": "Coullons",
          "slug": "coullons",
          "code_postal": "45720",
          "population": 2274,
          "superficie_km2": 81.0,
          "latitude": 47.618,
          "longitude": 2.506,
          "distance_km": 8.36
        },
        {
          "code_insee": "18015",
          "nom": "Aubigny-sur-Nère",
          "slug": "aubigny-sur-nere",
          "code_postal": "18700",
          "population": 5476,
          "superficie_km2": 62.0,
          "latitude": 47.4860001,
          "longitude": 2.421,
          "distance_km": 8.59
        },
        {
          "code_insee": "18030",
          "nom": "Blancafort",
          "slug": "blancafort",
          "code_postal": "18410",
          "population": 1005,
          "superficie_km2": 65.0,
          "latitude": 47.5349999,
          "longitude": 2.5420001,
          "distance_km": 8.96
        },
        {
          "code_insee": "45280",
          "nom": "Saint-Gondon",
          "slug": "saint-gondon",
          "code_postal": "45500",
          "population": 1063,
          "superficie_km2": 24.0,
          "latitude": 47.6879997,
          "longitude": 2.54,
          "distance_km": 16.16
        },
        {
          "code_insee": "45254",
          "nom": "Poilly-lez-Gien",
          "slug": "poilly-lez-gien",
          "code_postal": "45500",
          "population": 2441,
          "superficie_km2": 33.0,
          "latitude": 47.6599999,
          "longitude": 2.5940001,
          "distance_km": 16.35
        },
        {
          "code_insee": "45291",
          "nom": "Saint-Martin-sur-Ocre",
          "slug": "saint-martin-sur-ocre",
          "code_postal": "45500",
          "population": 1227,
          "superficie_km2": 16.0,
          "latitude": 47.6469994,
          "longitude": 2.6440001,
          "distance_km": 18.56
        },
        {
          "code_insee": "45315",
          "nom": "Sully-sur-Loire",
          "slug": "sully-sur-loire",
          "code_postal": "45600",
          "population": 5161,
          "superficie_km2": 44.0,
          "latitude": 47.7529984,
          "longitude": 2.3559999,
          "distance_km": 21.84
        },
        {
          "code_insee": "45227",
          "nom": "Nevoy",
          "slug": "nevoy",
          "code_postal": "45500",
          "population": 1156,
          "superficie_km2": 31.0,
          "latitude": 47.7330017,
          "longitude": 2.592,
          "distance_km": 22.46
        },
        {
          "code_insee": "41249",
          "nom": "Souesmes",
          "slug": "souesmes",
          "code_postal": "41300",
          "population": 1028,
          "superficie_km2": 100.0,
          "latitude": 47.4570007,
          "longitude": 2.171,
          "distance_km": 22.75
        },
        {
          "code_insee": "45087",
          "nom": "Châtillon-sur-Loire",
          "slug": "chatillon-sur-loire",
          "code_postal": "45360",
          "population": 3126,
          "superficie_km2": 40.0,
          "latitude": 47.5719986,
          "longitude": 2.7360001,
          "distance_km": 22.98
        },
        {
          "code_insee": "45122",
          "nom": "Dampierre-en-Burly",
          "slug": "dampierre-en-burly",
          "code_postal": "45570",
          "population": 1431,
          "superficie_km2": 48.0,
          "latitude": 47.7610016,
          "longitude": 2.543,
          "distance_km": 23.59
        },
        {
          "code_insee": "45155",
          "nom": "Gien",
          "slug": "gien",
          "code_postal": "45500",
          "population": 13387,
          "superficie_km2": 68.0,
          "latitude": 47.7120018,
          "longitude": 2.6659999,
          "distance_km": 24.23
        },
        {
          "code_insee": "45297",
          "nom": "Saint-Père-sur-Loire",
          "slug": "saint-pere-sur-loire",
          "code_postal": "45600",
          "population": 1025,
          "superficie_km2": 11.0,
          "latitude": 47.7809982,
          "longitude": 2.3729999,
          "distance_km": 24.61
        },
        {
          "code_insee": "45244",
          "nom": "Ouzouer-sur-Loire",
          "slug": "ouzouer-sur-loire",
          "code_postal": "45570",
          "population": 2572,
          "superficie_km2": 36.0,
          "latitude": 47.7840004,
          "longitude": 2.477,
          "distance_km": 24.82
        },
        {
          "code_insee": "45053",
          "nom": "Briare",
          "slug": "briare",
          "code_postal": "45250",
          "population": 5113,
          "superficie_km2": 45.0,
          "latitude": 47.6450005,
          "longitude": 2.7449999,
          "distance_km": 25.32
        },
        {
          "code_insee": "45226",
          "nom": "Neuvy-en-Sullias",
          "slug": "neuvy-en-sullias",
          "code_postal": "45510",
          "population": 1366,
          "superficie_km2": 25.0,
          "latitude": 47.7750015,
          "longitude": 2.243,
          "distance_km": 27.42
        },
        {
          "code_insee": "45042",
          "nom": "Les Bordes",
          "slug": "les-bordes",
          "code_postal": "45460",
          "population": 1871,
          "superficie_km2": 24.0,
          "latitude": 47.8160019,
          "longitude": 2.437,
          "distance_km": 28.14
        },
        {
          "code_insee": "45029",
          "nom": "Beaulieu-sur-Loire",
          "slug": "beaulieu-sur-loire",
          "code_postal": "45630",
          "population": 1767,
          "superficie_km2": 49.0,
          "latitude": 47.5349999,
          "longitude": 2.803,
          "distance_km": 28.17
        },
        {
          "code_insee": "45270",
          "nom": "Saint-Benoît-sur-Loire",
          "slug": "saint-benoit-sur-loire",
          "code_postal": "45730",
          "population": 2005,
          "superficie_km2": 20.0,
          "latitude": 47.8089981,
          "longitude": 2.3169999,
          "distance_km": 28.63
        },
        {
          "code_insee": "18165",
          "nom": "Neuvy-sur-Barangeon",
          "slug": "neuvy-sur-barangeon",
          "code_postal": "18330",
          "population": 1101,
          "superficie_km2": 67.0,
          "latitude": 47.3219986,
          "longitude": 2.2709999,
          "distance_km": 29.34
        }
      ],
      "zonage_abc": "C",
      "reclassement_abc": "Non",
      "codes_postaux": [
        {
          "code_postal": "18410",
          "libelle_acheminement": "ARGENT SUR SAULDRE"
        }
      ],
      "logement": {
        "logements_total": 1302,
        "residences_principales": 1008,
        "logements_vacants": 159,
        "residences_secondaires": 134,
        "maisons": 1217,
        "appartements": 80,
        "proprietaires": 713,
        "locataires": 281,
        "hlm": 125,
        "construits_avant_1919": 145,
        "construits_1919_1945": 123,
        "construits_1946_1970": 226,
        "construits_1971_1990": 328,
        "construits_1991_2005": 75,
        "construits_2006_2019": 101,
        "chauffage_electrique": 385,
        "chauffage_fioul": 131,
        "chauffage_gaz_ville": 273,
        "chauffage_gaz_bouteille": 8,
        "chauffage_autre": 209,
        "menages": 1008,
        "logements_avant_1990": 822
      },
      "artisans": {
        "monte_escalier": 0,
        "chauffage_pac_clim": 1,
        "isolation": 2,
        "menuiserie": 3,
        "fenetres_velux": 3,
        "couverture_toiture": 2,
        "facade_peinture": 2,
        "portes_volets": 3,
        "piscine": 3,
        "vmc_ventilation": 0,
        "assainissement": 1
      },
      "revenus": {
        "revenu_median": 21420.0,
        "part_menages_imposes": 44.0,
        "taux_pauvrete": 11.0
      },
      "aides_etat": {
        "zone_climatique": "H1",
        "qpv": false,
        "action_coeur_de_ville": false,
        "petites_villes_de_demain": false
      }
    },
    {
      "code_insee": "18012",
      "nom": "Argenvières",
      "nom_a": null,
      "nom_de": null,
      "slug": "argenvieres",
      "code_postal": "18140",
      "population": 448,
      "superficie_km2": 1486.5,
      "latitude": 47.1406,
      "longitude": 2.9929,
      "villes_proches": [
        {
          "code_insee": "18220",
          "nom": "Saint-Léger-le-Petit",
          "slug": "saint-leger-le-petit",
          "code_postal": "18140",
          "population": 362,
          "superficie_km2": 1005.02,
          "latitude": 47.1151,
          "longitude": 2.9986,
          "distance_km": 2.87
        },
        {
          "code_insee": "58155",
          "nom": "La Marche",
          "slug": "la-marche",
          "code_postal": "58400",
          "population": 509,
          "superficie_km2": 1084.18,
          "latitude": 47.148,
          "longitude": 3.0453,
          "distance_km": 4.05
        },
        {
          "code_insee": "18049",
          "nom": "La Chapelle-Montlinard",
          "slug": "la-chapelle-montlinard",
          "code_postal": "18140",
          "population": 491,
          "superficie_km2": 1701.6,
          "latitude": 47.1807,
          "longitude": 2.9855,
          "distance_km": 4.49
        },
        {
          "code_insee": "18120",
          "nom": "Jussy-le-Chaudrier",
          "slug": "jussy-le-chaudrier",
          "code_postal": "18140",
          "population": 579,
          "superficie_km2": 2561.19,
          "latitude": 47.1181,
          "longitude": 2.934,
          "distance_km": 5.11
        },
        {
          "code_insee": "58298",
          "nom": "Tronsanges",
          "slug": "tronsanges",
          "code_postal": "58400",
          "population": 392,
          "superficie_km2": 874.18,
          "latitude": 47.1149,
          "longitude": 3.0515,
          "distance_km": 5.27
        },
        {
          "code_insee": "18025",
          "nom": "Beffes",
          "slug": "beffes",
          "code_postal": "18320",
          "population": 602,
          "superficie_km2": 1181.85,
          "latitude": 47.0931,
          "longitude": 2.9991,
          "distance_km": 5.3
        },
        {
          "code_insee": "58059",
          "nom": "La Charité-sur-Loire",
          "slug": "la-charite-sur-loire",
          "code_postal": "58400",
          "population": 4705,
          "superficie_km2": 1582.66,
          "latitude": 47.183,
          "longitude": 3.0291,
          "distance_km": 5.45
        },
        {
          "code_insee": "18224",
          "nom": "Saint-Martin-des-Champs",
          "slug": "saint-martin-des-champs",
          "code_postal": "18140",
          "population": 307,
          "superficie_km2": 1891.73,
          "latitude": 47.1717,
          "longitude": 2.9339,
          "distance_km": 5.64
        },
        {
          "code_insee": "58056",
          "nom": "Champvoux",
          "slug": "champvoux",
          "code_postal": "58400",
          "population": 282,
          "superficie_km2": 1080.01,
          "latitude": 47.1459,
          "longitude": 3.0718,
          "distance_km": 6.0
        },
        {
          "code_insee": "18184",
          "nom": "Précy",
          "slug": "precy",
          "code_postal": "18140",
          "population": 353,
          "superficie_km2": 1469.77,
          "latitude": 47.0927,
          "longitude": 2.9353,
          "distance_km": 6.88
        },
        {
          "code_insee": "18240",
          "nom": "Sancergues",
          "slug": "sancergues",
          "code_postal": "18140",
          "population": 620,
          "superficie_km2": 1564.67,
          "latitude": 47.1624,
          "longitude": 2.9047,
          "distance_km": 7.1
        },
        {
          "code_insee": "18139",
          "nom": "Marseilles-lès-Aubigny",
          "slug": "marseilles-les-aubigny",
          "code_postal": "18320",
          "population": 645,
          "superficie_km2": 987.84,
          "latitude": 47.07,
          "longitude": 2.9895,
          "distance_km": 7.85
        },
        {
          "code_insee": "58124",
          "nom": "Germigny-sur-Loire",
          "slug": "germigny-sur-loire",
          "code_postal": "58320",
          "population": 738,
          "superficie_km2": 1888.84,
          "latitude": 47.0762,
          "longitude": 3.0479,
          "distance_km": 8.28
        },
        {
          "code_insee": "58067",
          "nom": "Chaulgnes",
          "slug": "chaulgnes",
          "code_postal": "58400",
          "population": 1500,
          "superficie_km2": 2535.01,
          "latitude": 47.1242,
          "longitude": 3.1104,
          "distance_km": 9.07
        },
        {
          "code_insee": "58302",
          "nom": "Varennes-lès-Narcy",
          "slug": "varennes-les-narcy",
          "code_postal": "58400",
          "population": 901,
          "superficie_km2": 1852.13,
          "latitude": 47.2164,
          "longitude": 3.0689,
          "distance_km": 10.2
        },
        {
          "code_insee": "58164",
          "nom": "Mesves-sur-Loire",
          "slug": "mesves-sur-loire",
          "code_postal": "58400",
          "population": 662,
          "superficie_km2": 1894.23,
          "latitude": 47.2329,
          "longitude": 3.0089,
          "distance_km": 10.33
        },
        {
          "code_insee": "18110",
          "nom": "Herry",
          "slug": "herry",
          "code_postal": "18140",
          "population": 958,
          "superficie_km2": 4997.82,
          "latitude": 47.2285,
          "longitude": 2.9409,
          "distance_km": 10.53
        },
        {
          "code_insee": "18118",
          "nom": "Jouet-sur-l'Aubois",
          "slug": "jouet-sur-l-aubois",
          "code_postal": "18320",
          "population": 1303,
          "superficie_km2": 1735.68,
          "latitude": 47.0454,
          "longitude": 3.0061,
          "distance_km": 10.63
        },
        {
          "code_insee": "58042",
          "nom": "Bulcy",
          "slug": "bulcy",
          "code_postal": "58400",
          "population": 146,
          "superficie_km2": 846.8,
          "latitude": 47.2405,
          "longitude": 3.0271,
          "distance_km": 11.41
        },
        {
          "code_insee": "18143",
          "nom": "Menetou-Couture",
          "slug": "menetou-couture",
          "code_postal": "18320",
          "population": 343,
          "superficie_km2": 2988.95,
          "latitude": 47.0361,
          "longitude": 2.9368,
          "distance_km": 12.37
        }
      ],
      "zonage_abc": "C",
      "reclassement_abc": "Non",
      "codes_postaux": [
        {
          "code_postal": "18140",
          "libelle_acheminement": "ARGENVIERES"
        }
      ],
      "logement": {
        "logements_total": 269,
        "residences_principales": 208,
        "logements_vacants": 29,
        "residences_secondaires": 31,
        "maisons": 268,
        "appartements": 1,
        "proprietaires": 163,
        "locataires": 34,
        "hlm": 4,
        "construits_avant_1919": 49,
        "construits_1919_1945": 19,
        "construits_1946_1970": 35,
        "construits_1971_1990": 51,
        "construits_1991_2005": 31,
        "construits_2006_2019": 21,
        "chauffage_electrique": 63,
        "chauffage_fioul": 65,
        "chauffage_gaz_ville": 0,
        "chauffage_gaz_bouteille": 7,
        "chauffage_autre": 72,
        "menages": 208,
        "logements_avant_1990": 154
      },
      "artisans": {
        "monte_escalier": 0,
        "chauffage_pac_clim": 0,
        "isolation": 0,
        "menuiserie": 0,
        "fenetres_velux": 0,
        "couverture_toiture": 0,
        "facade_peinture": 1,
        "portes_volets": 0,
        "piscine": 0,
        "vmc_ventilation": 0,
        "assainissement": 0
      },
      "revenus": {
        "revenu_median": 21820.0,
        "part_menages_imposes": null,
        "taux_pauvrete": null
      },
      "aides_etat": {
        "zone_climatique": "H1",
        "qpv": false,
        "action_coeur_de_ville": false,
        "petites_villes_de_demain": false
      }
    },
    {
      "code_insee": "18013",
      "nom": "Arpheuilles",
      "nom_a": null,
      "nom_de": null,
      "slug": "arpheuilles",
      "code_postal": "18200",
      "population": 299,
      "superficie_km2": 4800.05,
      "latitude": 46.7887,
      "longitude": 2.5726,
      "villes_proches": [
        {
          "code_insee": "18277",
          "nom": "Verneuil",
          "slug": "verneuil",
          "code_postal": "18210",
          "population": 34,
          "superficie_km2": 1131.93,
          "latitude": 46.8227,
          "longitude": 2.5992,
          "distance_km": 4.29
        },
        {
          "code_insee": "18142",
          "nom": "Meillant",
          "slug": "meillant",
          "code_postal": "18200",
          "population": 645,
          "superficie_km2": 4156.17,
          "latitude": 46.7897,
          "longitude": 2.506,
          "distance_km": 5.07
        },
        {
          "code_insee": "18183",
          "nom": "Le Pondy",
          "slug": "le-pondy",
          "code_postal": "18210",
          "population": 147,
          "superficie_km2": 661.49,
          "latitude": 46.8009,
          "longitude": 2.6422,
          "distance_km": 5.47
        },
        {
          "code_insee": "18231",
          "nom": "Saint-Pierre-les-Étieux",
          "slug": "saint-pierre-les-etieux",
          "code_postal": "18210",
          "population": 729,
          "superficie_km2": 2789.27,
          "latitude": 46.738,
          "longitude": 2.5944,
          "distance_km": 5.88
        },
        {
          "code_insee": "18177",
          "nom": "Parnay",
          "slug": "parnay",
          "code_postal": "18130",
          "population": 49,
          "superficie_km2": 1742.52,
          "latitude": 46.8537,
          "longitude": 2.5559,
          "distance_km": 7.34
        },
        {
          "code_insee": "18261",
          "nom": "Thaumiers",
          "slug": "thaumiers",
          "code_postal": "18210",
          "population": 387,
          "superficie_km2": 2769.15,
          "latitude": 46.8185,
          "longitude": 2.6625,
          "distance_km": 7.6
        },
        {
          "code_insee": "18197",
          "nom": "Saint-Amand-Montrond",
          "slug": "saint-amand-montrond",
          "code_postal": "18200",
          "population": 9899,
          "superficie_km2": 2021.2,
          "latitude": 46.7236,
          "longitude": 2.5167,
          "distance_km": 8.4
        },
        {
          "code_insee": "18052",
          "nom": "Charenton-du-Cher",
          "slug": "charenton-du-cher",
          "code_postal": "18210",
          "population": 984,
          "superficie_km2": 4888.19,
          "latitude": 46.741,
          "longitude": 2.6582,
          "distance_km": 8.4
        },
        {
          "code_insee": "18268",
          "nom": "Uzay-le-Venon",
          "slug": "uzay-le-venon",
          "code_postal": "18190",
          "population": 414,
          "superficie_km2": 3535.28,
          "latitude": 46.8229,
          "longitude": 2.4705,
          "distance_km": 8.65
        },
        {
          "code_insee": "18068",
          "nom": "Cogny",
          "slug": "cogny",
          "code_postal": "18130",
          "population": 31,
          "superficie_km2": 1696.7,
          "latitude": 46.8498,
          "longitude": 2.6501,
          "distance_km": 9.0
        },
        {
          "code_insee": "18042",
          "nom": "La Celle",
          "slug": "la-celle",
          "code_postal": "18200",
          "population": 326,
          "superficie_km2": 1278.26,
          "latitude": 46.7676,
          "longitude": 2.4577,
          "distance_km": 9.06
        },
        {
          "code_insee": "18071",
          "nom": "Contres",
          "slug": "contres",
          "code_postal": "18130",
          "population": 35,
          "superficie_km2": 1599.33,
          "latitude": 46.8603,
          "longitude": 2.4956,
          "distance_km": 9.88
        },
        {
          "code_insee": "18069",
          "nom": "Colombiers",
          "slug": "colombiers",
          "code_postal": "18200",
          "population": 409,
          "superficie_km2": 966.78,
          "latitude": 46.6983,
          "longitude": 2.5584,
          "distance_km": 10.11
        },
        {
          "code_insee": "18086",
          "nom": "Drevant",
          "slug": "drevant",
          "code_postal": "18200",
          "population": 555,
          "superficie_km2": 482.9,
          "latitude": 46.6977,
          "longitude": 2.5242,
          "distance_km": 10.77
        },
        {
          "code_insee": "18172",
          "nom": "Orval",
          "slug": "orval",
          "code_postal": "18200",
          "population": 1619,
          "superficie_km2": 765.38,
          "latitude": 46.723,
          "longitude": 2.4676,
          "distance_km": 10.83
        },
        {
          "code_insee": "18087",
          "nom": "Dun-sur-Auron",
          "slug": "dun-sur-auron",
          "code_postal": "18130",
          "population": 3524,
          "superficie_km2": 4997.8,
          "latitude": 46.8918,
          "longitude": 2.5538,
          "distance_km": 11.55
        },
        {
          "code_insee": "18076",
          "nom": "Coust",
          "slug": "coust",
          "code_postal": "18210",
          "population": 415,
          "superficie_km2": 2218.54,
          "latitude": 46.685,
          "longitude": 2.5956,
          "distance_km": 11.66
        },
        {
          "code_insee": "18107",
          "nom": "La Groutte",
          "slug": "la-groutte",
          "code_postal": "18200",
          "population": 115,
          "superficie_km2": 293.03,
          "latitude": 46.6891,
          "longitude": 2.5117,
          "distance_km": 12.01
        },
        {
          "code_insee": "18040",
          "nom": "Bussy",
          "slug": "bussy",
          "code_postal": "18130",
          "population": 354,
          "superficie_km2": 2695.54,
          "latitude": 46.9001,
          "longitude": 2.6223,
          "distance_km": 12.95
        },
        {
          "code_insee": "03143",
          "nom": "Lételon",
          "slug": "letelon",
          "code_postal": "03360",
          "population": 93,
          "superficie_km2": 631.35,
          "latitude": 46.6582,
          "longitude": 2.5954,
          "distance_km": 14.61
        }
      ],
      "zonage_abc": "C",
      "reclassement_abc": "Non",
      "codes_postaux": [
        {
          "code_postal": "18200",
          "libelle_acheminement": "ARPHEUILLES"
        }
      ],
      "logement": {
        "logements_total": 175,
        "residences_principales": 146,
        "logements_vacants": 14,
        "residences_secondaires": 15,
        "maisons": 173,
        "appartements": 2,
        "proprietaires": 133,
        "locataires": 12,
        "hlm": 2,
        "construits_avant_1919": 63,
        "construits_1919_1945": 12,
        "construits_1946_1970": 10,
        "construits_1971_1990": 43,
        "construits_1991_2005": 8,
        "construits_2006_2019": 8,
        "chauffage_electrique": 32,
        "chauffage_fioul": 22,
        "chauffage_gaz_ville": 0,
        "chauffage_gaz_bouteille": 12,
        "chauffage_autre": 79,
        "menages": 146,
        "logements_avant_1990": 128
      },
      "artisans": {
        "monte_escalier": 0,
        "chauffage_pac_clim": 0,
        "isolation": 1,
        "menuiserie": 0,
        "fenetres_velux": 0,
        "couverture_toiture": 1,
        "facade_peinture": 0,
        "portes_volets": 0,
        "piscine": 1,
        "vmc_ventilation": 0,
        "assainissement": 0
      },
      "revenus": {
        "revenu_median": 21530.0,
        "part_menages_imposes": null,
        "taux_pauvrete": null
      },
      "aides_etat": {
        "zone_climatique": "H1",
        "qpv": false,
        "action_coeur_de_ville": false,
        "petites_villes_de_demain": false
      }
    },
    {
      "code_insee": "18008",
      "nom": "Arçay",
      "nom_a": null,
      "nom_de": null,
      "slug": "arcay",
      "code_postal": "18340",
      "population": 500,
      "superficie_km2": 1843.22,
      "latitude": 46.9638,
      "longitude": 2.3365,
      "villes_proches": [
        {
          "code_insee": "18201",
          "nom": "Saint-Caprais",
          "slug": "saint-caprais",
          "code_postal": "18400",
          "population": 747,
          "superficie_km2": 1457.24,
          "latitude": 46.9671,
          "longitude": 2.2917,
          "distance_km": 3.42
        },
        {
          "code_insee": "18129",
          "nom": "Lissay-Lochy",
          "slug": "lissay-lochy",
          "code_postal": "18340",
          "population": 231,
          "superficie_km2": 2253.93,
          "latitude": 46.975,
          "longitude": 2.3915,
          "distance_km": 4.36
        },
        {
          "code_insee": "18126",
          "nom": "Levet",
          "slug": "levet",
          "code_postal": "18340",
          "population": 1357,
          "superficie_km2": 2599.52,
          "latitude": 46.9278,
          "longitude": 2.3913,
          "distance_km": 5.77
        },
        {
          "code_insee": "18122",
          "nom": "Lapan",
          "slug": "lapan",
          "code_postal": "18340",
          "population": 229,
          "superficie_km2": 1064.04,
          "latitude": 46.921,
          "longitude": 2.288,
          "distance_km": 6.02
        },
        {
          "code_insee": "18255",
          "nom": "Le Subdray",
          "slug": "le-subdray",
          "code_postal": "18570",
          "population": 967,
          "superficie_km2": 2052.41,
          "latitude": 47.0187,
          "longitude": 2.3039,
          "distance_km": 6.59
        },
        {
          "code_insee": "18133",
          "nom": "Lunery",
          "slug": "lunery",
          "code_postal": "18400",
          "population": 1486,
          "superficie_km2": 3287.33,
          "latitude": 46.9352,
          "longitude": 2.2587,
          "distance_km": 6.71
        },
        {
          "code_insee": "18207",
          "nom": "Saint-Florent-sur-Cher",
          "slug": "saint-florent-sur-cher",
          "code_postal": "18400",
          "population": 6463,
          "superficie_km2": 2248.09,
          "latitude": 46.9921,
          "longitude": 2.2537,
          "distance_km": 7.03
        },
        {
          "code_insee": "18073",
          "nom": "Corquoy",
          "slug": "corquoy",
          "code_postal": "18190",
          "population": 198,
          "superficie_km2": 3681.44,
          "latitude": 46.9,
          "longitude": 2.3189,
          "distance_km": 7.22
        },
        {
          "code_insee": "18267",
          "nom": "Trouy",
          "slug": "trouy",
          "code_postal": "18570",
          "population": 4055,
          "superficie_km2": 2348.6,
          "latitude": 47.0273,
          "longitude": 2.3618,
          "distance_km": 7.32
        },
        {
          "code_insee": "18248",
          "nom": "Senneçay",
          "slug": "sennecay",
          "code_postal": "18340",
          "population": 443,
          "superficie_km2": 1459.48,
          "latitude": 46.9467,
          "longitude": 2.4436,
          "distance_km": 8.35
        },
        {
          "code_insee": "18180",
          "nom": "Plaimpied-Givaudins",
          "slug": "plaimpied-givaudins",
          "code_postal": "18340",
          "population": 2101,
          "superficie_km2": 4107.63,
          "latitude": 47.0116,
          "longitude": 2.445,
          "distance_km": 9.8
        },
        {
          "code_insee": "18250",
          "nom": "Serruelles",
          "slug": "serruelles",
          "code_postal": "18190",
          "population": 66,
          "superficie_km2": 757.72,
          "latitude": 46.8809,
          "longitude": 2.3828,
          "distance_km": 9.87
        },
        {
          "code_insee": "18157",
          "nom": "Morthomiers",
          "slug": "morthomiers",
          "code_postal": "18570",
          "population": 845,
          "superficie_km2": 1473.89,
          "latitude": 47.0407,
          "longitude": 2.2705,
          "distance_km": 9.91
        },
        {
          "code_insee": "18050",
          "nom": "La Chapelle-Saint-Ursin",
          "slug": "la-chapelle-saint-ursin",
          "code_postal": "18570",
          "population": 3681,
          "superficie_km2": 786.44,
          "latitude": 47.0546,
          "longitude": 2.3211,
          "distance_km": 10.16
        },
        {
          "code_insee": "18058",
          "nom": "Châteauneuf-sur-Cher",
          "slug": "chateauneuf-sur-cher",
          "code_postal": "18190",
          "population": 1360,
          "superficie_km2": 2189.34,
          "latitude": 46.8681,
          "longitude": 2.3394,
          "distance_km": 10.64
        },
        {
          "code_insee": "18285",
          "nom": "Villeneuve-sur-Cher",
          "slug": "villeneuve-sur-cher",
          "code_postal": "18400",
          "population": 402,
          "superficie_km2": 2654.36,
          "latitude": 47.0285,
          "longitude": 2.2227,
          "distance_km": 11.24
        },
        {
          "code_insee": "18063",
          "nom": "Chavannes",
          "slug": "chavannes",
          "code_postal": "18190",
          "population": 151,
          "superficie_km2": 2409.9,
          "latitude": 46.865,
          "longitude": 2.3995,
          "distance_km": 11.98
        },
        {
          "code_insee": "18212",
          "nom": "Saint-Germain-des-Bois",
          "slug": "saint-germain-des-bois",
          "code_postal": "18340",
          "population": 587,
          "superficie_km2": 2909.55,
          "latitude": 46.8858,
          "longitude": 2.4496,
          "distance_km": 12.21
        },
        {
          "code_insee": "18273",
          "nom": "Venesmes",
          "slug": "venesmes",
          "code_postal": "18190",
          "population": 782,
          "superficie_km2": 3188.13,
          "latitude": 46.8496,
          "longitude": 2.2887,
          "distance_km": 13.21
        },
        {
          "code_insee": "18033",
          "nom": "Bourges",
          "slug": "bourges",
          "code_postal": "18000",
          "population": 64186,
          "superficie_km2": 6865.41,
          "latitude": 47.078,
          "longitude": 2.3983,
          "distance_km": 13.54
        }
      ],
      "zonage_abc": "B2",
      "reclassement_abc": "Non",
      "codes_postaux": [
        {
          "code_postal": "18340",
          "libelle_acheminement": "ARCAY"
        }
      ],
      "logement": {
        "logements_total": 230,
        "residences_principales": 207,
        "logements_vacants": 13,
        "residences_secondaires": 10,
        "maisons": 228,
        "appartements": 1,
        "proprietaires": 196,
        "locataires": 10,
        "hlm": 2,
        "construits_avant_1919": 36,
        "construits_1919_1945": 11,
        "construits_1946_1970": 15,
        "construits_1971_1990": 70,
        "construits_1991_2005": 30,
        "construits_2006_2019": 42,
        "chauffage_electrique": 72,
        "chauffage_fioul": 37,
        "chauffage_gaz_ville": 4,
        "chauffage_gaz_bouteille": 8,
        "chauffage_autre": 84,
        "menages": 207,
        "logements_avant_1990": 132
      },
      "artisans": {
        "monte_escalier": 0,
        "chauffage_pac_clim": 0,
        "isolation": 0,
        "menuiserie": 1,
        "fenetres_velux": 1,
        "couverture_toiture": 0,
        "facade_peinture": 2,
        "portes_volets": 1,
        "piscine": 0,
        "vmc_ventilation": 0,
        "assainissement": 0
      },
      "revenus": {
        "revenu_median": 23820.0,
        "part_menages_imposes": null,
        "taux_pauvrete": null
      },
      "aides_etat": {
        "zone_climatique": "H1",
        "qpv": false,
        "action_coeur_de_ville": false,
        "petites_villes_de_demain": false
      }
    },
    {
      "code_insee": "18014",
      "nom": "Assigny",
      "nom_a": null,
      "nom_de": null,
      "slug": "assigny",
      "code_postal": "18260",
      "population": 159,
      "superficie_km2": 1730.19,
      "latitude": 47.4327,
      "longitude": 2.7495,
      "villes_proches": [
        {
          "code_insee": "18246",
          "nom": "Savigny-en-Sancerre",
          "slug": "savigny-en-sancerre",
          "code_postal": "18240",
          "population": 1088,
          "superficie_km2": 3367.39,
          "latitude": 47.4423,
          "longitude": 2.7963,
          "distance_km": 3.68
        },
        {
          "code_insee": "18256",
          "nom": "Subligny",
          "slug": "subligny",
          "code_postal": "18260",
          "population": 337,
          "superficie_km2": 1758.52,
          "latitude": 47.395,
          "longitude": 2.7531,
          "distance_km": 4.2
        },
        {
          "code_insee": "18259",
          "nom": "Sury-ès-Bois",
          "slug": "sury-es-bois",
          "code_postal": "18260",
          "population": 311,
          "superficie_km2": 3279.74,
          "latitude": 47.4611,
          "longitude": 2.7114,
          "distance_km": 4.26
        },