{
  "departement": {
    "code": "23",
    "nom": "Creuse",
    "slug": "creuse",
    "population_totale": 115651
  },
  "region": {
    "id": 16,
    "code": "15",
    "nom": "Nouvelle-Aquitaine",
    "slug": "nouvelle-aquitaine"
  },
  "voisins": [
    {
      "dep_code": "16",
      "dep_nom": "Charente",
      "dep_slug": "charente"
    },
    {
      "dep_code": "17",
      "dep_nom": "Charente-Maritime",
      "dep_slug": "charente-maritime"
    },
    {
      "dep_code": "19",
      "dep_nom": "Corrèze",
      "dep_slug": "correze"
    },
    {
      "dep_code": "24",
      "dep_nom": "Dordogne",
      "dep_slug": "dordogne"
    }
  ],
  "communes_count": 255,
  "communes": [
    {
      "code_insee": "23001",
      "nom": "Ahun",
      "nom_a": null,
      "nom_de": null,
      "slug": "ahun",
      "code_postal": "23150",
      "population": 1433,
      "superficie_km2": 34.0,
      "latitude": 46.0859985,
      "longitude": 2.0239999,
      "villes_proches": [
        {
          "code_insee": "23193",
          "nom": "Sainte-Feyre",
          "slug": "sainte-feyre",
          "code_postal": "23000",
          "population": 2497,
          "superficie_km2": 30.0,
          "latitude": 46.1570015,
          "longitude": 1.913,
          "distance_km": 11.64
        },
        {
          "code_insee": "23002",
          "nom": "Ajain",
          "slug": "ajain",
          "code_postal": "23380",
          "population": 1032,
          "superficie_km2": 33.0,
          "latitude": 46.2109985,
          "longitude": 1.9960001,
          "distance_km": 14.07
        },
        {
          "code_insee": "23096",
          "nom": "Guéret",
          "slug": "gueret",
          "code_postal": "23000",
          "population": 12840,
          "superficie_km2": 26.0,
          "latitude": 46.1629982,
          "longitude": 1.8710001,
          "distance_km": 14.57
        },
        {
          "code_insee": "23195",
          "nom": "Saint-Fiel",
          "slug": "saint-fiel",
          "code_postal": "23000",
          "population": 1061,
          "superficie_km2": 17.0,
          "latitude": 46.2130013,
          "longitude": 1.895,
          "distance_km": 17.27
        },
        {
          "code_insee": "23008",
          "nom": "Aubusson",
          "slug": "aubusson",
          "code_postal": "23200",
          "population": 3108,
          "superficie_km2": 19.0,
          "latitude": 45.9510002,
          "longitude": 2.1659999,
          "distance_km": 18.59
        },
        {
          "code_insee": "23093",
          "nom": "Gouzon",
          "slug": "gouzon",
          "code_postal": "23230",
          "population": 1560,
          "superficie_km2": 51.0,
          "latitude": 46.1870003,
          "longitude": 2.2309999,
          "distance_km": 19.51
        },
        {
          "code_insee": "23245",
          "nom": "Saint-Sulpice-le-Guérétois",
          "slug": "saint-sulpice-le-gueretois",
          "code_postal": "23000",
          "population": 1911,
          "superficie_km2": 36.0,
          "latitude": 46.2019997,
          "longitude": 1.8279999,
          "distance_km": 19.86
        },
        {
          "code_insee": "23247",
          "nom": "Saint-Vaury",
          "slug": "saint-vaury",
          "code_postal": "23320",
          "population": 1732,
          "superficie_km2": 47.0,
          "latitude": 46.2000008,
          "longitude": 1.749,
          "distance_km": 24.69
        },
        {
          "code_insee": "23079",
          "nom": "Felletin",
          "slug": "felletin",
          "code_postal": "23500",
          "population": 1536,
          "superficie_km2": 14.0,
          "latitude": 45.8899994,
          "longitude": 2.1830001,
          "distance_km": 25.02
        },
        {
          "code_insee": "23189",
          "nom": "Saint-Dizier-Masbaraud",
          "slug": "saint-dizier-masbaraud",
          "code_postal": "23400",
          "population": 1125,
          "superficie_km2": 47.0,
          "latitude": 46.0270004,
          "longitude": 1.705,
          "distance_km": 25.47
        },
        {
          "code_insee": "23030",
          "nom": "Bourganeuf",
          "slug": "bourganeuf",
          "code_postal": "23400",
          "population": 2450,
          "superficie_km2": 22.0,
          "latitude": 45.9490013,
          "longitude": 1.749,
          "distance_km": 26.13
        },
        {
          "code_insee": "23025",
          "nom": "Bonnat",
          "slug": "bonnat",
          "code_postal": "23220",
          "population": 1352,
          "superficie_km2": 46.0,
          "latitude": 46.3230019,
          "longitude": 1.914,
          "distance_km": 27.68
        },
        {
          "code_insee": "23036",
          "nom": "Bussière-Dunoise",
          "slug": "bussiere-dunoise",
          "code_postal": "23320",
          "population": 1040,
          "superficie_km2": 42.0,
          "latitude": 46.2560005,
          "longitude": 1.76,
          "distance_km": 27.76
        },
        {
          "code_insee": "23095",
          "nom": "Le Grand-Bourg",
          "slug": "le-grand-bourg",
          "code_postal": "23240",
          "population": 1195,
          "superficie_km2": 79.0,
          "latitude": 46.1599999,
          "longitude": 1.655,
          "distance_km": 29.61
        },
        {
          "code_insee": "23031",
          "nom": "Boussac",
          "slug": "boussac",
          "code_postal": "23600",
          "population": 1242,
          "superficie_km2": 2.0,
          "latitude": 46.3479996,
          "longitude": 2.2230001,
          "distance_km": 32.91
        },
        {
          "code_insee": "87117",
          "nom": "Peyrat-le-Château",
          "slug": "peyrat-le-chateau",
          "code_postal": "87470",
          "population": 1030,
          "superficie_km2": 55.0,
          "latitude": 45.8079987,
          "longitude": 1.7819999,
          "distance_km": 36.13
        },
        {
          "code_insee": "23075",
          "nom": "Dun-le-Palestel",
          "slug": "dun-le-palestel",
          "code_postal": "23800",
          "population": 1091,
          "superficie_km2": 10.0,
          "latitude": 46.3030014,
          "longitude": 1.6619999,
          "distance_km": 36.86
        },
        {
          "code_insee": "23076",
          "nom": "Évaux-les-Bains",
          "slug": "evaux-les-bains",
          "code_postal": "23110",
          "population": 1291,
          "superficie_km2": 45.0,
          "latitude": 46.1689987,
          "longitude": 2.4990001,
          "distance_km": 37.75
        },
        {
          "code_insee": "23013",
          "nom": "Auzances",
          "slug": "auzances",
          "code_postal": "23700",
          "population": 1177,
          "superficie_km2": 7.0,
          "latitude": 46.026001,
          "longitude": 2.507,
          "distance_km": 37.86
        },
        {
          "code_insee": "23192",
          "nom": "Fursac",
          "slug": "fursac",
          "code_postal": "23290",
          "population": 1437,
          "superficie_km2": 32.0,
          "latitude": 46.1269989,
          "longitude": 1.5319999,
          "distance_km": 38.2
        }
      ],
      "zonage_abc": "C",
      "reclassement_abc": "Non",
      "codes_postaux": [
        {
          "code_postal": "23150",
          "libelle_acheminement": "AHUN"
        }
      ],
      "logement": {
        "logements_total": 993,
        "residences_principales": 662,
        "logements_vacants": 216,
        "residences_secondaires": 115,
        "maisons": 779,
        "appartements": 205,
        "proprietaires": 424,
        "locataires": 208,
        "hlm": 72,
        "construits_avant_1919": 163,
        "construits_1919_1945": 99,
        "construits_1946_1970": 112,
        "construits_1971_1990": 177,
        "construits_1991_2005": 64,
        "construits_2006_2019": 45,
        "chauffage_electrique": 100,
        "chauffage_fioul": 94,
        "chauffage_gaz_ville": 267,
        "chauffage_gaz_bouteille": 17,
        "chauffage_autre": 182,
        "menages": 662,
        "logements_avant_1990": 551
      },
      "artisans": {
        "monte_escalier": 0,
        "chauffage_pac_clim": 1,
        "isolation": 4,
        "menuiserie": 2,
        "fenetres_velux": 2,
        "couverture_toiture": 4,
        "facade_peinture": 2,
        "portes_volets": 2,
        "piscine": 3,
        "vmc_ventilation": 0,
        "assainissement": 5
      },
      "revenus": {
        "revenu_median": 20920.0,
        "part_menages_imposes": null,
        "taux_pauvrete": null
      },
      "aides_etat": {
        "zone_climatique": "H2",
        "qpv": false,
        "action_coeur_de_ville": false,
        "petites_villes_de_demain": true
      }
    },
    {
      "code_insee": "23002",
      "nom": "Ajain",
      "nom_a": null,
      "nom_de": null,
      "slug": "ajain",
      "code_postal": "23380",
      "population": 1032,
      "superficie_km2": 33.0,
      "latitude": 46.2109985,
      "longitude": 1.9960001,
      "villes_proches": [
        {
          "code_insee": "23195",
          "nom": "Saint-Fiel",
          "slug": "saint-fiel",
          "code_postal": "23000",
          "population": 1061,
          "superficie_km2": 17.0,
          "latitude": 46.2130013,
          "longitude": 1.895,
          "distance_km": 7.77
        },
        {
          "code_insee": "23193",
          "nom": "Sainte-Feyre",
          "slug": "sainte-feyre",
          "code_postal": "23000",
          "population": 2497,
          "superficie_km2": 30.0,
          "latitude": 46.1570015,
          "longitude": 1.913,
          "distance_km": 8.77
        },
        {
          "code_insee": "23096",
          "nom": "Guéret",
          "slug": "gueret",
          "code_postal": "23000",
          "population": 12840,
          "superficie_km2": 26.0,
          "latitude": 46.1629982,
          "longitude": 1.8710001,
          "distance_km": 11
        },
        {
          "code_insee": "23245",
          "nom": "Saint-Sulpice-le-Guérétois",
          "slug": "saint-sulpice-le-gueretois",
          "code_postal": "23000",
          "population": 1911,
          "superficie_km2": 36.0,
          "latitude": 46.2019997,
          "longitude": 1.8279999,
          "distance_km": 12.97
        },
        {
          "code_insee": "23025",
          "nom": "Bonnat",
          "slug": "bonnat",
          "code_postal": "23220",
          "population": 1352,
          "superficie_km2": 46.0,
          "latitude": 46.3230019,
          "longitude": 1.914,
          "distance_km": 13.96
        },
        {
          "code_insee": "23001",
          "nom": "Ahun",
          "slug": "ahun",
          "code_postal": "23150",
          "population": 1433,
          "superficie_km2": 34.0,
          "latitude": 46.0859985,
          "longitude": 2.0239999,
          "distance_km": 14.07
        },
        {
          "code_insee": "23093",
          "nom": "Gouzon",
          "slug": "gouzon",
          "code_postal": "23230",
          "population": 1560,
          "superficie_km2": 51.0,
          "latitude": 46.1870003,
          "longitude": 2.2309999,
          "distance_km": 18.28
        },
        {
          "code_insee": "23036",
          "nom": "Bussière-Dunoise",
          "slug": "bussiere-dunoise",
          "code_postal": "23320",
          "population": 1040,
          "superficie_km2": 42.0,
          "latitude": 46.2560005,
          "longitude": 1.76,
          "distance_km": 18.83
        },
        {
          "code_insee": "23247",
          "nom": "Saint-Vaury",
          "slug": "saint-vaury",
          "code_postal": "23320",
          "population": 1732,
          "superficie_km2": 47.0,
          "latitude": 46.2000008,
          "longitude": 1.749,
          "distance_km": 19.05
        },
        {
          "code_insee": "23031",
          "nom": "Boussac",
          "slug": "boussac",
          "code_postal": "23600",
          "population": 1242,
          "superficie_km2": 2.0,
          "latitude": 46.3479996,
          "longitude": 2.2230001,
          "distance_km": 23.16
        },
        {
          "code_insee": "23095",
          "nom": "Le Grand-Bourg",
          "slug": "le-grand-bourg",
          "code_postal": "23240",
          "population": 1195,
          "superficie_km2": 79.0,
          "latitude": 46.1599999,
          "longitude": 1.655,
          "distance_km": 26.86
        },
        {
          "code_insee": "23075",
          "nom": "Dun-le-Palestel",
          "slug": "dun-le-palestel",
          "code_postal": "23800",
          "population": 1091,
          "superficie_km2": 10.0,
          "latitude": 46.3030014,
          "longitude": 1.6619999,
          "distance_km": 27.64
        },
        {
          "code_insee": "36001",
          "nom": "Aigurande",
          "slug": "aigurande",
          "code_postal": "36140",
          "population": 1359,
          "superficie_km2": 28.0,
          "latitude": 46.4560013,
          "longitude": 1.84,
          "distance_km": 29.76
        },
        {
          "code_insee": "23189",
          "nom": "Saint-Dizier-Masbaraud",
          "slug": "saint-dizier-masbaraud",
          "code_postal": "23400",
          "population": 1125,
          "superficie_km2": 47.0,
          "latitude": 46.0270004,
          "longitude": 1.705,
          "distance_km": 30.36
        },
        {
          "code_insee": "23008",
          "nom": "Aubusson",
          "slug": "aubusson",
          "code_postal": "23200",
          "population": 3108,
          "superficie_km2": 19.0,
          "latitude": 45.9510002,
          "longitude": 2.1659999,
          "distance_km": 31.74
        },
        {
          "code_insee": "23030",
          "nom": "Bourganeuf",
          "slug": "bourganeuf",
          "code_postal": "23400",
          "population": 2450,
          "superficie_km2": 22.0,
          "latitude": 45.9490013,
          "longitude": 1.749,
          "distance_km": 34.81
        },
        {
          "code_insee": "23192",
          "nom": "Fursac",
          "slug": "fursac",
          "code_postal": "23290",
          "population": 1437,
          "superficie_km2": 32.0,
          "latitude": 46.1269989,
          "longitude": 1.5319999,
          "distance_km": 36.93
        },
        {
          "code_insee": "23177",
          "nom": "Saint-Agnant-de-Versillat",
          "slug": "saint-agnant-de-versillat",
          "code_postal": "23300",
          "population": 1079,
          "superficie_km2": 51.0,
          "latitude": 46.2809982,
          "longitude": 1.506,
          "distance_km": 38.48
        },
        {
          "code_insee": "23079",
          "nom": "Felletin",
          "slug": "felletin",
          "code_postal": "23500",
          "population": 1536,
          "superficie_km2": 14.0,
          "latitude": 45.8899994,
          "longitude": 2.1830001,
          "distance_km": 38.5
        },
        {
          "code_insee": "36109",
          "nom": "Le Magny",
          "slug": "le-magny",
          "code_postal": "36400",
          "population": 1025,
          "superficie_km2": 18.0,
          "latitude": 46.5569992,
          "longitude": 1.959,
          "distance_km": 38.58
        }
      ],
      "zonage_abc": "C",
      "reclassement_abc": "Non",
      "codes_postaux": [
        {
          "code_postal": "23380",
          "libelle_acheminement": "AJAIN"
        }
      ],
      "logement": {
        "logements_total": 534,
        "residences_principales": 400,
        "logements_vacants": 82,
        "residences_secondaires": 52,
        "maisons": 511,
        "appartements": 22,
        "proprietaires": 336,
        "locataires": 56,
        "hlm": 19,
        "construits_avant_1919": 116,
        "construits_1919_1945": 40,
        "construits_1946_1970": 48,
        "construits_1971_1990": 111,
        "construits_1991_2005": 42,
        "construits_2006_2019": 41,
        "chauffage_electrique": 91,
        "chauffage_fioul": 90,
        "chauffage_gaz_ville": 74,
        "chauffage_gaz_bouteille": 17,
        "chauffage_autre": 126,
        "menages": 400,
        "logements_avant_1990": 315
      },
      "artisans": {
        "monte_escalier": 0,
        "chauffage_pac_clim": 1,
        "isolation": 0,
        "menuiserie": 2,
        "fenetres_velux": 2,
        "couverture_toiture": 1,
        "facade_peinture": 2,
        "portes_volets": 2,
        "piscine": 1,
        "vmc_ventilation": 1,
        "assainissement": 0
      },
      "revenus": {
        "revenu_median": 21770.0,
        "part_menages_imposes": null,
        "taux_pauvrete": null
      },
      "aides_etat": {
        "zone_climatique": "H2",
        "qpv": false,
        "action_coeur_de_ville": false,
        "petites_villes_de_demain": false
      }
    },
    {
      "code_insee": "23003",
      "nom": "Alleyrat",
      "nom_a": null,
      "nom_de": null,
      "slug": "alleyrat",
      "code_postal": "23200",
      "population": 144,
      "superficie_km2": 949.24,
      "latitude": 45.9862,
      "longitude": 2.1529,
      "villes_proches": [
        {
          "code_insee": "23210",
          "nom": "Saint-Maixant",
          "slug": "saint-maixant",
          "code_postal": "23200",
          "population": 222,
          "superficie_km2": 1386.91,
          "latitude": 45.9975,
          "longitude": 2.1966,
          "distance_km": 3.6
        },
        {
          "code_insee": "23220",
          "nom": "Saint-Médard-la-Rochette",
          "slug": "saint-medard-la-rochette",
          "code_postal": "23200",
          "population": 559,
          "superficie_km2": 3887.92,
          "latitude": 46.0194,
          "longitude": 2.1464,
          "distance_km": 3.73
        },
        {
          "code_insee": "23024",
          "nom": "Blessac",
          "slug": "blessac",
          "code_postal": "23200",
          "population": 525,
          "superficie_km2": 1785.08,
          "latitude": 45.9706,
          "longitude": 2.1093,
          "distance_km": 3.79
        },
        {
          "code_insee": "23180",
          "nom": "Saint-Amand",
          "slug": "saint-amand",
          "code_postal": "23200",
          "population": 449,
          "superficie_km2": 800.36,
          "latitude": 45.975,
          "longitude": 2.2056,
          "distance_km": 4.26
        },
        {
          "code_insee": "23008",
          "nom": "Aubusson",
          "slug": "aubusson",
          "code_postal": "23200",
          "population": 3018,
          "superficie_km2": 1918.92,
          "latitude": 45.9472,
          "longitude": 2.1701,
          "distance_km": 4.54
        },
        {
          "code_insee": "23007",
          "nom": "Ars",
          "slug": "ars",
          "code_postal": "23480",
          "population": 239,
          "superficie_km2": 2175.79,
          "latitude": 46.0034,
          "longitude": 2.0829,
          "distance_km": 5.74
        },
        {
          "code_insee": "23159",
          "nom": "Puy-Malsignat",
          "slug": "puy-malsignat",
          "code_postal": "23130",
          "population": 140,
          "superficie_km2": 1267.55,
          "latitude": 46.0322,
          "longitude": 2.219,
          "distance_km": 7.23
        },
        {
          "code_insee": "23179",
          "nom": "Saint-Alpinien",
          "slug": "saint-alpinien",
          "code_postal": "23200",
          "population": 290,
          "superficie_km2": 1519.17,
          "latitude": 45.9641,
          "longitude": 2.2443,
          "distance_km": 7.48
        },
        {
          "code_insee": "23059",
          "nom": "La Chaussade",
          "slug": "la-chaussade",
          "code_postal": "23200",
          "population": 99,
          "superficie_km2": 720.54,
          "latitude": 45.9884,
          "longitude": 2.2507,
          "distance_km": 7.56
        },
        {
          "code_insee": "23028",
          "nom": "Bosroger",
          "slug": "bosroger",
          "code_postal": "23200",
          "population": 118,
          "superficie_km2": 763.66,
          "latitude": 46.0045,
          "longitude": 2.2505,
          "distance_km": 7.81
        },
        {
          "code_insee": "23183",
          "nom": "Saint-Avit-le-Pauvre",
          "slug": "saint-avit-le-pauvre",
          "code_postal": "23480",
          "population": 93,
          "superficie_km2": 493.99,
          "latitude": 45.9933,
          "longitude": 2.0459,
          "distance_km": 8.3
        },
        {
          "code_insee": "23228",
          "nom": "Saint-Pardoux-le-Neuf",
          "slug": "saint-pardoux-le-neuf",
          "code_postal": "23200",
          "population": 189,
          "superficie_km2": 752.14,
          "latitude": 45.9344,
          "longitude": 2.2307,
          "distance_km": 8.33
        },
        {
          "code_insee": "23211",
          "nom": "Saint-Marc-à-Frongier",
          "slug": "saint-marc-a-frongier",
          "code_postal": "23200",
          "population": 428,
          "superficie_km2": 2544.95,
          "latitude": 45.9161,
          "longitude": 2.1095,
          "distance_km": 8.49
        },
        {
          "code_insee": "23140",
          "nom": "Moutier-Rozeille",
          "slug": "moutier-rozeille",
          "code_postal": "23200",
          "population": 432,
          "superficie_km2": 1953.66,
          "latitude": 45.9172,
          "longitude": 2.2007,
          "distance_km": 8.52
        },
        {
          "code_insee": "23214",
          "nom": "Saint-Martial-le-Mont",
          "slug": "saint-martial-le-mont",
          "code_postal": "23150",
          "population": 265,
          "superficie_km2": 1026.44,
          "latitude": 46.0522,
          "longitude": 2.0934,
          "distance_km": 8.66
        },
        {
          "code_insee": "23222",
          "nom": "Saint-Michel-de-Veisse",
          "slug": "saint-michel-de-veisse",
          "code_postal": "23480",
          "population": 165,
          "superficie_km2": 1557.69,
          "latitude": 45.9504,
          "longitude": 2.0514,
          "distance_km": 8.8
        },
        {
          "code_insee": "23097",
          "nom": "Issoudun-Létrieix",
          "slug": "issoudun-letrieix",
          "code_postal": "23130",
          "population": 291,
          "superficie_km2": 2653.83,
          "latitude": 46.0715,
          "longitude": 2.1607,
          "distance_km": 9.5
        },
        {
          "code_insee": "23079",
          "nom": "Felletin",
          "slug": "felletin",
          "code_postal": "23500",
          "population": 1577,
          "superficie_km2": 1373.11,
          "latitude": 45.8942,
          "longitude": 2.187,
          "distance_km": 10.56
        },
        {
          "code_insee": "23238",
          "nom": "Saint-Quentin-la-Chabanne",
          "slug": "saint-quentin-la-chabanne",
          "code_postal": "23500",
          "population": 362,
          "superficie_km2": 3001.58,
          "latitude": 45.8889,
          "longitude": 2.1509,
          "distance_km": 10.82
        },
        {
          "code_insee": "23105",
          "nom": "Lavaveix-les-Mines",
          "slug": "lavaveix-les-mines",
          "code_postal": "23150",
          "population": 684,
          "superficie_km2": 463.98,
          "latitude": 46.0748,
          "longitude": 2.0934,
          "distance_km": 10.87
        }
      ],
      "zonage_abc": "C",
      "reclassement_abc": "Non",
      "codes_postaux": [
        {
          "code_postal": "23200",
          "libelle_acheminement": "ALLEYRAT"
        }
      ],
      "logement": {
        "logements_total": 92,
        "residences_principales": 68,
        "logements_vacants": 10,
        "residences_secondaires": 12,
        "maisons": 90,
        "appartements": 1,
        "proprietaires": 50,
        "locataires": 14,
        "hlm": 0,
        "construits_avant_1919": 28,
        "construits_1919_1945": 13,
        "construits_1946_1970": 8,
        "construits_1971_1990": 10,
        "construits_1991_2005": 2,
        "construits_2006_2019": 3,
        "chauffage_electrique": 10,
        "chauffage_fioul": 13,
        "chauffage_gaz_ville": 0,
        "chauffage_gaz_bouteille": 0,
        "chauffage_autre": 43,
        "menages": 68,
        "logements_avant_1990": 59
      },
      "artisans": {
        "monte_escalier": 0,
        "chauffage_pac_clim": 0,
        "isolation": 1,
        "menuiserie": 1,
        "fenetres_velux": 1,
        "couverture_toiture": 0,
        "facade_peinture": 0,
        "portes_volets": 1,
        "piscine": 0,
        "vmc_ventilation": 0,
        "assainissement": 0
      },
      "revenus": {
        "revenu_median": 17400.0,
        "part_menages_imposes": null,
        "taux_pauvrete": null
      },
      "aides_etat": {
        "zone_climatique": "H2",
        "qpv": false,
        "action_coeur_de_ville": false,
        "petites_villes_de_demain": false
      }
    },
    {
      "code_insee": "23004",
      "nom": "Anzême",
      "nom_a": null,
      "nom_de": null,
      "slug": "anzeme",
      "code_postal": "23000",
      "population": 551,
      "superficie_km2": 2955.16,
      "latitude": 46.2592,
      "longitude": 1.8528,
      "villes_proches": [
        {
          "code_insee": "23049",
          "nom": "Champsanglard",
          "slug": "champsanglard",
          "code_postal": "23220",
          "population": 253,
          "superficie_km2": 1363.8,
          "latitude": 46.2823,
          "longitude": 1.8885,
          "distance_km": 3.76
        },
        {
          "code_insee": "23029",
          "nom": "Le Bourg-d'Hem",
          "slug": "le-bourg-d-hem",
          "code_postal": "23220",
          "population": 226,
          "superficie_km2": 1557.63,
          "latitude": 46.2998,
          "longitude": 1.8379,
          "distance_km": 4.66
        },
        {
          "code_insee": "23195",
          "nom": "Saint-Fiel",
          "slug": "saint-fiel",
          "code_postal": "23000",
          "population": 1087,
          "superficie_km2": 1667.31,
          "latitude": 46.2109,
          "longitude": 1.8929,
          "distance_km": 6.19
        },
        {
          "code_insee": "23101",
          "nom": "Jouillat",
          "slug": "jouillat",
          "code_postal": "23220",
          "population": 387,
          "superficie_km2": 2234.94,
          "latitude": 46.2694,
          "longitude": 1.935,
          "distance_km": 6.42
        },
        {
          "code_insee": "23245",
          "nom": "Saint-Sulpice-le-Guérétois",
          "slug": "saint-sulpice-le-gueretois",
          "code_postal": "23000",
          "population": 1892,
          "superficie_km2": 3652.46,
          "latitude": 46.1969,
          "longitude": 1.8292,
          "distance_km": 7.16
        },
        {
          "code_insee": "23036",
          "nom": "Bussière-Dunoise",
          "slug": "bussiere-dunoise",
          "code_postal": "23320",
          "population": 1040,
          "superficie_km2": 4194.55,
          "latitude": 46.2561,
          "longitude": 1.7579,
          "distance_km": 7.3
        },
        {
          "code_insee": "23092",
          "nom": "Glénic",
          "slug": "glenic",
          "code_postal": "23380",
          "population": 625,
          "superficie_km2": 2740.39,
          "latitude": 46.227,
          "longitude": 1.9376,
          "distance_km": 7.44
        },
        {
          "code_insee": "23025",
          "nom": "Bonnat",
          "slug": "bonnat",
          "code_postal": "23220",
          "population": 1357,
          "superficie_km2": 4562.93,
          "latitude": 46.3225,
          "longitude": 1.9105,
          "distance_km": 8.32
        },
        {
          "code_insee": "23039",
          "nom": "La Celle-Dunoise",
          "slug": "la-celle-dunoise",
          "code_postal": "23800",
          "population": 534,
          "superficie_km2": 2896.49,
          "latitude": 46.3114,
          "longitude": 1.7738,
          "distance_km": 8.4
        },
        {
          "code_insee": "23062",
          "nom": "Chéniers",
          "slug": "cheniers",
          "code_postal": "23220",
          "population": 554,
          "superficie_km2": 3499.88,
          "latitude": 46.3528,
          "longitude": 1.8222,
          "distance_km": 10.67
        },
        {
          "code_insee": "23162",
          "nom": "Roches",
          "slug": "roches",
          "code_postal": "23270",
          "population": 371,
          "superficie_km2": 2546.4,
          "latitude": 46.2776,
          "longitude": 1.9896,
          "distance_km": 10.71
        },
        {
          "code_insee": "23244",
          "nom": "Saint-Sulpice-le-Dunois",
          "slug": "saint-sulpice-le-dunois",
          "code_postal": "23800",
          "population": 564,
          "superficie_km2": 3074.94,
          "latitude": 46.3019,
          "longitude": 1.7241,
          "distance_km": 10.97
        },
        {
          "code_insee": "23247",
          "nom": "Saint-Vaury",
          "slug": "saint-vaury",
          "code_postal": "23320",
          "population": 1718,
          "superficie_km2": 4690.03,
          "latitude": 46.1962,
          "longitude": 1.7422,
          "distance_km": 11.02
        },
        {
          "code_insee": "23096",
          "nom": "Guéret",
          "slug": "gueret",
          "code_postal": "23000",
          "population": 12955,
          "superficie_km2": 2602.05,
          "latitude": 46.1585,
          "longitude": 1.8705,
          "distance_km": 11.28
        },
        {
          "code_insee": "23033",
          "nom": "La Brionne",
          "slug": "la-brionne",
          "code_postal": "23000",
          "population": 448,
          "superficie_km2": 712.67,
          "latitude": 46.1653,
          "longitude": 1.79,
          "distance_km": 11.51
        },
        {
          "code_insee": "23193",
          "nom": "Sainte-Feyre",
          "slug": "sainte-feyre",
          "code_postal": "23000",
          "population": 2566,
          "superficie_km2": 3018.14,
          "latitude": 46.1594,
          "longitude": 1.91,
          "distance_km": 11.94
        },
        {
          "code_insee": "23109",
          "nom": "Linard-Malval",
          "slug": "linard-malval",
          "code_postal": "23220",
          "population": 206,
          "superficie_km2": 1665.55,
          "latitude": 46.3674,
          "longitude": 1.8805,
          "distance_km": 12.22
        },
        {
          "code_insee": "23044",
          "nom": "Chambon-Sainte-Croix",
          "slug": "chambon-sainte-croix",
          "code_postal": "23220",
          "population": 89,
          "superficie_km2": 670.24,
          "latitude": 46.3535,
          "longitude": 1.77,
          "distance_km": 12.26
        },
        {
          "code_insee": "23208",
          "nom": "Saint-Léger-le-Guérétois",
          "slug": "saint-leger-le-gueretois",
          "code_postal": "23000",
          "population": 401,
          "superficie_km2": 1409.69,
          "latitude": 46.1505,
          "longitude": 1.8144,
          "distance_km": 12.44
        },
        {
          "code_insee": "23112",
          "nom": "Lourdoueix-Saint-Pierre",
          "slug": "lourdoueix-saint-pierre",
          "code_postal": "23360",
          "population": 711,
          "superficie_km2": 4469.41,
          "latitude": 46.3928,
          "longitude": 1.8234,
          "distance_km": 15.03
        }
      ],
      "zonage_abc": "C",
      "reclassement_abc": "Non",
      "codes_postaux": [
        {
          "code_postal": "23000",
          "libelle_acheminement": "ANZEME"
        }
      ],
      "logement": {
        "logements_total": 405,
        "residences_principales": 246,
        "logements_vacants": 58,
        "residences_secondaires": 100,
        "maisons": 400,
        "appartements": 5,
        "proprietaires": 201,
        "locataires": 41,
        "hlm": 9,
        "construits_avant_1919": 79,
        "construits_1919_1945": 35,
        "construits_1946_1970": 21,
        "construits_1971_1990": 47,
        "construits_1991_2005": 34,
        "construits_2006_2019": 29,
        "chauffage_electrique": 53,
        "chauffage_fioul": 74,
        "chauffage_gaz_ville": 2,
        "chauffage_gaz_bouteille": 9,
        "chauffage_autre": 107,
        "menages": 246,
        "logements_avant_1990": 182
      },
      "artisans": {
        "monte_escalier": 0,
        "chauffage_pac_clim": 1,
        "isolation": 1,
        "menuiserie": 1,
        "fenetres_velux": 1,
        "couverture_toiture": 0,
        "facade_peinture": 0,
        "portes_volets": 1,
        "piscine": 1,
        "vmc_ventilation": 0,
        "assainissement": 2
      },
      "revenus": {
        "revenu_median": 20550.0,
        "part_menages_imposes": null,
        "taux_pauvrete": null
      },
      "aides_etat": {
        "zone_climatique": "H2",
        "qpv": false,
        "action_coeur_de_ville": false,
        "petites_villes_de_demain": false
      }
    },
    {
      "code_insee": "23005",
      "nom": "Arfeuille-Châtain",
      "nom_a": null,
      "nom_de": null,
      "slug": "arfeuille-chatain",
      "code_postal": "23700",
      "population": 193,
      "superficie_km2": 2054.33,
      "latitude": 46.0616,
      "longitude": 2.4362,
      "villes_proches": [
        {
          "code_insee": "23164",
          "nom": "Rougnat",
          "slug": "rougnat",
          "code_postal": "23700",
          "population": 471,
          "superficie_km2": 4156.0,
          "latitude": 46.0563,
          "longitude": 2.4949,
          "distance_km": 4.57
        },
        {
          "code_insee": "23116",
          "nom": "Mainsat",
          "slug": "mainsat",
          "code_postal": "23700",
          "population": 540,
          "superficie_km2": 3484.31,
          "latitude": 46.0511,
          "longitude": 2.3787,
          "distance_km": 4.59
        },
        {
          "code_insee": "23160",
          "nom": "Reterre",
          "slug": "reterre",
          "code_postal": "23110",
          "population": 258,
          "superficie_km2": 1790.11,
          "latitude": 46.105,
          "longitude": 2.4661,
          "distance_km": 5.35
        },
        {
          "code_insee": "23037",
          "nom": "Bussière-Nouvelle",
          "slug": "bussiere-nouvelle",
          "code_postal": "23700",
          "population": 73,
          "superficie_km2": 864.41,
          "latitude": 46.0125,
          "longitude": 2.4192,
          "distance_km": 5.62
        },
        {
          "code_insee": "23013",
          "nom": "Auzances",
          "slug": "auzances",
          "code_postal": "23700",
          "population": 1129,
          "superficie_km2": 712.06,
          "latitude": 46.0274,
          "longitude": 2.5011,
          "distance_km": 6.29
        },
        {
          "code_insee": "23066",
          "nom": "Le Compas",
          "slug": "le-compas",
          "code_postal": "23700",
          "population": 197,
          "superficie_km2": 1686.85,
          "latitude": 46.0052,
          "longitude": 2.4492,
          "distance_km": 6.35
        },
        {
          "code_insee": "23167",
          "nom": "Sannat",
          "slug": "sannat",
          "code_postal": "23110",
          "population": 349,
          "superficie_km2": 3419.16,
          "latitude": 46.1247,
          "longitude": 2.4212,
          "distance_km": 7.11
        },
        {
          "code_insee": "23234",
          "nom": "Saint-Priest",
          "slug": "saint-priest",
          "code_postal": "23110",
          "population": 149,
          "superficie_km2": 2224.18,
          "latitude": 46.0987,
          "longitude": 2.3515,
          "distance_km": 7.73
        },
        {
          "code_insee": "23172",
          "nom": "La Serre-Bussière-Vieille",
          "slug": "la-serre-bussiere-vieille",
          "code_postal": "23190",
          "population": 120,
          "superficie_km2": 1434.84,
          "latitude": 46.0547,
          "longitude": 2.3359,
          "distance_km": 7.78
        },
        {
          "code_insee": "23083",
          "nom": "Fontanières",
          "slug": "fontanieres",
          "code_postal": "23110",
          "population": 260,
          "superficie_km2": 1589.02,
          "latitude": 46.1063,
          "longitude": 2.5189,
          "distance_km": 8.09
        },
        {
          "code_insee": "23123",
          "nom": "Les Mars",
          "slug": "les-mars",
          "code_postal": "23700",
          "population": 180,
          "superficie_km2": 1313.12,
          "latitude": 45.9938,
          "longitude": 2.4921,
          "distance_km": 8.69
        },
        {
          "code_insee": "23203",
          "nom": "Saint-Julien-la-Genête",
          "slug": "saint-julien-la-genete",
          "code_postal": "23110",
          "population": 215,
          "superficie_km2": 1205.8,
          "latitude": 46.1424,
          "longitude": 2.4747,
          "distance_km": 9.46
        },
        {
          "code_insee": "23058",
          "nom": "Le Chauchet",
          "slug": "le-chauchet",
          "code_postal": "23130",
          "population": 102,
          "superficie_km2": 1069.01,
          "latitude": 46.1097,
          "longitude": 2.3314,
          "distance_km": 9.69
        },
        {
          "code_insee": "23034",
          "nom": "Brousse",
          "slug": "brousse",
          "code_postal": "23700",
          "population": 32,
          "superficie_km2": 368.44,
          "latitude": 45.9725,
          "longitude": 2.4525,
          "distance_km": 9.99
        },
        {
          "code_insee": "23171",
          "nom": "Sermur",
          "slug": "sermur",
          "code_postal": "23700",
          "population": 102,
          "superficie_km2": 1979.31,
          "latitude": 45.9719,
          "longitude": 2.4117,
          "distance_km": 10.15
        },
        {
          "code_insee": "23113",
          "nom": "Lupersat",
          "slug": "lupersat",
          "code_postal": "23190",
          "population": 288,
          "superficie_km2": 3282.69,
          "latitude": 45.9888,
          "longitude": 2.3504,
          "distance_km": 10.46
        },
        {
          "code_insee": "23251",
          "nom": "Tardes",
          "slug": "tardes",
          "code_postal": "23170",
          "population": 119,
          "superficie_km2": 2160.27,
          "latitude": 46.1419,
          "longitude": 2.359,
          "distance_km": 10.73
        },
        {
          "code_insee": "23055",
          "nom": "Châtelard",
          "slug": "chatelard",
          "code_postal": "23700",
          "population": 29,
          "superficie_km2": 246.76,
          "latitude": 45.9647,
          "longitude": 2.466,
          "distance_km": 11.02
        },
        {
          "code_insee": "23053",
          "nom": "Chard",
          "slug": "chard",
          "code_postal": "23700",
          "population": 206,
          "superficie_km2": 1424.54,
          "latitude": 45.9517,
          "longitude": 2.4886,
          "distance_km": 12.87
        },
        {
          "code_insee": "23110",
          "nom": "Lioux-les-Monges",
          "slug": "lioux-les-monges",
          "code_postal": "23700",
          "population": 51,
          "superficie_km2": 742.95,
          "latitude": 45.9404,
          "longitude": 2.4469,
          "distance_km": 13.5
        }
      ],
      "zonage_abc": "C",
      "reclassement_abc": "Non",
      "codes_postaux": [
        {
          "code_postal": "23700",
          "libelle_acheminement": "ARFEUILLE CHATAIN"
        }
      ],
      "logement": {
        "logements_total": 165,
        "residences_principales": 84,
        "logements_vacants": 33,
        "residences_secondaires": 47,
        "maisons": 156,
        "appartements": 8,
        "proprietaires": 68,
        "locataires": 12,
        "hlm": 0,
        "construits_avant_1919": 55,
        "construits_1919_1945": 7,
        "construits_1946_1970": 9,
        "construits_1971_1990": 5,
        "construits_1991_2005": 4,
        "construits_2006_2019": 3,
        "chauffage_electrique": 14,
        "chauffage_fioul": 13,
        "chauffage_gaz_ville": 0,
        "chauffage_gaz_bouteille": 3,
        "chauffage_autre": 52,
        "menages": 84,
        "logements_avant_1990": 76
      },
      "artisans": {
        "monte_escalier": 0,
        "chauffage_pac_clim": 0,
        "isolation": 1,
        "menuiserie": 0,
        "fenetres_velux": 0,
        "couverture_toiture": 1,
        "facade_peinture": 0,
        "portes_volets": 0,
        "piscine": 0,
        "vmc_ventilation": 0,
        "assainissement": 0
      },
      "revenus": {
        "revenu_median": 18710.0,
        "part_menages_imposes": null,
        "taux_pauvrete": null
      },
      "aides_etat": {
        "zone_climatique": "H2",
        "qpv": false,
        "action_coeur_de_ville": false,
        "petites_villes_de_demain": false
      }
    },
    {
      "code_insee": "23006",
      "nom": "Arrènes",
      "nom_a": null,
      "nom_de": null,
      "slug": "arrenes",
      "code_postal": "23210",
      "population": 202,
      "superficie_km2": 2249.45,
      "latitude": 46.0714,
      "longitude": 1.5683,
      "villes_proches": [
        {
          "code_insee": "23124",
          "nom": "Marsac",
          "slug": "marsac",
          "code_postal": "23210",
          "population": 643,
          "superficie_km2": 1944.89,
          "latitude": 46.0996,
          "longitude": 1.5849,
          "distance_km": 3.39
        },
        {
          "code_insee": "23200",
          "nom": "Saint-Goussaud",
          "slug": "saint-goussaud",
          "code_postal": "23430",
          "population": 157,
          "superficie_km2": 2445.61,
          "latitude": 46.0323,
          "longitude": 1.5636,
          "distance_km": 4.36
        },
        {
          "code_insee": "87083",
          "nom": "Laurière",
          "slug": "lauriere",
          "code_postal": "87370",
          "population": 525,
          "superficie_km2": 2081.67,
          "latitude": 46.073,
          "longitude": 1.4976,
          "distance_km": 5.46
        },
        {
          "code_insee": "23137",
          "nom": "Mourioux-Vieilleville",
          "slug": "mourioux-vieilleville",
          "code_postal": "23210",
          "population": 521,
          "superficie_km2": 2509.65,
          "latitude": 46.0761,
          "longitude": 1.6427,
          "distance_km": 5.76
        },
        {
          "code_insee": "87076",
          "nom": "Jabreilles-les-Bordes",
          "slug": "jabreilles-les-bordes",
          "code_postal": "87370",
          "population": 242,
          "superficie_km2": 1907.08,
          "latitude": 46.022,
          "longitude": 1.5105,
          "distance_km": 7.08
        },
        {
          "code_insee": "87181",
          "nom": "Saint-Sulpice-Laurière",
          "slug": "saint-sulpice-lauriere",
          "code_postal": "87370",
          "population": 792,
          "superficie_km2": 1435.29,
          "latitude": 46.0567,
          "longitude": 1.4756,
          "distance_km": 7.34
        },
        {
          "code_insee": "23021",
          "nom": "Bénévent-l'Abbaye",
          "slug": "benevent-l-abbaye",
          "code_postal": "23210",
          "population": 769,
          "superficie_km2": 1176.99,
          "latitude": 46.1209,
          "longitude": 1.6351,
          "distance_km": 7.54
        },
        {
          "code_insee": "23042",
          "nom": "Ceyroux",
          "slug": "ceyroux",
          "code_postal": "23210",
          "population": 121,
          "superficie_km2": 1230.31,
          "latitude": 46.0559,
          "longitude": 1.669,
          "distance_km": 7.96
        },
        {
          "code_insee": "23056",
          "nom": "Châtelus-le-Marcheix",
          "slug": "chatelus-le-marcheix",
          "code_postal": "23430",
          "population": 336,
          "superficie_km2": 4359.34,
          "latitude": 46.0095,
          "longitude": 1.6264,
          "distance_km": 8.21
        },
        {
          "code_insee": "23192",
          "nom": "Fursac",
          "slug": "fursac",
          "code_postal": "23290",
          "population": 1430,
          "superficie_km2": 5910.05,
          "latitude": 46.1433,
          "longitude": 1.5176,
          "distance_km": 8.9
        },
        {
          "code_insee": "23047",
          "nom": "Chamborand",
          "slug": "chamborand",
          "code_postal": "23240",
          "population": 241,
          "superficie_km2": 1141.15,
          "latitude": 46.1548,
          "longitude": 1.5725,
          "distance_km": 9.28
        },
        {
          "code_insee": "23011",
          "nom": "Aulon",
          "slug": "aulon",
          "code_postal": "23210",
          "population": 163,
          "superficie_km2": 1075.94,
          "latitude": 46.0894,
          "longitude": 1.6961,
          "distance_km": 10.06
        },
        {
          "code_insee": "87079",
          "nom": "La Jonchère-Saint-Maurice",
          "slug": "la-jonchere-saint-maurice",
          "code_postal": "87340",
          "population": 793,
          "superficie_km2": 1553.24,
          "latitude": 46.0042,
          "longitude": 1.4758,
          "distance_km": 10.34
        },
        {
          "code_insee": "87067",
          "nom": "Folles",
          "slug": "folles",
          "code_postal": "87250",
          "population": 439,
          "superficie_km2": 3157.69,
          "latitude": 46.1239,
          "longitude": 1.4522,
          "distance_km": 10.69
        },
        {
          "code_insee": "87016",
          "nom": "Les Billanges",
          "slug": "les-billanges",
          "code_postal": "87340",
          "population": 296,
          "superficie_km2": 2310.31,
          "latitude": 45.9761,
          "longitude": 1.5341,
          "distance_km": 10.92
        },
        {
          "code_insee": "23095",
          "nom": "Le Grand-Bourg",
          "slug": "le-grand-bourg",
          "code_postal": "23240",
          "population": 1167,
          "superficie_km2": 7878.7,
          "latitude": 46.1626,
          "longitude": 1.6488,
          "distance_km": 11.89
        },
        {
          "code_insee": "23230",
          "nom": "Saint-Pierre-Chérignat",
          "slug": "saint-pierre-cherignat",
          "code_postal": "23430",
          "population": 164,
          "superficie_km2": 2358.76,
          "latitude": 45.9583,
          "longitude": 1.6137,
          "distance_km": 13.06
        },
        {
          "code_insee": "23217",
          "nom": "Saint-Martin-Sainte-Catherine",
          "slug": "saint-martin-sainte-catherine",
          "code_postal": "23430",
          "population": 330,
          "superficie_km2": 2715.11,
          "latitude": 45.9449,
          "longitude": 1.5569,
          "distance_km": 14.09
        },
        {
          "code_insee": "23235",
          "nom": "Saint-Priest-la-Feuille",
          "slug": "saint-priest-la-feuille",
          "code_postal": "23300",
          "population": 718,
          "superficie_km2": 2771.43,
          "latitude": 46.2001,
          "longitude": 1.5372,
          "distance_km": 14.51
        },
        {
          "code_insee": "23111",
          "nom": "Lizières",
          "slug": "lizieres",
          "code_postal": "23240",
          "population": 234,
          "superficie_km2": 1458.97,
          "latitude": 46.211,
          "longitude": 1.5772,
          "distance_km": 15.54
        }
      ],
      "zonage_abc": "C",
      "reclassement_abc": "Non",
      "codes_postaux": [
        {
          "code_postal": "23210",
          "libelle_acheminement": "ARRENES"
        }
      ],
      "logement": {
        "logements_total": 250,
        "residences_principales": 119,
        "logements_vacants": 23,
        "residences_secondaires": 108,
        "maisons": 243,
        "appartements": 5,
        "proprietaires": 99,
        "locataires": 15,
        "hlm": 0,
        "construits_avant_1919": 59,
        "construits_1919_1945": 14,
        "construits_1946_1970": 10,
        "construits_1971_1990": 22,
        "construits_1991_2005": 3,
        "construits_2006_2019": 10,
        "chauffage_electrique": 20,
        "chauffage_fioul": 25,
        "chauffage_gaz_ville": 1,
        "chauffage_gaz_bouteille": 1,
        "chauffage_autre": 72,
        "menages": 119,
        "logements_avant_1990": 105
      },
      "artisans": {
        "monte_escalier": 0,
        "chauffage_pac_clim": 0,
        "isolation": 1,
        "menuiserie": 1,
        "fenetres_velux": 1,
        "couverture_toiture": 0,
        "facade_peinture": 0,
        "portes_volets": 1,
        "piscine": 0,
        "vmc_ventilation": 0,
        "assainissement": 0
      },
      "revenus": {
        "revenu_median": 20090.0,
        "part_menages_imposes": null,
        "taux_pauvrete": null
      },
      "aides_etat": {
        "zone_climatique": "H2",
        "qpv": false,
        "action_coeur_de_ville": false,
        "petites_villes_de_demain": false
      }
    },
    {
      "code_insee": "23007",
      "nom": "Ars",
      "nom_a": null,
      "nom_de": null,
      "slug": "ars",
      "code_postal": "23480",
      "population": 239,
      "superficie_km2": 2175.79,
      "latitude": 46.0034,
      "longitude": 2.0829,
      "villes_proches": [
        {
          "code_insee": "23183",
          "nom": "Saint-Avit-le-Pauvre",
          "slug": "saint-avit-le-pauvre",
          "code_postal": "23480",
          "population": 93,
          "superficie_km2": 493.99,
          "latitude": 45.9933,
          "longitude": 2.0459,
          "distance_km": 3.07
        },
        {
          "code_insee": "23024",
          "nom": "Blessac",
          "slug": "blessac",
          "code_postal": "23200",
          "population": 525,
          "superficie_km2": 1785.08,
          "latitude": 45.9706,
          "longitude": 2.1093,
          "distance_km": 4.18
        },
        {
          "code_insee": "23246",
          "nom": "Saint-Sulpice-les-Champs",
          "slug": "saint-sulpice-les-champs",
          "code_postal": "23480",
          "population": 340,
          "superficie_km2": 2170.39,
          "latitude": 45.9918,
          "longitude": 2.0295,
          "distance_km": 4.32
        },
        {
          "code_insee": "23086",
          "nom": "Fransèches",
          "slug": "franseches",
          "code_postal": "23480",
          "population": 240,
          "superficie_km2": 1833.01,
          "latitude": 46.033,
          "longitude": 2.04,
          "distance_km": 4.67
        },
        {
          "code_insee": "23220",
          "nom": "Saint-Médard-la-Rochette",
          "slug": "saint-medard-la-rochette",
          "code_postal": "23200",
          "population": 559,
          "superficie_km2": 3887.92,
          "latitude": 46.0194,
          "longitude": 2.1464,
          "distance_km": 5.22
        },
        {
          "code_insee": "23214",
          "nom": "Saint-Martial-le-Mont",
          "slug": "saint-martial-le-mont",
          "code_postal": "23150",
          "population": 265,
          "superficie_km2": 1026.44,
          "latitude": 46.0522,
          "longitude": 2.0934,
          "distance_km": 5.49
        },
        {
          "code_insee": "23003",
          "nom": "Alleyrat",
          "slug": "alleyrat",
          "code_postal": "23200",
          "population": 144,
          "superficie_km2": 949.24,
          "latitude": 45.9862,
          "longitude": 2.1529,
          "distance_km": 5.74
        },
        {
          "code_insee": "23043",
          "nom": "Chamberaud",
          "slug": "chamberaud",
          "code_postal": "23480",
          "population": 94,
          "superficie_km2": 731.84,
          "latitude": 46.0494,
          "longitude": 2.0436,
          "distance_km": 5.95
        },
        {
          "code_insee": "23222",
          "nom": "Saint-Michel-de-Veisse",
          "slug": "saint-michel-de-veisse",
          "code_postal": "23480",
          "population": 165,
          "superficie_km2": 1557.69,
          "latitude": 45.9504,
          "longitude": 2.0514,
          "distance_km": 6.38
        },
        {
          "code_insee": "23105",
          "nom": "Lavaveix-les-Mines",
          "slug": "lavaveix-les-mines",
          "code_postal": "23150",
          "population": 684,
          "superficie_km2": 463.98,
          "latitude": 46.0748,
          "longitude": 2.0934,
          "distance_km": 7.98
        },
        {
          "code_insee": "23074",
          "nom": "Le Donzeil",
          "slug": "le-donzeil",
          "code_postal": "23480",
          "population": 186,
          "superficie_km2": 1352.36,
          "latitude": 46.0364,
          "longitude": 1.9882,
          "distance_km": 8.18
        },
        {
          "code_insee": "23210",
          "nom": "Saint-Maixant",
          "slug": "saint-maixant",
          "code_postal": "23200",
          "population": 222,
          "superficie_km2": 1386.91,
          "latitude": 45.9975,
          "longitude": 2.1966,
          "distance_km": 8.81
        },
        {
          "code_insee": "23008",
          "nom": "Aubusson",
          "slug": "aubusson",
          "code_postal": "23200",
          "population": 3018,
          "superficie_km2": 1918.92,
          "latitude": 45.9472,
          "longitude": 2.1701,
          "distance_km": 9.19
        },
        {
          "code_insee": "23097",
          "nom": "Issoudun-Létrieix",
          "slug": "issoudun-letrieix",
          "code_postal": "23130",
          "population": 291,
          "superficie_km2": 2653.83,
          "latitude": 46.0715,
          "longitude": 2.1607,
          "distance_km": 9.66
        },
        {
          "code_insee": "23211",
          "nom": "Saint-Marc-à-Frongier",
          "slug": "saint-marc-a-frongier",
          "code_postal": "23200",
          "population": 428,
          "superficie_km2": 2544.95,
          "latitude": 45.9161,
          "longitude": 2.1095,
          "distance_km": 9.92
        },
        {
          "code_insee": "23016",
          "nom": "Banize",
          "slug": "banize",
          "code_postal": "23120",
          "population": 183,
          "superficie_km2": 1533.47,
          "latitude": 45.9376,
          "longitude": 1.9932,
          "distance_km": 10.08
        },
        {
          "code_insee": "23229",
          "nom": "Saint-Pardoux-les-Cards",
          "slug": "saint-pardoux-les-cards",
          "code_postal": "23150",
          "population": 291,
          "superficie_km2": 2466.9,
          "latitude": 46.0908,
          "longitude": 2.1214,
          "distance_km": 10.16
        },
        {
          "code_insee": "23001",
          "nom": "Ahun",
          "slug": "ahun",
          "code_postal": "23150",
          "population": 1394,
          "superficie_km2": 3400.87,
          "latitude": 46.0917,
          "longitude": 2.0241,
          "distance_km": 10.82
        },
        {
          "code_insee": "23138",
          "nom": "Moutier-d'Ahun",
          "slug": "moutier-d-ahun",
          "code_postal": "23150",
          "population": 160,
          "superficie_km2": 998.74,
          "latitude": 46.1007,
          "longitude": 2.0608,
          "distance_km": 10.95
        },
        {
          "code_insee": "23257",
          "nom": "Vallière",
          "slug": "valliere",
          "code_postal": "23120",
          "population": 705,
          "superficie_km2": 4817.63,
          "latitude": 45.909,
          "longitude": 2.0389,
          "distance_km": 11.03
        }
      ],
      "zonage_abc": "C",
      "reclassement_abc": "Non",
      "codes_postaux": [
        {
          "code_postal": "23480",
          "libelle_acheminement": "ARS"
        }
      ],
      "logement": {
        "logements_total": 240,
        "residences_principales": 123,
        "logements_vacants": 12,
        "residences_secondaires": 104,
        "maisons": 239,
        "appartements": 0,
        "proprietaires": 111,
        "locataires": 6,
        "hlm": 0,
        "construits_avant_1919": 84,
        "construits_1919_1945": 13,
        "construits_1946_1970": 8,
        "construits_1971_1990": 8,
        "construits_1991_2005": 6,
        "construits_2006_2019": 1,
        "chauffage_electrique": 7,
        "chauffage_fioul": 34,
        "chauffage_gaz_ville": 0,
        "chauffage_gaz_bouteille": 2,
        "chauffage_autre": 78,
        "menages": 123,
        "logements_avant_1990": 113
      },
      "artisans": {
        "monte_escalier": 0,
        "chauffage_pac_clim": 0,
        "isolation": 1,
        "menuiserie": 1,
        "fenetres_velux": 1,
        "couverture_toiture": 1,
        "facade_peinture": 0,
        "portes_volets": 1,
        "piscine": 1,
        "vmc_ventilation": 0,
        "assainissement": 0
      },
      "revenus": {
        "revenu_median": 20220.0,
        "part_menages_imposes": null,
        "taux_pauvrete": null
      },
      "aides_etat": {
        "zone_climatique": "H2",
        "qpv": false,
        "action_coeur_de_ville": false,
        "petites_villes_de_demain": false
      }
    },
    {
      "code_insee": "23008",
      "nom": "Aubusson",
      "nom_a": null,
      "nom_de": null,
      "slug": "aubusson",
      "code_postal": "23200",
      "population": 3108,
      "superficie_km2": 19.0,
      "latitude": 45.9510002,
      "longitude": 2.1659999,
      "villes_proches": [
        {
          "code_insee": "23079",
          "nom": "Felletin",
          "slug": "felletin",
          "code_postal": "23500",
          "population": 1536,
          "superficie_km2": 14.0,
          "latitude": 45.8899994,
          "longitude": 2.1830001,
          "distance_km": 6.91
        },
        {
          "code_insee": "23001",
          "nom": "Ahun",
          "slug": "ahun",
          "code_postal": "23150",
          "population": 1433,
          "superficie_km2": 34.0,
          "latitude": 46.0859985,
          "longitude": 2.0239999,
          "distance_km": 18.59
        },
        {
          "code_insee": "23093",
          "nom": "Gouzon",
          "slug": "gouzon",
          "code_postal": "23230",
          "population": 1560,
          "superficie_km2": 51.0,
          "latitude": 46.1870003,
          "longitude": 2.2309999,
          "distance_km": 26.72
        },
        {
          "code_insee": "23013",
          "nom": "Auzances",
          "slug": "auzances",
          "code_postal": "23700",
          "population": 1177,
          "superficie_km2": 7.0,
          "latitude": 46.026001,
          "longitude": 2.507,
          "distance_km": 27.63
        },
        {
          "code_insee": "23193",
          "nom": "Sainte-Feyre",
          "slug": "sainte-feyre",
          "code_postal": "23000",
          "population": 2497,
          "superficie_km2": 30.0,
          "latitude": 46.1570015,
          "longitude": 1.913,
          "distance_km": 30.1
        },
        {
          "code_insee": "23002",
          "nom": "Ajain",
          "slug": "ajain",
          "code_postal": "23380",
          "population": 1032,
          "superficie_km2": 33.0,
          "latitude": 46.2109985,
          "longitude": 1.9960001,
          "distance_km": 31.74
        },
        {
          "code_insee": "23030",
          "nom": "Bourganeuf",
          "slug": "bourganeuf",
          "code_postal": "23400",
          "population": 2450,
          "superficie_km2": 22.0,
          "latitude": 45.9490013,
          "longitude": 1.749,
          "distance_km": 32.24
        },
        {
          "code_insee": "23096",
          "nom": "Guéret",
          "slug": "gueret",
          "code_postal": "23000",
          "population": 12840,
          "superficie_km2": 26.0,
          "latitude": 46.1629982,
          "longitude": 1.8710001,
          "distance_km": 32.77
        },
        {
          "code_insee": "87117",
          "nom": "Peyrat-le-Château",
          "slug": "peyrat-le-chateau",
          "code_postal": "87470",
          "population": 1030,
          "superficie_km2": 55.0,
          "latitude": 45.8079987,
          "longitude": 1.7819999,
          "distance_km": 33.71
        },
        {
          "code_insee": "23076",
          "nom": "Évaux-les-Bains",
          "slug": "evaux-les-bains",
          "code_postal": "23110",
          "population": 1291,
          "superficie_km2": 45.0,
          "latitude": 46.1689987,
          "longitude": 2.4990001,
          "distance_km": 35.32
        },
        {
          "code_insee": "23195",
          "nom": "Saint-Fiel",
          "slug": "saint-fiel",
          "code_postal": "23000",
          "population": 1061,
          "superficie_km2": 17.0,
          "latitude": 46.2130013,
          "longitude": 1.895,
          "distance_km": 35.86
        },
        {
          "code_insee": "23189",
          "nom": "Saint-Dizier-Masbaraud",
          "slug": "saint-dizier-masbaraud",
          "code_postal": "23400",
          "population": 1125,
          "superficie_km2": 47.0,
          "latitude": 46.0270004,
          "longitude": 1.705,
          "distance_km": 36.6
        },
        {
          "code_insee": "23245",
          "nom": "Saint-Sulpice-le-Guérétois",
          "slug": "saint-sulpice-le-gueretois",
          "code_postal": "23000",
          "population": 1911,
          "superficie_km2": 36.0,
          "latitude": 46.2019997,
          "longitude": 1.8279999,
          "distance_km": 38.19
        },
        {
          "code_insee": "87064",
          "nom": "Eymoutiers",
          "slug": "eymoutiers",
          "code_postal": "87120",
          "population": 2094,
          "superficie_km2": 70.0,
          "latitude": 45.7109985,
          "longitude": 1.74,
          "distance_km": 42.44
        },
        {
          "code_insee": "23247",
          "nom": "Saint-Vaury",
          "slug": "saint-vaury",
          "code_postal": "23320",
          "population": 1732,
          "superficie_km2": 47.0,
          "latitude": 46.2000008,
          "longitude": 1.749,
          "distance_km": 42.44
        },
        {
          "code_insee": "19136",
          "nom": "Meymac",
          "slug": "meymac",
          "code_postal": "19250",
          "population": 2279,
          "superficie_km2": 87.0,
          "latitude": 45.5540009,
          "longitude": 2.1400001,
          "distance_km": 44.19
        },
        {
          "code_insee": "63281",
          "nom": "Pionsat",
          "slug": "pionsat",
          "code_postal": "63330",
          "population": 1050,
          "superficie_km2": 25.0,
          "latitude": 46.1199989,
          "longitude": 2.6849999,
          "distance_km": 44.25
        },
        {
          "code_insee": "23031",
          "nom": "Boussac",
          "slug": "boussac",
          "code_postal": "23600",
          "population": 1242,
          "superficie_km2": 2.0,
          "latitude": 46.3479996,
          "longitude": 2.2230001,
          "distance_km": 44.36
        },
        {
          "code_insee": "23025",
          "nom": "Bonnat",
          "slug": "bonnat",
          "code_postal": "23220",
          "population": 1352,
          "superficie_km2": 46.0,
          "latitude": 46.3230019,
          "longitude": 1.914,
          "distance_km": 45.7
        },
        {
          "code_insee": "23095",
          "nom": "Le Grand-Bourg",
          "slug": "le-grand-bourg",
          "code_postal": "23240",
          "population": 1195,
          "superficie_km2": 79.0,
          "latitude": 46.1599999,
          "longitude": 1.655,
          "distance_km": 45.77
        }
      ],
      "zonage_abc": "C",
      "reclassement_abc": "Non",
      "codes_postaux": [
        {
          "code_postal": "23200",
          "libelle_acheminement": "AUBUSSON"
        }
      ],
      "logement": {
        "logements_total": 2723,
        "residences_principales": 1745,
        "logements_vacants": 747,
        "residences_secondaires": 231,
        "maisons": 1327,
        "appartements": 1382,
        "proprietaires": 797,
        "locataires": 896,
        "hlm": 379,
        "construits_avant_1919": 298,
        "construits_1919_1945": 238,
        "construits_1946_1970": 495,
        "construits_1971_1990": 606,
        "construits_1991_2005": 65,
        "construits_2006_2019": 42,
        "chauffage_electrique": 424,
        "chauffage_fioul": 166,
        "chauffage_gaz_ville": 981,
        "chauffage_gaz_bouteille": 17,
        "chauffage_autre": 157,
        "menages": 1745,
        "logements_avant_1990": 1637
      },
      "artisans": {
        "monte_escalier": 0,
        "chauffage_pac_clim": 6,
        "isolation": 3,
        "menuiserie": 5,
        "fenetres_velux": 5,
        "couverture_toiture": 1,
        "facade_peinture": 5,
        "portes_volets": 5,
        "piscine": 1,
        "vmc_ventilation": 5,
        "assainissement": 3
      },
      "revenus": {
        "revenu_median": 18620.0,
        "part_menages_imposes": 34.0,
        "taux_pauvrete": 24.0
      },
      "aides_etat": {
        "zone_climatique": "H2",
        "qpv": false,
        "action_coeur_de_ville": false,
        "petites_villes_de_demain": true
      }
    },
    {
      "code_insee": "23009",
      "nom": "Auge",
      "nom_a": null,
      "nom_de": null,
      "slug": "auge",
      "code_postal": "23170",
      "population": 92,
      "superficie_km2": 1001.4,
      "latitude": 46.2365,
      "longitude": 2.3295,
      "villes_proches": [
        {
          "code_insee": "23259",
          "nom": "Verneiges",
          "slug": "verneiges",
          "code_postal": "23170",
          "population": 119,
          "superficie_km2": 764.63,
          "latitude": 46.2643,
          "longitude": 2.3387,
          "distance_km": 3.17
        },
        {
          "code_insee": "23026",
          "nom": "Bord-Saint-Georges",
          "slug": "bord-saint-georges",
          "code_postal": "23230",
          "population": 368,
          "superficie_km2": 3244.63,
          "latitude": 46.2481,
          "longitude": 2.2854,
          "distance_km": 3.63
        },
        {
          "code_insee": "23106",
          "nom": "Lépaud",
          "slug": "lepaud",
          "code_postal": "23170",
          "population": 359,
          "superficie_km2": 2413.61,
          "latitude": 46.2286,
          "longitude": 2.3845,
          "distance_km": 4.32
        },
        {
          "code_insee": "23114",
          "nom": "Lussat",
          "slug": "lussat",
          "code_postal": "23170",
          "population": 416,
          "superficie_km2": 4854.82,
          "latitude": 46.1881,
          "longitude": 2.3284,
          "distance_km": 5.38
        },
        {
          "code_insee": "23255",
          "nom": "Trois-Fonds",
          "slug": "trois-fonds",
          "code_postal": "23230",
          "population": 141,
          "superficie_km2": 965.74,
          "latitude": 46.2398,
          "longitude": 2.2362,
          "distance_km": 7.19
        },
        {
          "code_insee": "23145",
          "nom": "Nouhant",
          "slug": "nouhant",
          "code_postal": "23170",
          "population": 313,
          "superficie_km2": 2570.25,
          "latitude": 46.2924,
          "longitude": 2.3901,
          "distance_km": 7.77
        },
        {
          "code_insee": "23174",
          "nom": "Soumans",
          "slug": "soumans",
          "code_postal": "23600",
          "population": 611,
          "superficie_km2": 3677.15,
          "latitude": 46.3086,
          "longitude": 2.3359,
          "distance_km": 8.03
        },
        {
          "code_insee": "23045",
          "nom": "Chambon-sur-Voueize",
          "slug": "chambon-sur-voueize",
          "code_postal": "23170",
          "population": 794,
          "superficie_km2": 3387.15,
          "latitude": 46.1927,
          "longitude": 2.4131,
          "distance_km": 8.07
        },
        {
          "code_insee": "23104",
          "nom": "Lavaufranche",
          "slug": "lavaufranche",
          "code_postal": "23600",
          "population": 232,
          "superficie_km2": 1617.98,
          "latitude": 46.305,
          "longitude": 2.2738,
          "distance_km": 8.74
        },
        {
          "code_insee": "23040",
          "nom": "La Celle-sous-Gouzon",
          "slug": "la-celle-sous-gouzon",
          "code_postal": "23230",
          "population": 162,
          "superficie_km2": 1418.76,
          "latitude": 46.2211,
          "longitude": 2.2082,
          "distance_km": 9.49
        },
        {
          "code_insee": "23261",
          "nom": "Viersat",
          "slug": "viersat",
          "code_postal": "23170",
          "population": 278,
          "superficie_km2": 2934.59,
          "latitude": 46.2628,
          "longitude": 2.4473,
          "distance_km": 9.52
        },
        {
          "code_insee": "23093",
          "nom": "Gouzon",
          "slug": "gouzon",
          "code_postal": "23230",
          "population": 1558,
          "superficie_km2": 5065.56,
          "latitude": 46.1901,
          "longitude": 2.2193,
          "distance_km": 9.93
        },
        {
          "code_insee": "23209",
          "nom": "Saint-Loup",
          "slug": "saint-loup",
          "code_postal": "23130",
          "population": 201,
          "superficie_km2": 1888.02,
          "latitude": 46.1471,
          "longitude": 2.2827,
          "distance_km": 10.57
        },
        {
          "code_insee": "23254",
          "nom": "Toulx-Sainte-Croix",
          "slug": "toulx-sainte-croix",
          "code_postal": "23600",
          "population": 252,
          "superficie_km2": 3516.97,
          "latitude": 46.2884,
          "longitude": 2.2133,
          "distance_km": 10.63
        },
        {
          "code_insee": "23251",
          "nom": "Tardes",
          "slug": "tardes",
          "code_postal": "23170",
          "population": 119,
          "superficie_km2": 2160.27,
          "latitude": 46.1419,
          "longitude": 2.359,
          "distance_km": 10.76
        },
        {
          "code_insee": "03136",
          "nom": "Lamaids",
          "slug": "lamaids",
          "code_postal": "03380",
          "population": 210,
          "superficie_km2": 772.99,
          "latitude": 46.302,
          "longitude": 2.441,
          "distance_km": 11.25
        },
        {
          "code_insee": "03288",
          "nom": "Treignat",
          "slug": "treignat",
          "code_postal": "03380",
          "population": 434,
          "superficie_km2": 2934.97,
          "latitude": 46.3469,
          "longitude": 2.3458,
          "distance_km": 12.34
        },
        {
          "code_insee": "23204",
          "nom": "Saint-Julien-le-Châtel",
          "slug": "saint-julien-le-chatel",
          "code_postal": "23130",
          "population": 158,
          "superficie_km2": 1535.13,
          "latitude": 46.122,
          "longitude": 2.2707,
          "distance_km": 13.51
        },
        {
          "code_insee": "23108",
          "nom": "Leyrat",
          "slug": "leyrat",
          "code_postal": "23600",
          "population": 143,
          "superficie_km2": 1840.72,
          "latitude": 46.3564,
          "longitude": 2.2985,
          "distance_km": 13.54
        },
        {
          "code_insee": "23058",
          "nom": "Le Chauchet",
          "slug": "le-chauchet",
          "code_postal": "23130",
          "population": 102,
          "superficie_km2": 1069.01,
          "latitude": 46.1097,
          "longitude": 2.3314,
          "distance_km": 14.1
        }
      ],
      "zonage_abc": "C",
      "reclassement_abc": "Non",
      "codes_postaux": [
        {
          "code_postal": "23170",
          "libelle_acheminement": "AUGE"
        }
      ],
      "logement": {
        "logements_total": 86,
        "residences_principales": 48,
        "logements_vacants": 17,
        "residences_secondaires": 21,
        "maisons": 86,
        "appartements": 0,
        "proprietaires": 43,
        "locataires": 4,
        "hlm": 0,
        "construits_avant_1919": 14,
        "construits_1919_1945": 12,
        "construits_1946_1970": 9,
        "construits_1971_1990": 8,
        "construits_1991_2005": 4,
        "construits_2006_2019": 0,
        "chauffage_electrique": 6,
        "chauffage_fioul": 9,
        "chauffage_gaz_ville": 0,
        "chauffage_gaz_bouteille": 0,
        "chauffage_autre": 33,
        "menages": 48,
        "logements_avant_1990": 43
      },
      "artisans": {
        "monte_escalier": 0,
        "chauffage_pac_clim": 0,
        "isolation": 0,
        "menuiserie": 0,
        "fenetres_velux": 0,
        "couverture_toiture": 0,
        "facade_peinture": 1,
        "portes_volets": 0,
        "piscine": 0,
        "vmc_ventilation": 0,
        "assainissement": 1
      },
      "revenus": {
        "revenu_median": null,
        "part_menages_imposes": null,
        "taux_pauvrete": null
      },
      "aides_etat": {
        "zone_climatique": "H2",
        "qpv": false,
        "action_coeur_de_ville": false,
        "petites_villes_de_demain": false
      }
    },
    {
      "code_insee": "23010",
      "nom": "Augères",
      "nom_a": null,
      "nom_de": null,
      "slug": "augeres",
      "code_postal": "23210",
      "population": 117,
      "superficie_km2": 1250.91,
      "latitude": 46.0781,
      "longitude": 1.7281,
      "villes_proches": [
        {
          "code_insee": "23011",
          "nom": "Aulon",
          "slug": "aulon",
          "code_postal": "23210",
          "population": 163,
          "superficie_km2": 1075.94,
          "latitude": 46.0894,
          "longitude": 1.6961,
          "distance_km": 2.77
        },
        {
          "code_insee": "23014",
          "nom": "Azat-Châtenet",
          "slug": "azat-chatenet",
          "code_postal": "23210",
          "population": 108,
          "superficie_km2": 941.57,
          "latitude": 46.0887,
          "longitude": 1.7712,
          "distance_km": 3.53
        },
        {
          "code_insee": "23132",
          "nom": "Montaigut-le-Blanc",
          "slug": "montaigut-le-blanc",
          "code_postal": "23320",
          "population": 370,
          "superficie_km2": 1741.52,
          "latitude": 46.1187,
          "longitude": 1.7308,
          "distance_km": 4.52
        },
        {
          "code_insee": "23042",
          "nom": "Ceyroux",
          "slug": "ceyroux",
          "code_postal": "23210",
          "population": 121,
          "superficie_km2": 1230.31,
          "latitude": 46.0559,
          "longitude": 1.669,
          "distance_km": 5.18
        },
        {
          "code_insee": "23099",
          "nom": "Janaillat",
          "slug": "janaillat",
          "code_postal": "23250",
          "population": 317,
          "superficie_km2": 2853.69,
          "latitude": 46.0454,
          "longitude": 1.7766,
          "distance_km": 5.22
        },
        {
          "code_insee": "23137",
          "nom": "Mourioux-Vieilleville",
          "slug": "mourioux-vieilleville",
          "code_postal": "23210",
          "population": 521,
          "superficie_km2": 2509.65,
          "latitude": 46.0761,
          "longitude": 1.6427,
          "distance_km": 6.59
        },
        {
          "code_insee": "23191",
          "nom": "Saint-Éloi",
          "slug": "saint-eloi",
          "code_postal": "23000",
          "population": 175,
          "superficie_km2": 1567.41,
          "latitude": 46.0811,
          "longitude": 1.8195,
          "distance_km": 7.06
        },
        {
          "code_insee": "23248",
          "nom": "Saint-Victor-en-Marche",
          "slug": "saint-victor-en-marche",
          "code_postal": "23000",
          "population": 359,
          "superficie_km2": 1651.89,
          "latitude": 46.1226,
          "longitude": 1.8012,
          "distance_km": 7.5
        },
        {
          "code_insee": "23242",
          "nom": "Saint-Silvain-Montaigut",
          "slug": "saint-silvain-montaigut",
          "code_postal": "23320",
          "population": 194,
          "superficie_km2": 967.43,
          "latitude": 46.142,
          "longitude": 1.7612,
          "distance_km": 7.55
        },
        {
          "code_insee": "23088",
          "nom": "Gartempe",
          "slug": "gartempe",
          "code_postal": "23320",
          "population": 113,
          "superficie_km2": 959.13,
          "latitude": 46.1517,
          "longitude": 1.7282,
          "distance_km": 8.18
        },
        {
          "code_insee": "23189",
          "nom": "Saint-Dizier-Masbaraud",
          "slug": "saint-dizier-masbaraud",
          "code_postal": "23400",
          "population": 1143,
          "superficie_km2": 6713.74,
          "latitude": 46.0049,
          "longitude": 1.7149,
          "distance_km": 8.2
        },
        {
          "code_insee": "23027",
          "nom": "Bosmoreau-les-Mines",
          "slug": "bosmoreau-les-mines",
          "code_postal": "23400",
          "population": 230,
          "superficie_km2": 903.28,
          "latitude": 46.0034,
          "longitude": 1.7533,
          "distance_km": 8.53
        },
        {
          "code_insee": "23021",
          "nom": "Bénévent-l'Abbaye",
          "slug": "benevent-l-abbaye",
          "code_postal": "23210",
          "population": 769,
          "superficie_km2": 1176.99,
          "latitude": 46.1209,
          "longitude": 1.6351,
          "distance_km": 8.61
        },
        {
          "code_insee": "23052",
          "nom": "La Chapelle-Taillefert",
          "slug": "la-chapelle-taillefert",
          "code_postal": "23000",
          "population": 448,
          "superficie_km2": 1410.46,
          "latitude": 46.1155,
          "longitude": 1.8304,
          "distance_km": 8.92
        },
        {
          "code_insee": "23253",
          "nom": "Thauron",
          "slug": "thauron",
          "code_postal": "23250",
          "population": 166,
          "superficie_km2": 2229.26,
          "latitude": 46.0032,
          "longitude": 1.8029,
          "distance_km": 10.13
        },
        {
          "code_insee": "23208",
          "nom": "Saint-Léger-le-Guérétois",
          "slug": "saint-leger-le-gueretois",
          "code_postal": "23000",
          "population": 401,
          "superficie_km2": 1409.69,
          "latitude": 46.1505,
          "longitude": 1.8144,
          "distance_km": 10.44
        },
        {
          "code_insee": "23033",
          "nom": "La Brionne",
          "slug": "la-brionne",
          "code_postal": "23000",
          "population": 448,
          "superficie_km2": 712.67,
          "latitude": 46.1653,
          "longitude": 1.79,
          "distance_km": 10.81
        },
        {
          "code_insee": "23056",
          "nom": "Châtelus-le-Marcheix",
          "slug": "chatelus-le-marcheix",
          "code_postal": "23430",
          "population": 336,
          "superficie_km2": 4359.34,
          "latitude": 46.0095,
          "longitude": 1.6264,
          "distance_km": 10.95
        },
        {
          "code_insee": "23095",
          "nom": "Le Grand-Bourg",
          "slug": "le-grand-bourg",
          "code_postal": "23240",
          "population": 1167,
          "superficie_km2": 7878.7,
          "latitude": 46.1626,
          "longitude": 1.6488,
          "distance_km": 11.21
        },
        {
          "code_insee": "23247",
          "nom": "Saint-Vaury",
          "slug": "saint-vaury",
          "code_postal": "23320",
          "population": 1718,
          "superficie_km2": 4690.03,
          "latitude": 46.1962,
          "longitude": 1.7422,
          "distance_km": 13.18
        }
      ],
      "zonage_abc": "C",
      "reclassement_abc": "Non",
      "codes_postaux": [
        {
          "code_postal": "23210",
          "libelle_acheminement": "AUGERES"
        }
      ],
      "logement": {
        "logements_total": 108,
        "residences_principales": 62,
        "logements_vacants": 17,
        "residences_secondaires": 29,
        "maisons": 106,
        "appartements": 0,
        "proprietaires": 50,
        "locataires": 11,
        "hlm": 0,
        "construits_avant_1919": 38,
        "construits_1919_1945": 12,
        "construits_1946_1970": 3,
        "construits_1971_1990": 2,
        "construits_1991_2005": 1,
        "construits_2006_2019": 2,
        "chauffage_electrique": 7,
        "chauffage_fioul": 11,
        "chauffage_gaz_ville": 0,
        "chauffage_gaz_bouteille": 1,
        "chauffage_autre": 41,
        "menages": 62,
        "logements_avant_1990": 55
      },
      "artisans": {
        "monte_escalier": 0,
        "chauffage_pac_clim": 0,
        "isolation": 0,
        "menuiserie": 0,
        "fenetres_velux": 0,
        "couverture_toiture": 0,
        "facade_peinture": 0,
        "portes_volets": 0,
        "piscine": 0,
        "vmc_ventilation": 0,
        "assainissement": 0
      },
      "revenus": {
        "revenu_median": 18950.0,
        "part_menages_imposes": null,
        "taux_pauvrete": null
      },
      "aides_etat": {
        "zone_climatique": "H2",
        "qpv": false,
        "action_coeur_de_ville": false,
        "petites_villes_de_demain": false
      }
    },
    {
      "code_insee": "23011",
      "nom": "Aulon",
      "nom_a": null,
      "nom_de": null,
      "slug": "aulon",
      "code_postal": "23210",
      "population": 163,
      "superficie_km2": 1075.94,
      "latitude": 46.0894,
      "longitude": 1.6961,
      "villes_proches": [
        {
          "code_insee": "23010",
          "nom": "Augères",
          "slug": "augeres",
          "code_postal": "23210",
          "population": 117,
          "superficie_km2": 1250.91,
          "latitude": 46.0781,
          "longitude": 1.7281,
          "distance_km": 2.77
        },
        {
          "code_insee": "23132",
          "nom": "Montaigut-le-Blanc",
          "slug": "montaigut-le-blanc",
          "code_postal": "23320",
          "population": 370,
          "superficie_km2": 1741.52,
          "latitude": 46.1187,
          "longitude": 1.7308,
          "distance_km": 4.22
        },
        {
          "code_insee": "23042",
          "nom": "Ceyroux",
          "slug": "ceyroux",
          "code_postal": "23210",
          "population": 121,
          "superficie_km2": 1230.31,
          "latitude": 46.0559,
          "longitude": 1.669,
          "distance_km": 4.27
        },
        {
          "code_insee": "23137",
          "nom": "Mourioux-Vieilleville",
          "slug": "mourioux-vieilleville",
          "code_postal": "23210",
          "population": 521,
          "superficie_km2": 2509.65,
          "latitude": 46.0761,
          "longitude": 1.6427,
          "distance_km": 4.38
        },
        {
          "code_insee": "23014",
          "nom": "Azat-Châtenet",
          "slug": "azat-chatenet",
          "code_postal": "23210",
          "population": 108,
          "superficie_km2": 941.57,
          "latitude": 46.0887,
          "longitude": 1.7712,
          "distance_km": 5.79
        },
        {
          "code_insee": "23021",
          "nom": "Bénévent-l'Abbaye",
          "slug": "benevent-l-abbaye",
          "code_postal": "23210",
          "population": 769,
          "superficie_km2": 1176.99,
          "latitude": 46.1209,
          "longitude": 1.6351,
          "distance_km": 5.86
        },
        {
          "code_insee": "23088",
          "nom": "Gartempe",
          "slug": "gartempe",
          "code_postal": "23320",
          "population": 113,
          "superficie_km2": 959.13,
          "latitude": 46.1517,
          "longitude": 1.7282,
          "distance_km": 7.36
        },
        {
          "code_insee": "23242",
          "nom": "Saint-Silvain-Montaigut",
          "slug": "saint-silvain-montaigut",
          "code_postal": "23320",
          "population": 194,
          "superficie_km2": 967.43,
          "latitude": 46.142,
          "longitude": 1.7612,
          "distance_km": 7.71
        },
        {
          "code_insee": "23099",
          "nom": "Janaillat",
          "slug": "janaillat",
          "code_postal": "23250",
          "population": 317,
          "superficie_km2": 2853.69,
          "latitude": 46.0454,
          "longitude": 1.7766,
          "distance_km": 7.91
        },
        {
          "code_insee": "23124",
          "nom": "Marsac",
          "slug": "marsac",
          "code_postal": "23210",
          "population": 643,
          "superficie_km2": 1944.89,
          "latitude": 46.0996,
          "longitude": 1.5849,
          "distance_km": 8.65
        },
        {
          "code_insee": "23248",
          "nom": "Saint-Victor-en-Marche",
          "slug": "saint-victor-en-marche",
          "code_postal": "23000",
          "population": 359,
          "superficie_km2": 1651.89,
          "latitude": 46.1226,
          "longitude": 1.8012,
          "distance_km": 8.9
        },
        {
          "code_insee": "23095",
          "nom": "Le Grand-Bourg",
          "slug": "le-grand-bourg",
          "code_postal": "23240",
          "population": 1167,
          "superficie_km2": 7878.7,
          "latitude": 46.1626,
          "longitude": 1.6488,
          "distance_km": 8.92
        },
        {
          "code_insee": "23189",
          "nom": "Saint-Dizier-Masbaraud",
          "slug": "saint-dizier-masbaraud",
          "code_postal": "23400",
          "population": 1143,
          "superficie_km2": 6713.74,
          "latitude": 46.0049,
          "longitude": 1.7149,
          "distance_km": 9.51
        },
        {
          "code_insee": "23191",
          "nom": "Saint-Éloi",
          "slug": "saint-eloi",
          "code_postal": "23000",
          "population": 175,
          "superficie_km2": 1567.41,
          "latitude": 46.0811,
          "longitude": 1.8195,
          "distance_km": 9.56
        },
        {
          "code_insee": "23006",
          "nom": "Arrènes",
          "slug": "arrenes",
          "code_postal": "23210",
          "population": 202,
          "superficie_km2": 2249.45,
          "latitude": 46.0714,
          "longitude": 1.5683,
          "distance_km": 10.06
        },
        {
          "code_insee": "23056",
          "nom": "Châtelus-le-Marcheix",
          "slug": "chatelus-le-marcheix",
          "code_postal": "23430",
          "population": 336,
          "superficie_km2": 4359.34,
          "latitude": 46.0095,
          "longitude": 1.6264,
          "distance_km": 10.39
        },
        {
          "code_insee": "23027",
          "nom": "Bosmoreau-les-Mines",
          "slug": "bosmoreau-les-mines",
          "code_postal": "23400",
          "population": 230,
          "superficie_km2": 903.28,
          "latitude": 46.0034,
          "longitude": 1.7533,
          "distance_km": 10.53
        },
        {
          "code_insee": "23033",
          "nom": "La Brionne",
          "slug": "la-brionne",
          "code_postal": "23000",
          "population": 448,
          "superficie_km2": 712.67,
          "latitude": 46.1653,
          "longitude": 1.79,
          "distance_km": 11.12
        },
        {
          "code_insee": "23247",
          "nom": "Saint-Vaury",
          "slug": "saint-vaury",
          "code_postal": "23320",
          "population": 1718,
          "superficie_km2": 4690.03,
          "latitude": 46.1962,
          "longitude": 1.7422,
          "distance_km": 12.4
        },
        {
          "code_insee": "23236",
          "nom": "Saint-Priest-la-Plaine",
          "slug": "saint-priest-la-plaine",
          "code_postal": "23240",
          "population": 258,
          "superficie_km2": 2187.63,
          "latitude": 46.2044,
          "longitude": 1.6313,
          "distance_km": 13.73
        }
      ],
      "zonage_abc": "C",
      "reclassement_abc": "Non",
      "codes_postaux": [
        {
          "code_postal": "23210",
          "libelle_acheminement": "AULON"
        }
      ],
      "logement": {
        "logements_total": 142,
        "residences_principales": 83,
        "logements_vacants": 15,
        "residences_secondaires": 43,
        "maisons": 141,
        "appartements": 0,
        "proprietaires": 71,
        "locataires": 9,
        "hlm": 0,
        "construits_avant_1919": 36,
        "construits_1919_1945": 14,
        "construits_1946_1970": 8,
        "construits_1971_1990": 11,
        "construits_1991_2005": 2,
        "construits_2006_2019": 12,
        "chauffage_electrique": 13,
        "chauffage_fioul": 27,
        "chauffage_gaz_ville": 0,
        "chauffage_gaz_bouteille": 4,
        "chauffage_autre": 39,
        "menages": 83,
        "logements_avant_1990": 69
      },
      "artisans": {
        "monte_escalier": 0,
        "chauffage_pac_clim": 0,
        "isolation": 0,
        "menuiserie": 1,
        "fenetres_velux": 1,
        "couverture_toiture": 0,
        "facade_peinture": 0,
        "portes_volets": 1,
        "piscine": 0,
        "vmc_ventilation": 0,
        "assainissement": 1
      },
      "revenus": {
        "revenu_median": 22670.0,
        "part_menages_imposes": null,
        "taux_pauvrete": null
      },
      "aides_etat": {
        "zone_climatique": "H2",
        "qpv": false,
        "action_coeur_de_ville": false,
        "petites_villes_de_demain": false
      }
    },
    {
      "code_insee": "23012",
      "nom": "Auriat",
      "nom_a": null,
      "nom_de": null,
      "slug": "auriat",
      "code_postal": "23400",
      "population": 122,
      "superficie_km2": 2172.22,
      "latitude": 45.8725,
      "longitude": 1.6309,
      "villes_proches": [
        {
          "code_insee": "23237",
          "nom": "Saint-Priest-Palus",
          "slug": "saint-priest-palus",
          "code_postal": "23400",
          "population": 51,
          "superficie_km2": 1064.08,
          "latitude": 45.8904,
          "longitude": 1.6762,
          "distance_km": 4.03
        },
        {
          "code_insee": "87043",
          "nom": "Cheissoux",
          "slug": "cheissoux",
          "code_postal": "87460",
          "population": 231,
          "superficie_km2": 1035.69,
          "latitude": 45.8297,
          "longitude": 1.637,
          "distance_km": 4.78
        },
        {
          "code_insee": "23223",
          "nom": "Saint-Moreil",
          "slug": "saint-moreil",
          "code_postal": "23400",
          "population": 229,
          "superficie_km2": 2425.01,
          "latitude": 45.8639,
          "longitude": 1.695,
          "distance_km": 5.05
        },
        {
          "code_insee": "87190",
          "nom": "Sauviat-sur-Vige",
          "slug": "sauviat-sur-vige",
          "code_postal": "87400",
          "population": 890,
          "superficie_km2": 3112.52,
          "latitude": 45.9077,
          "longitude": 1.5825,
          "distance_km": 5.42
        },
        {
          "code_insee": "87099",
          "nom": "Moissannes",
          "slug": "moissannes",
          "code_postal": "87400",
          "population": 328,
          "superficie_km2": 2441.43,
          "latitude": 45.8758,
          "longitude": 1.5569,
          "distance_km": 5.74
        },
        {
          "code_insee": "23181",
          "nom": "Saint-Amand-Jartoudeix",
          "slug": "saint-amand-jartoudeix",
          "code_postal": "23400",
          "population": 150,
          "superficie_km2": 1867.06,
          "latitude": 45.9208,
          "longitude": 1.6724,
          "distance_km": 6.26
        },
        {
          "code_insee": "87035",
          "nom": "Champnétery",
          "slug": "champnetery",
          "code_postal": "87400",
          "population": 512,
          "superficie_km2": 3037.8,
          "latitude": 45.8234,
          "longitude": 1.5845,
          "distance_km": 6.54
        },
        {
          "code_insee": "87153",
          "nom": "Saint-Julien-le-Petit",
          "slug": "saint-julien-le-petit",
          "code_postal": "87460",
          "population": 290,
          "superficie_km2": 2924.12,
          "latitude": 45.8209,
          "longitude": 1.707,
          "distance_km": 8.23
        },
        {
          "code_insee": "87024",
          "nom": "Bujaleuf",
          "slug": "bujaleuf",
          "code_postal": "87460",
          "population": 869,
          "superficie_km2": 4178.8,
          "latitude": 45.7937,
          "longitude": 1.6273,
          "distance_km": 8.77
        },
        {
          "code_insee": "23205",
          "nom": "Saint-Junien-la-Bregère",
          "slug": "saint-junien-la-bregere",
          "code_postal": "23400",
          "population": 144,
          "superficie_km2": 2550.94,
          "latitude": 45.8859,
          "longitude": 1.7434,
          "distance_km": 8.84
        },
        {
          "code_insee": "23133",
          "nom": "Montboucher",
          "slug": "montboucher",
          "code_postal": "23400",
          "population": 372,
          "superficie_km2": 2790.94,
          "latitude": 45.9453,
          "longitude": 1.6797,
          "distance_km": 8.93
        },
        {
          "code_insee": "23230",
          "nom": "Saint-Pierre-Chérignat",
          "slug": "saint-pierre-cherignat",
          "code_postal": "23430",
          "population": 164,
          "superficie_km2": 2358.76,
          "latitude": 45.9583,
          "longitude": 1.6137,
          "distance_km": 9.63
        },
        {
          "code_insee": "23217",
          "nom": "Saint-Martin-Sainte-Catherine",
          "slug": "saint-martin-sainte-catherine",
          "code_postal": "23430",
          "population": 330,
          "superficie_km2": 2715.11,
          "latitude": 45.9449,
          "longitude": 1.5569,
          "distance_km": 9.88
        },
        {
          "code_insee": "87042",
          "nom": "Le Châtenet-en-Dognon",
          "slug": "le-chatenet-en-dognon",
          "code_postal": "87400",
          "population": 407,
          "superficie_km2": 2026.21,
          "latitude": 45.9053,
          "longitude": 1.5025,
          "distance_km": 10.59
        },
        {
          "code_insee": "87161",
          "nom": "Saint-Léonard-de-Noblat",
          "slug": "saint-leonard-de-noblat",
          "code_postal": "87400",
          "population": 4366,
          "superficie_km2": 5558.15,
          "latitude": 45.8446,
          "longitude": 1.499,
          "distance_km": 10.68
        },
        {
          "code_insee": "87093",
          "nom": "Masléon",
          "slug": "masleon",
          "code_postal": "87130",
          "population": 291,
          "superficie_km2": 878.23,
          "latitude": 45.7686,
          "longitude": 1.5772,
          "distance_km": 12.28
        },
        {
          "code_insee": "87004",
          "nom": "Augne",
          "slug": "augne",
          "code_postal": "87120",
          "population": 126,
          "superficie_km2": 1783.71,
          "latitude": 45.7715,
          "longitude": 1.7007,
          "distance_km": 12.47
        },
        {
          "code_insee": "87142",
          "nom": "Saint-Denis-des-Murs",
          "slug": "saint-denis-des-murs",
          "code_postal": "87400",
          "population": 545,
          "superficie_km2": 2379.97,
          "latitude": 45.7804,
          "longitude": 1.533,
          "distance_km": 12.74
        },
        {
          "code_insee": "87105",
          "nom": "Neuvic-Entier",
          "slug": "neuvic-entier",
          "code_postal": "87130",
          "population": 865,
          "superficie_km2": 3986.52,
          "latitude": 45.7382,
          "longitude": 1.6458,
          "distance_km": 14.98
        },
        {
          "code_insee": "23056",
          "nom": "Châtelus-le-Marcheix",
          "slug": "chatelus-le-marcheix",
          "code_postal": "23430",
          "population": 336,
          "superficie_km2": 4359.34,
          "latitude": 46.0095,
          "longitude": 1.6264,
          "distance_km": 15.24
        }
      ],
      "zonage_abc": "C",
      "reclassement_abc": "Non",
      "codes_postaux": [
        {
          "code_postal": "23400",
          "libelle_acheminement": "AURIAT"
        }
      ],
      "logement": {
        "logements_total": 138,
        "residences_principales": 60,
        "logements_vacants": 14,
        "residences_secondaires": 63,
        "maisons": 135,
        "appartements": 2,
        "proprietaires": 51,
        "locataires": 7,
        "hlm": 0,
        "construits_avant_1919": 38,
        "construits_1919_1945": 7,
        "construits_1946_1970": 6,
        "construits_1971_1990": 6,
        "construits_1991_2005": 0,
        "construits_2006_2019": 1,
        "chauffage_electrique": 9,
        "chauffage_fioul": 6,
        "chauffage_gaz_ville": 0,
        "chauffage_gaz_bouteille": 1,
        "chauffage_autre": 42,
        "menages": 60,
        "logements_avant_1990": 57
      },
      "artisans": {
        "monte_escalier": 0,
        "chauffage_pac_clim": 0,
        "isolation": 0,
        "menuiserie": 0,
        "fenetres_velux": 0,
        "couverture_toiture": 0,
        "facade_peinture": 0,
        "portes_volets": 0,
        "piscine": 0,
        "vmc_ventilation": 0,
        "assainissement": 0
      },
      "revenus": {
        "revenu_median": 18850.0,
        "part_menages_imposes": null,
        "taux_pauvrete": null
      },
      "aides_etat": {
        "zone_climatique": "H2",
        "qpv": false,
        "action_coeur_de_ville": false,
        "petites_villes_de_demain": false
      }
    },
    {
      "code_insee": "23013",
      "nom": "Auzances",
      "nom_a": null,
      "nom_de": null,
      "slug": "auzances",
      "code_postal": "23700",
      "population": 1177,
      "superficie_km2": 7.0,
      "latitude": 46.026001,
      "longitude": 2.507,
      "villes_proches": [
        {
          "code_insee": "23076",
          "nom": "Évaux-les-Bains",
          "slug": "evaux-les-bains",
          "code_postal": "23110",
          "population": 1291,
          "superficie_km2": 45.0,
          "latitude": 46.1689987,
          "longitude": 2.4990001,
          "distance_km": 15.91
        },
        {
          "code_insee": "63281",
          "nom": "Pionsat",
          "slug": "pionsat",
          "code_postal": "63330",
          "population": 1050,
          "superficie_km2": 25.0,
          "latitude": 46.1199989,
          "longitude": 2.6849999,
          "distance_km": 17.26
        },