{
  "departement": {
    "code": "24",
    "nom": "Dordogne",
    "slug": "dordogne",
    "population_totale": 415227
  },
  "region": {
    "id": 16,
    "code": "15",
    "nom": "Nouvelle-Aquitaine",
    "slug": "nouvelle-aquitaine"
  },
  "voisins": [
    {
      "dep_code": "16",
      "dep_nom": "Charente",
      "dep_slug": "charente"
    },
    {
      "dep_code": "17",
      "dep_nom": "Charente-Maritime",
      "dep_slug": "charente-maritime"
    },
    {
      "dep_code": "19",
      "dep_nom": "Corrèze",
      "dep_slug": "correze"
    },
    {
      "dep_code": "23",
      "dep_nom": "Creuse",
      "dep_slug": "creuse"
    }
  ],
  "communes_count": 503,
  "communes": [
    {
      "code_insee": "24001",
      "nom": "Abjat-sur-Bandiat",
      "nom_a": null,
      "nom_de": null,
      "slug": "abjat-sur-bandiat",
      "code_postal": "24300",
      "population": 639,
      "superficie_km2": 2876.83,
      "latitude": 45.5825,
      "longitude": 0.7655,
      "villes_proches": [
        {
          "code_insee": "24101",
          "nom": "Champs-Romain",
          "slug": "champs-romain",
          "code_postal": "24470",
          "population": 291,
          "superficie_km2": 2090.46,
          "latitude": 45.5434,
          "longitude": 0.7633,
          "distance_km": 4.35
        },
        {
          "code_insee": "24016",
          "nom": "Augignac",
          "slug": "augignac",
          "code_postal": "24300",
          "population": 820,
          "superficie_km2": 2334.94,
          "latitude": 45.5832,
          "longitude": 0.7031,
          "distance_km": 4.86
        },
        {
          "code_insee": "24525",
          "nom": "Savignac-de-Nontron",
          "slug": "savignac-de-nontron",
          "code_postal": "24300",
          "population": 211,
          "superficie_km2": 1008.22,
          "latitude": 45.5475,
          "longitude": 0.7204,
          "distance_km": 5.24
        },
        {
          "code_insee": "87115",
          "nom": "Pensol",
          "slug": "pensol",
          "code_postal": "87440",
          "population": 186,
          "superficie_km2": 1493.97,
          "latitude": 45.6012,
          "longitude": 0.8288,
          "distance_km": 5.35
        },
        {
          "code_insee": "87092",
          "nom": "Marval",
          "slug": "marval",
          "code_postal": "87440",
          "population": 499,
          "superficie_km2": 3880.54,
          "latitude": 45.6363,
          "longitude": 0.8003,
          "distance_km": 6.57
        },
        {
          "code_insee": "24381",
          "nom": "Saint-Barthélemy-de-Bussière",
          "slug": "saint-barthelemy-de-bussiere",
          "code_postal": "24360",
          "population": 219,
          "superficie_km2": 1546.17,
          "latitude": 45.6417,
          "longitude": 0.7479,
          "distance_km": 6.72
        },
        {
          "code_insee": "24328",
          "nom": "Piégut-Pluviers",
          "slug": "piegut-pluviers",
          "code_postal": "24360",
          "population": 1180,
          "superficie_km2": 1868.82,
          "latitude": 45.6333,
          "longitude": 0.7026,
          "distance_km": 7.47
        },
        {
          "code_insee": "24498",
          "nom": "Saint-Saud-Lacoussière",
          "slug": "saint-saud-lacoussiere",
          "code_postal": "24470",
          "population": 820,
          "superficie_km2": 6003.7,
          "latitude": 45.5348,
          "longitude": 0.8338,
          "distance_km": 7.51
        },
        {
          "code_insee": "24311",
          "nom": "Nontron",
          "slug": "nontron",
          "code_postal": "24300",
          "population": 3057,
          "superficie_km2": 2563.46,
          "latitude": 45.5337,
          "longitude": 0.6823,
          "distance_km": 8.45
        },
        {
          "code_insee": "24398",
          "nom": "Saint-Estèphe",
          "slug": "saint-estephe",
          "code_postal": "24360",
          "population": 583,
          "superficie_km2": 2216.13,
          "latitude": 45.6063,
          "longitude": 0.6578,
          "distance_km": 8.79
        },
        {
          "code_insee": "24479",
          "nom": "Saint-Pardoux-la-Rivière",
          "slug": "saint-pardoux-la-riviere",
          "code_postal": "24470",
          "population": 1166,
          "superficie_km2": 2327.23,
          "latitude": 45.5036,
          "longitude": 0.7552,
          "distance_km": 8.81
        },
        {
          "code_insee": "87037",
          "nom": "La Chapelle-Montbrandeix",
          "slug": "la-chapelle-montbrandeix",
          "code_postal": "87440",
          "population": 263,
          "superficie_km2": 2001.25,
          "latitude": 45.6409,
          "longitude": 0.8523,
          "distance_km": 9.37
        },
        {
          "code_insee": "24056",
          "nom": "Le Bourdeix",
          "slug": "le-bourdeix",
          "code_postal": "24300",
          "population": 246,
          "superficie_km2": 1161.31,
          "latitude": 45.5813,
          "longitude": 0.6362,
          "distance_km": 10.06
        },
        {
          "code_insee": "24100",
          "nom": "Champniers-et-Reilhac",
          "slug": "champniers-et-reilhac",
          "code_postal": "24360",
          "population": 541,
          "superficie_km2": 2117.83,
          "latitude": 45.6703,
          "longitude": 0.7275,
          "distance_km": 10.2
        },
        {
          "code_insee": "24269",
          "nom": "Mialet",
          "slug": "mialet",
          "code_postal": "24450",
          "population": 628,
          "superficie_km2": 3847.04,
          "latitude": 45.5725,
          "longitude": 0.9007,
          "distance_km": 10.58
        },
        {
          "code_insee": "24458",
          "nom": "Saint-Martin-le-Pin",
          "slug": "saint-martin-le-pin",
          "code_postal": "24300",
          "population": 279,
          "superficie_km2": 1600.69,
          "latitude": 45.5521,
          "longitude": 0.6307,
          "distance_km": 11.02
        },
        {
          "code_insee": "24271",
          "nom": "Milhac-de-Nontron",
          "slug": "milhac-de-nontron",
          "code_postal": "24470",
          "population": 520,
          "superficie_km2": 3589.48,
          "latitude": 45.476,
          "longitude": 0.7902,
          "distance_km": 12.0
        },
        {
          "code_insee": "24528",
          "nom": "Sceau-Saint-Angel",
          "slug": "sceau-saint-angel",
          "code_postal": "24300",
          "population": 125,
          "superficie_km2": 1803.33,
          "latitude": 45.4819,
          "longitude": 0.6755,
          "distance_km": 13.2
        },
        {
          "code_insee": "87168",
          "nom": "Saint-Mathieu",
          "slug": "saint-mathieu",
          "code_postal": "87440",
          "population": 1085,
          "superficie_km2": 4080.69,
          "latitude": 45.7044,
          "longitude": 0.7724,
          "distance_km": 13.57
        },
        {
          "code_insee": "24410",
          "nom": "Saint-Front-la-Rivière",
          "slug": "saint-front-la-riviere",
          "code_postal": "24300",
          "population": 511,
          "superficie_km2": 1845.06,
          "latitude": 45.4636,
          "longitude": 0.7185,
          "distance_km": 13.72
        }
      ],
      "zonage_abc": "C",
      "reclassement_abc": "Non",
      "codes_postaux": [
        {
          "code_postal": "24300",
          "libelle_acheminement": "ABJAT SUR BANDIAT"
        }
      ],
      "logement": {
        "logements_total": 556,
        "residences_principales": 322,
        "logements_vacants": 43,
        "residences_secondaires": 191,
        "maisons": 515,
        "appartements": 6,
        "proprietaires": 252,
        "locataires": 62,
        "hlm": 1,
        "construits_avant_1919": 91,
        "construits_1919_1945": 30,
        "construits_1946_1970": 64,
        "construits_1971_1990": 67,
        "construits_1991_2005": 31,
        "construits_2006_2019": 34,
        "chauffage_electrique": 76,
        "chauffage_fioul": 58,
        "chauffage_gaz_ville": 5,
        "chauffage_gaz_bouteille": 18,
        "chauffage_autre": 165,
        "menages": 322,
        "logements_avant_1990": 252
      },
      "artisans": {
        "monte_escalier": 0,
        "chauffage_pac_clim": 2,
        "isolation": 0,
        "menuiserie": 2,
        "fenetres_velux": 2,
        "couverture_toiture": 1,
        "facade_peinture": 1,
        "portes_volets": 2,
        "piscine": 0,
        "vmc_ventilation": 2,
        "assainissement": 0
      },
      "revenus": {
        "revenu_median": 19960.0,
        "part_menages_imposes": null,
        "taux_pauvrete": null
      },
      "aides_etat": {
        "zone_climatique": "H2",
        "qpv": false,
        "action_coeur_de_ville": false,
        "petites_villes_de_demain": false
      }
    },
    {
      "code_insee": "24002",
      "nom": "Agonac",
      "nom_a": null,
      "nom_de": null,
      "slug": "agonac",
      "code_postal": "24460",
      "population": 1796,
      "superficie_km2": 38.0,
      "latitude": 45.2820015,
      "longitude": 0.745,
      "villes_proches": [
        {
          "code_insee": "24115",
          "nom": "Château-l'Évêque",
          "slug": "chateau-l-eveque",
          "code_postal": "24460",
          "population": 2151,
          "superficie_km2": 37.0,
          "latitude": 45.2579994,
          "longitude": 0.686,
          "distance_km": 5.33
        },
        {
          "code_insee": "24098",
          "nom": "Champcevinel",
          "slug": "champcevinel",
          "code_postal": "24750",
          "population": 3029,
          "superficie_km2": 18.0,
          "latitude": 45.2210007,
          "longitude": 0.725,
          "distance_km": 6.96
        },
        {
          "code_insee": "24540",
          "nom": "Sorges et Ligueux en Périgord",
          "slug": "sorges-et-ligueux-en-perigord",
          "code_postal": "24420",
          "population": 1612,
          "superficie_km2": 49.0,
          "latitude": 45.2919998,
          "longitude": 0.85,
          "distance_km": 8.29
        },
        {
          "code_insee": "24557",
          "nom": "Trélissac",
          "slug": "trelissac",
          "code_postal": "24750",
          "population": 7268,
          "superficie_km2": 24.0,
          "latitude": 45.2099991,
          "longitude": 0.778,
          "distance_km": 8.41
        },
        {
          "code_insee": "24011",
          "nom": "Antonne-et-Trigonant",
          "slug": "antonne-et-trigonant",
          "code_postal": "24420",
          "population": 1257,
          "superficie_km2": 21.0,
          "latitude": 45.2299995,
          "longitude": 0.832,
          "distance_km": 8.93
        },
        {
          "code_insee": "24322",
          "nom": "Périgueux",
          "slug": "perigueux",
          "code_postal": "24000",
          "population": 29516,
          "superficie_km2": 10.0,
          "latitude": 45.1920013,
          "longitude": 0.712,
          "distance_km": 10.34
        },
        {
          "code_insee": "24521",
          "nom": "Sarliac-sur-l'Isle",
          "slug": "sarliac-sur-l-isle",
          "code_postal": "24420",
          "population": 1037,
          "superficie_km2": 10.0,
          "latitude": 45.2400017,
          "longitude": 0.866,
          "distance_km": 10.56
        },
        {
          "code_insee": "24102",
          "nom": "Chancelade",
          "slug": "chancelade",
          "code_postal": "24650",
          "population": 4435,
          "superficie_km2": 17.0,
          "latitude": 45.2099991,
          "longitude": 0.655,
          "distance_km": 10.67
        },
        {
          "code_insee": "24064",
          "nom": "Brantôme en Périgord",
          "slug": "brantome-en-perigord",
          "code_postal": "24310",
          "population": 3721,
          "superficie_km2": 36.0,
          "latitude": 45.3600006,
          "longitude": 0.656,
          "distance_km": 11.12
        },
        {
          "code_insee": "24108",
          "nom": "La Chapelle-Gonaguet",
          "slug": "la-chapelle-gonaguet",
          "code_postal": "24350",
          "population": 1067,
          "superficie_km2": 20.0,
          "latitude": 45.2299995,
          "longitude": 0.619,
          "distance_km": 11.43
        },
        {
          "code_insee": "24053",
          "nom": "Boulazac Isle Manoire",
          "slug": "boulazac-isle-manoire",
          "code_postal": "24750",
          "population": 10697,
          "superficie_km2": 15.0,
          "latitude": 45.1739998,
          "longitude": 0.769,
          "distance_km": 12.16
        },
        {
          "code_insee": "24026",
          "nom": "Bassillac et Auberoche",
          "slug": "bassillac-et-auberoche",
          "code_postal": "24330",
          "population": 4363,
          "superficie_km2": 19.0,
          "latitude": 45.1790009,
          "longitude": 0.821,
          "distance_km": 12.91
        },
        {
          "code_insee": "24256",
          "nom": "Marsac-sur-l'Isle",
          "slug": "marsac-sur-l-isle",
          "code_postal": "24430",
          "population": 3143,
          "superficie_km2": 10.0,
          "latitude": 45.1819992,
          "longitude": 0.652,
          "distance_km": 13.29
        },
        {
          "code_insee": "24138",
          "nom": "Coulounieix-Chamiers",
          "slug": "coulounieix-chamiers",
          "code_postal": "24660",
          "population": 7245,
          "superficie_km2": 21.0,
          "latitude": 45.1650009,
          "longitude": 0.688,
          "distance_km": 13.75
        },
        {
          "code_insee": "24266",
          "nom": "Mensignac",
          "slug": "mensignac",
          "code_postal": "24350",
          "population": 1520,
          "superficie_km2": 26.0,
          "latitude": 45.2210007,
          "longitude": 0.559,
          "distance_km": 16.06
        },
        {
          "code_insee": "24010",
          "nom": "Annesse-et-Beaulieu",
          "slug": "annesse-et-beaulieu",
          "code_postal": "24430",
          "population": 1445,
          "superficie_km2": 13.0,
          "latitude": 45.1829987,
          "longitude": 0.595,
          "distance_km": 16.1
        },
        {
          "code_insee": "24147",
          "nom": "Cubjac-Auvézère-Val d'Ans",
          "slug": "cubjac-auvezere-val-d-ans",
          "code_postal": "24640",
          "population": 1104,
          "superficie_km2": 21.0,
          "latitude": 45.2249985,
          "longitude": 0.939,
          "distance_km": 16.46
        },
        {
          "code_insee": "24350",
          "nom": "Razac-sur-l'Isle",
          "slug": "razac-sur-l-isle",
          "code_postal": "24430",
          "population": 2369,
          "superficie_km2": 15.0,
          "latitude": 45.1609993,
          "longitude": 0.616,
          "distance_km": 16.83
        },
        {
          "code_insee": "24312",
          "nom": "Sanilhac",
          "slug": "sanilhac",
          "code_postal": "24660",
          "population": 4674,
          "superficie_km2": 27.0,
          "latitude": 45.1269989,
          "longitude": 0.713,
          "distance_km": 17.42
        },
        {
          "code_insee": "24139",
          "nom": "Coursac",
          "slug": "coursac",
          "code_postal": "24430",
          "population": 2284,
          "superficie_km2": 25.0,
          "latitude": 45.1269989,
          "longitude": 0.643,
          "distance_km": 19
        }
      ],
      "zonage_abc": "C",
      "reclassement_abc": "Non",
      "codes_postaux": [
        {
          "code_postal": "24460",
          "libelle_acheminement": "AGONAC"
        }
      ],
      "logement": {
        "logements_total": 879,
        "residences_principales": 753,
        "logements_vacants": 71,
        "residences_secondaires": 54,
        "maisons": 843,
        "appartements": 34,
        "proprietaires": 607,
        "locataires": 131,
        "hlm": 26,
        "construits_avant_1919": 161,
        "construits_1919_1945": 52,
        "construits_1946_1970": 66,
        "construits_1971_1990": 208,
        "construits_1991_2005": 146,
        "construits_2006_2019": 118,
        "chauffage_electrique": 233,
        "chauffage_fioul": 129,
        "chauffage_gaz_ville": 101,
        "chauffage_gaz_bouteille": 27,
        "chauffage_autre": 261,
        "menages": 753,
        "logements_avant_1990": 487
      },
      "artisans": {
        "monte_escalier": 1,
        "chauffage_pac_clim": 3,
        "isolation": 3,
        "menuiserie": 1,
        "fenetres_velux": 1,
        "couverture_toiture": 3,
        "facade_peinture": 3,
        "portes_volets": 1,
        "piscine": 0,
        "vmc_ventilation": 2,
        "assainissement": 2
      },
      "revenus": {
        "revenu_median": 22160.0,
        "part_menages_imposes": null,
        "taux_pauvrete": null
      },
      "aides_etat": {
        "zone_climatique": "H2",
        "qpv": false,
        "action_coeur_de_ville": false,
        "petites_villes_de_demain": false
      }
    },
    {
      "code_insee": "24004",
      "nom": "Ajat",
      "nom_a": null,
      "nom_de": null,
      "slug": "ajat",
      "code_postal": "24210",
      "population": 307,
      "superficie_km2": 2246.66,
      "latitude": 45.1603,
      "longitude": 1.0289,
      "villes_proches": [
        {
          "code_insee": "24550",
          "nom": "Thenon",
          "slug": "thenon",
          "code_postal": "24210",
          "population": 1282,
          "superficie_km2": 2689.95,
          "latitude": 45.1354,
          "longitude": 1.0631,
          "distance_km": 3.85
        },
        {
          "code_insee": "24241",
          "nom": "Limeyrat",
          "slug": "limeyrat",
          "code_postal": "24210",
          "population": 424,
          "superficie_km2": 2012.65,
          "latitude": 45.1659,
          "longitude": 0.9753,
          "distance_km": 4.25
        },
        {
          "code_insee": "24192",
          "nom": "Gabillou",
          "slug": "gabillou",
          "code_postal": "24210",
          "population": 95,
          "superficie_km2": 813.32,
          "latitude": 45.2048,
          "longitude": 1.0315,
          "distance_km": 4.95
        },
        {
          "code_insee": "24019",
          "nom": "Azerat",
          "slug": "azerat",
          "code_postal": "24210",
          "population": 463,
          "superficie_km2": 2068.14,
          "latitude": 45.1585,
          "longitude": 1.1008,
          "distance_km": 5.64
        },
        {
          "code_insee": "24066",
          "nom": "Brouchaud",
          "slug": "brouchaud",
          "code_postal": "24210",
          "population": 224,
          "superficie_km2": 1234.26,
          "latitude": 45.2048,
          "longitude": 0.9919,
          "distance_km": 5.74
        },
        {
          "code_insee": "24188",
          "nom": "Fossemagne",
          "slug": "fossemagne",
          "code_postal": "24210",
          "population": 556,
          "superficie_km2": 2253.67,
          "latitude": 45.1172,
          "longitude": 0.9868,
          "distance_km": 5.82
        },
        {
          "code_insee": "24473",
          "nom": "Sainte-Orse",
          "slug": "sainte-orse",
          "code_postal": "24210",
          "population": 346,
          "superficie_km2": 2406.57,
          "latitude": 45.2079,
          "longitude": 1.0707,
          "distance_km": 6.22
        },
        {
          "code_insee": "24284",
          "nom": "Montagnac-d'Auberoche",
          "slug": "montagnac-d-auberoche",
          "code_postal": "24210",
          "population": 137,
          "superficie_km2": 1025.96,
          "latitude": 45.1875,
          "longitude": 0.9566,
          "distance_km": 6.42
        },
        {
          "code_insee": "24025",
          "nom": "Bars",
          "slug": "bars",
          "code_postal": "24210",
          "population": 246,
          "superficie_km2": 2343.56,
          "latitude": 45.0949,
          "longitude": 1.0492,
          "distance_km": 7.44
        },
        {
          "code_insee": "24121",
          "nom": "Chourgnac",
          "slug": "chourgnac",
          "code_postal": "24640",
          "population": 69,
          "superficie_km2": 713.64,
          "latitude": 45.2336,
          "longitude": 1.0542,
          "distance_km": 8.39
        },
        {
          "code_insee": "24491",
          "nom": "Saint-Rabier",
          "slug": "saint-rabier",
          "code_postal": "24210",
          "population": 538,
          "superficie_km2": 1663.2,
          "latitude": 45.1744,
          "longitude": 1.1384,
          "distance_km": 8.73
        },
        {
          "code_insee": "24202",
          "nom": "Granges-d'Ans",
          "slug": "granges-d-ans",
          "code_postal": "24390",
          "population": 150,
          "superficie_km2": 1216.02,
          "latitude": 45.2134,
          "longitude": 1.1164,
          "distance_km": 9.05
        },
        {
          "code_insee": "24018",
          "nom": "Auriac-du-Périgord",
          "slug": "auriac-du-perigord",
          "code_postal": "24290",
          "population": 397,
          "superficie_km2": 1836.51,
          "latitude": 45.1116,
          "longitude": 1.1286,
          "distance_km": 9.51
        },
        {
          "code_insee": "24147",
          "nom": "Cubjac-Auvézère-Val d'Ans",
          "slug": "cubjac-auvezere-val-d-ans",
          "code_postal": "24640",
          "population": 1127,
          "superficie_km2": 4084.31,
          "latitude": 45.2325,
          "longitude": 0.9623,
          "distance_km": 9.58
        },
        {
          "code_insee": "24546",
          "nom": "Temple-Laguyon",
          "slug": "temple-laguyon",
          "code_postal": "24390",
          "population": 34,
          "superficie_km2": 305.24,
          "latitude": 45.2319,
          "longitude": 1.0978,
          "distance_km": 9.62
        },
        {
          "code_insee": "24401",
          "nom": "Sainte-Eulalie-d'Ans",
          "slug": "sainte-eulalie-d-ans",
          "code_postal": "24640",
          "population": 298,
          "superficie_km2": 1182.39,
          "latitude": 45.2487,
          "longitude": 1.0214,
          "distance_km": 9.85
        },
        {
          "code_insee": "24174",
          "nom": "Fanlac",
          "slug": "fanlac",
          "code_postal": "24290",
          "population": 134,
          "superficie_km2": 1464.82,
          "latitude": 45.0731,
          "longitude": 1.0944,
          "distance_km": 10.97
        },
        {
          "code_insee": "24330",
          "nom": "Plazac",
          "slug": "plazac",
          "code_postal": "24580",
          "population": 717,
          "superficie_km2": 3454.99,
          "latitude": 45.0483,
          "longitude": 1.0383,
          "distance_km": 12.48
        },
        {
          "code_insee": "24555",
          "nom": "Tourtoirac",
          "slug": "tourtoirac",
          "code_postal": "24390",
          "population": 636,
          "superficie_km2": 2632.96,
          "latitude": 45.2723,
          "longitude": 1.0481,
          "distance_km": 12.54
        },
        {
          "code_insee": "24356",
          "nom": "Rouffignac-Saint-Cernin-de-Reilhac",
          "slug": "rouffignac-saint-cernin-de-reilhac",
          "code_postal": "24580",
          "population": 1678,
          "superficie_km2": 6138.56,
          "latitude": 45.0486,
          "longitude": 0.9696,
          "distance_km": 13.26
        }
      ],
      "zonage_abc": "C",
      "reclassement_abc": "Non",
      "codes_postaux": [
        {
          "code_postal": "24210",
          "libelle_acheminement": "AJAT"
        }
      ],
      "logement": {
        "logements_total": 256,
        "residences_principales": 155,
        "logements_vacants": 6,
        "residences_secondaires": 94,
        "maisons": 250,
        "appartements": 6,
        "proprietaires": 123,
        "locataires": 28,
        "hlm": 3,
        "construits_avant_1919": 60,
        "construits_1919_1945": 8,
        "construits_1946_1970": 15,
        "construits_1971_1990": 23,
        "construits_1991_2005": 22,
        "construits_2006_2019": 21,
        "chauffage_electrique": 47,
        "chauffage_fioul": 27,
        "chauffage_gaz_ville": 1,
        "chauffage_gaz_bouteille": 8,
        "chauffage_autre": 71,
        "menages": 155,
        "logements_avant_1990": 106
      },
      "artisans": {
        "monte_escalier": 0,
        "chauffage_pac_clim": 1,
        "isolation": 1,
        "menuiserie": 2,
        "fenetres_velux": 2,
        "couverture_toiture": 1,
        "facade_peinture": 0,
        "portes_volets": 2,
        "piscine": 1,
        "vmc_ventilation": 0,
        "assainissement": 1
      },
      "revenus": {
        "revenu_median": 20550.0,
        "part_menages_imposes": null,
        "taux_pauvrete": null
      },
      "aides_etat": {
        "zone_climatique": "H2",
        "qpv": false,
        "action_coeur_de_ville": false,
        "petites_villes_de_demain": false
      }
    },
    {
      "code_insee": "24006",
      "nom": "Allas-les-Mines",
      "nom_a": null,
      "nom_de": null,
      "slug": "allas-les-mines",
      "code_postal": "24220",
      "population": 203,
      "superficie_km2": 719.65,
      "latitude": 44.8276,
      "longitude": 1.0748,
      "villes_proches": [
        {
          "code_insee": "24122",
          "nom": "Cladech",
          "slug": "cladech",
          "code_postal": "24170",
          "population": 86,
          "superficie_km2": 563.33,
          "latitude": 44.8094,
          "longitude": 1.0755,
          "distance_km": 2.02
        },
        {
          "code_insee": "24036",
          "nom": "Berbiguières",
          "slug": "berbiguieres",
          "code_postal": "24220",
          "population": 177,
          "superficie_km2": 545.19,
          "latitude": 44.8352,
          "longitude": 1.0411,
          "distance_km": 2.79
        },
        {
          "code_insee": "24510",
          "nom": "Saint-Vincent-de-Cosse",
          "slug": "saint-vincent-de-cosse",
          "code_postal": "24220",
          "population": 388,
          "superficie_km2": 732.68,
          "latitude": 44.841,
          "longitude": 1.1129,
          "distance_km": 3.35
        },
        {
          "code_insee": "24254",
          "nom": "Marnac",
          "slug": "marnac",
          "code_postal": "24220",
          "population": 187,
          "superficie_km2": 799.99,
          "latitude": 44.8328,
          "longitude": 1.029,
          "distance_km": 3.66
        },
        {
          "code_insee": "24575",
          "nom": "Veyrines-de-Domme",
          "slug": "veyrines-de-domme",
          "code_postal": "24250",
          "population": 236,
          "superficie_km2": 1139.49,
          "latitude": 44.8007,
          "longitude": 1.1035,
          "distance_km": 3.75
        },
        {
          "code_insee": "24416",
          "nom": "Saint-Germain-de-Belvès",
          "slug": "saint-germain-de-belves",
          "code_postal": "24170",
          "population": 180,
          "superficie_km2": 743.78,
          "latitude": 44.8064,
          "longitude": 1.0344,
          "distance_km": 3.96
        },
        {
          "code_insee": "24087",
          "nom": "Castels et Bézenac",
          "slug": "castels-et-bezenac",
          "code_postal": "24220",
          "population": 813,
          "superficie_km2": 2462.06,
          "latitude": 44.8647,
          "longitude": 1.0841,
          "distance_km": 4.19
        },
        {
          "code_insee": "24084",
          "nom": "Carves",
          "slug": "carves",
          "code_postal": "24170",
          "population": 98,
          "superficie_km2": 1045.4,
          "latitude": 44.783,
          "longitude": 1.0609,
          "distance_km": 5.08
        },
        {
          "code_insee": "24086",
          "nom": "Castelnaud-la-Chapelle",
          "slug": "castelnaud-la-chapelle",
          "code_postal": "24250",
          "population": 451,
          "superficie_km2": 2101.54,
          "latitude": 44.802,
          "longitude": 1.1292,
          "distance_km": 5.15
        },
        {
          "code_insee": "24040",
          "nom": "Beynac-et-Cazenac",
          "slug": "beynac-et-cazenac",
          "code_postal": "24220",
          "population": 397,
          "superficie_km2": 1310.83,
          "latitude": 44.8556,
          "longitude": 1.1289,
          "distance_km": 5.28
        },
        {
          "code_insee": "24360",
          "nom": "Sagelat",
          "slug": "sagelat",
          "code_postal": "24170",
          "population": 318,
          "superficie_km2": 783.1,
          "latitude": 44.7882,
          "longitude": 1.0233,
          "distance_km": 5.97
        },
        {
          "code_insee": "24206",
          "nom": "Grives",
          "slug": "grives",
          "code_postal": "24170",
          "population": 106,
          "superficie_km2": 830.09,
          "latitude": 44.7632,
          "longitude": 1.0745,
          "distance_km": 7.16
        },
        {
          "code_insee": "24396",
          "nom": "Saint-Cyprien",
          "slug": "saint-cyprien",
          "code_postal": "24220",
          "population": 1580,
          "superficie_km2": 2222.9,
          "latitude": 44.8853,
          "longitude": 1.027,
          "distance_km": 7.44
        },
        {
          "code_insee": "24293",
          "nom": "Monplaisant",
          "slug": "monplaisant",
          "code_postal": "24170",
          "population": 265,
          "superficie_km2": 557.44,
          "latitude": 44.7896,
          "longitude": 0.9932,
          "distance_km": 7.7
        },
        {
          "code_insee": "24538",
          "nom": "Siorac-en-Périgord",
          "slug": "siorac-en-perigord",
          "code_postal": "24170",
          "population": 1082,
          "superficie_km2": 1170.86,
          "latitude": 44.8214,
          "longitude": 0.9726,
          "distance_km": 8.09
        },
        {
          "code_insee": "24577",
          "nom": "Vézac",
          "slug": "vezac",
          "code_postal": "24220",
          "population": 533,
          "superficie_km2": 1363.78,
          "latitude": 44.8397,
          "longitude": 1.1764,
          "distance_km": 8.12
        },
        {
          "code_insee": "24395",
          "nom": "Saint-Cybranet",
          "slug": "saint-cybranet",
          "code_postal": "24250",
          "population": 384,
          "superficie_km2": 1072.79,
          "latitude": 44.7835,
          "longitude": 1.1595,
          "distance_km": 8.29
        },
        {
          "code_insee": "24268",
          "nom": "Meyrals",
          "slug": "meyrals",
          "code_postal": "24220",
          "population": 715,
          "superficie_km2": 1872.99,
          "latitude": 44.9057,
          "longitude": 1.0665,
          "distance_km": 8.71
        },
        {
          "code_insee": "24366",
          "nom": "Saint-André-d'Allas",
          "slug": "saint-andre-d-allas",
          "code_postal": "24200",
          "population": 888,
          "superficie_km2": 2951.71,
          "latitude": 44.8905,
          "longitude": 1.1496,
          "distance_km": 9.15
        },
        {
          "code_insee": "24438",
          "nom": "Saint-Laurent-la-Vallée",
          "slug": "saint-laurent-la-vallee",
          "code_postal": "24170",
          "population": 237,
          "superficie_km2": 1551.77,
          "latitude": 44.7505,
          "longitude": 1.1227,
          "distance_km": 9.37
        }
      ],
      "zonage_abc": "C",
      "reclassement_abc": "Non",
      "codes_postaux": [
        {
          "code_postal": "24220",
          "libelle_acheminement": "ALLAS LES MINES"
        }
      ],
      "logement": {
        "logements_total": 179,
        "residences_principales": 93,
        "logements_vacants": 18,
        "residences_secondaires": 67,
        "maisons": 170,
        "appartements": 7,
        "proprietaires": 72,
        "locataires": 18,
        "hlm": 0,
        "construits_avant_1919": 28,
        "construits_1919_1945": 6,
        "construits_1946_1970": 12,
        "construits_1971_1990": 19,
        "construits_1991_2005": 18,
        "construits_2006_2019": 8,
        "chauffage_electrique": 40,
        "chauffage_fioul": 19,
        "chauffage_gaz_ville": 0,
        "chauffage_gaz_bouteille": 7,
        "chauffage_autre": 26,
        "menages": 93,
        "logements_avant_1990": 65
      },
      "artisans": {
        "monte_escalier": 0,
        "chauffage_pac_clim": 0,
        "isolation": 1,
        "menuiserie": 0,
        "fenetres_velux": 0,
        "couverture_toiture": 0,
        "facade_peinture": 1,
        "portes_volets": 0,
        "piscine": 2,
        "vmc_ventilation": 0,
        "assainissement": 0
      },
      "revenus": {
        "revenu_median": 21550.0,
        "part_menages_imposes": null,
        "taux_pauvrete": null
      },
      "aides_etat": {
        "zone_climatique": "H2",
        "qpv": false,
        "action_coeur_de_ville": false,
        "petites_villes_de_demain": false
      }
    },
    {
      "code_insee": "24007",
      "nom": "Allemans",
      "nom_a": null,
      "nom_de": null,
      "slug": "allemans",
      "code_postal": "24600",
      "population": 544,
      "superficie_km2": 1884.8,
      "latitude": 45.2886,
      "longitude": 0.2951,
      "villes_proches": [
        {
          "code_insee": "24128",
          "nom": "Comberanche-et-Épeluche",
          "slug": "comberanche-et-epeluche",
          "code_postal": "24600",
          "population": 165,
          "superficie_km2": 393.14,
          "latitude": 45.278,
          "longitude": 0.281,
          "distance_km": 1.61
        },
        {
          "code_insee": "24482",
          "nom": "Saint-Paul-Lizonne",
          "slug": "saint-paul-lizonne",
          "code_postal": "24320",
          "population": 274,
          "superficie_km2": 935.94,
          "latitude": 45.3169,
          "longitude": 0.2846,
          "distance_km": 3.25
        },
        {
          "code_insee": "24058",
          "nom": "Bourg-du-Bost",
          "slug": "bourg-du-bost",
          "code_postal": "24600",
          "population": 247,
          "superficie_km2": 729.6,
          "latitude": 45.2667,
          "longitude": 0.2615,
          "distance_km": 3.58
        },
        {
          "code_insee": "24247",
          "nom": "Lusignac",
          "slug": "lusignac",
          "code_postal": "24320",
          "population": 162,
          "superficie_km2": 787.71,
          "latitude": 45.3245,
          "longitude": 0.3147,
          "distance_km": 4.28
        },
        {
          "code_insee": "24114",
          "nom": "Chassaignes",
          "slug": "chassaignes",
          "code_postal": "24600",
          "population": 78,
          "superficie_km2": 588.2,
          "latitude": 45.2569,
          "longitude": 0.253,
          "distance_km": 4.82
        },
        {
          "code_insee": "16350",
          "nom": "Saint-Séverin",
          "slug": "saint-severin",
          "code_postal": "16390",
          "population": 784,
          "superficie_km2": 1503.12,
          "latitude": 45.3118,
          "longitude": 0.2427,
          "distance_km": 4.84
        },
        {
          "code_insee": "24038",
          "nom": "Bertric-Burée",
          "slug": "bertric-buree",
          "code_postal": "24320",
          "population": 445,
          "superficie_km2": 1671.04,
          "latitude": 45.3086,
          "longitude": 0.354,
          "distance_km": 5.12
        },
        {
          "code_insee": "24586",
          "nom": "Villetoureix",
          "slug": "villetoureix",
          "code_postal": "24600",
          "population": 891,
          "superficie_km2": 1620.42,
          "latitude": 45.2736,
          "longitude": 0.3592,
          "distance_km": 5.29
        },
        {
          "code_insee": "24323",
          "nom": "Petit-Bersac",
          "slug": "petit-bersac",
          "code_postal": "24600",
          "population": 184,
          "superficie_km2": 1080.34,
          "latitude": 45.2664,
          "longitude": 0.2263,
          "distance_km": 5.92
        },
        {
          "code_insee": "24352",
          "nom": "Ribérac",
          "slug": "riberac",
          "code_postal": "24600",
          "population": 3734,
          "superficie_km2": 2270.59,
          "latitude": 45.2428,
          "longitude": 0.3402,
          "distance_km": 6.2
        },
        {
          "code_insee": "16240",
          "nom": "Nabinaud",
          "slug": "nabinaud",
          "code_postal": "16390",
          "population": 99,
          "superficie_km2": 592.76,
          "latitude": 45.2919,
          "longitude": 0.2092,
          "distance_km": 6.73
        },
        {
          "code_insee": "24062",
          "nom": "Bouteilles-Saint-Sébastien",
          "slug": "bouteilles-saint-sebastien",
          "code_postal": "24320",
          "population": 172,
          "superficie_km2": 1405.64,
          "latitude": 45.3505,
          "longitude": 0.2908,
          "distance_km": 6.89
        },
        {
          "code_insee": "24564",
          "nom": "Vanxains",
          "slug": "vanxains",
          "code_postal": "24600",
          "population": 689,
          "superficie_km2": 3575.85,
          "latitude": 45.2208,
          "longitude": 0.2889,
          "distance_km": 7.55
        },
        {
          "code_insee": "16254",
          "nom": "Palluaud",
          "slug": "palluaud",
          "code_postal": "16390",
          "population": 215,
          "superficie_km2": 862.33,
          "latitude": 45.3463,
          "longitude": 0.241,
          "distance_km": 7.68
        },
        {
          "code_insee": "24452",
          "nom": "Saint-Martial-Viveyrol",
          "slug": "saint-martial-viveyrol",
          "code_postal": "24320",
          "population": 184,
          "superficie_km2": 1270.38,
          "latitude": 45.3557,
          "longitude": 0.3384,
          "distance_km": 8.19
        },
        {
          "code_insee": "16227",
          "nom": "Montignac-le-Coq",
          "slug": "montignac-le-coq",
          "code_postal": "16390",
          "population": 130,
          "superficie_km2": 1025.84,
          "latitude": 45.3418,
          "longitude": 0.2158,
          "distance_km": 8.57
        },
        {
          "code_insee": "24455",
          "nom": "Saint-Martin-de-Ribérac",
          "slug": "saint-martin-de-riberac",
          "code_postal": "24600",
          "population": 723,
          "superficie_km2": 1639.44,
          "latitude": 45.2195,
          "longitude": 0.3578,
          "distance_km": 9.12
        },
        {
          "code_insee": "24573",
          "nom": "Verteillac",
          "slug": "verteillac",
          "code_postal": "24320",
          "population": 547,
          "superficie_km2": 1852.2,
          "latitude": 45.3492,
          "longitude": 0.3776,
          "distance_km": 9.33
        },
        {
          "code_insee": "24490",
          "nom": "Saint Privat en Périgord",
          "slug": "saint-privat-en-perigord",
          "code_postal": "24410",
          "population": 1139,
          "superficie_km2": 4439.05,
          "latitude": 45.2266,
          "longitude": 0.2058,
          "distance_km": 9.82
        },
        {
          "code_insee": "24303",
          "nom": "Nanteuil-Auriac-de-Bourzac",
          "slug": "nanteuil-auriac-de-bourzac",
          "code_postal": "24320",
          "population": 234,
          "superficie_km2": 2080.02,
          "latitude": 45.3795,
          "longitude": 0.2862,
          "distance_km": 10.13
        }
      ],
      "zonage_abc": "C",
      "reclassement_abc": "Non",
      "codes_postaux": [
        {
          "code_postal": "24600",
          "libelle_acheminement": "ALLEMANS"
        }
      ],
      "logement": {
        "logements_total": 348,
        "residences_principales": 250,
        "logements_vacants": 17,
        "residences_secondaires": 81,
        "maisons": 342,
        "appartements": 5,
        "proprietaires": 221,
        "locataires": 22,
        "hlm": 0,
        "construits_avant_1919": 83,
        "construits_1919_1945": 18,
        "construits_1946_1970": 18,
        "construits_1971_1990": 62,
        "construits_1991_2005": 29,
        "construits_2006_2019": 36,
        "chauffage_electrique": 74,
        "chauffage_fioul": 77,
        "chauffage_gaz_ville": 1,
        "chauffage_gaz_bouteille": 13,
        "chauffage_autre": 85,
        "menages": 250,
        "logements_avant_1990": 181
      },
      "artisans": {
        "monte_escalier": 0,
        "chauffage_pac_clim": 1,
        "isolation": 1,
        "menuiserie": 1,
        "fenetres_velux": 1,
        "couverture_toiture": 1,
        "facade_peinture": 0,
        "portes_volets": 1,
        "piscine": 1,
        "vmc_ventilation": 0,
        "assainissement": 1
      },
      "revenus": {
        "revenu_median": 21810.0,
        "part_menages_imposes": null,
        "taux_pauvrete": null
      },
      "aides_etat": {
        "zone_climatique": "H2",
        "qpv": false,
        "action_coeur_de_ville": false,
        "petites_villes_de_demain": false
      }
    },
    {
      "code_insee": "24005",
      "nom": "Alles-sur-Dordogne",
      "nom_a": null,
      "nom_de": null,
      "slug": "alles-sur-dordogne",
      "code_postal": "24480",
      "population": 380,
      "superficie_km2": 946.54,
      "latitude": 44.8618,
      "longitude": 0.8724,
      "villes_proches": [
        {
          "code_insee": "24558",
          "nom": "Trémolat",
          "slug": "tremolat",
          "code_postal": "24510",
          "population": 624,
          "superficie_km2": 1411.36,
          "latitude": 44.8751,
          "longitude": 0.8295,
          "distance_km": 3.69
        },
        {
          "code_insee": "24240",
          "nom": "Limeuil",
          "slug": "limeuil",
          "code_postal": "24510",
          "population": 342,
          "superficie_km2": 1045.39,
          "latitude": 44.8924,
          "longitude": 0.8967,
          "distance_km": 3.9
        },
        {
          "code_insee": "24073",
          "nom": "Calès",
          "slug": "cales",
          "code_postal": "24150",
          "population": 369,
          "superficie_km2": 805.64,
          "latitude": 44.86,
          "longitude": 0.8156,
          "distance_km": 4.48
        },
        {
          "code_insee": "24318",
          "nom": "Paunat",
          "slug": "paunat",
          "code_postal": "24510",
          "population": 320,
          "superficie_km2": 1779.1,
          "latitude": 44.9029,
          "longitude": 0.8532,
          "distance_km": 4.81
        },
        {
          "code_insee": "24388",
          "nom": "Saint-Chamassy",
          "slug": "saint-chamassy",
          "code_postal": "24260",
          "population": 512,
          "superficie_km2": 1541.17,
          "latitude": 44.8784,
          "longitude": 0.932,
          "distance_km": 5.05
        },
        {
          "code_insee": "24068",
          "nom": "Le Buisson-de-Cadouin",
          "slug": "le-buisson-de-cadouin",
          "code_postal": "24480",
          "population": 1965,
          "superficie_km2": 5027.05,
          "latitude": 44.8144,
          "longitude": 0.8885,
          "distance_km": 5.42
        },
        {
          "code_insee": "24022",
          "nom": "Badefols-sur-Dordogne",
          "slug": "badefols-sur-dordogne",
          "code_postal": "24150",
          "population": 202,
          "superficie_km2": 609.51,
          "latitude": 44.8393,
          "longitude": 0.7991,
          "distance_km": 6.3
        },
        {
          "code_insee": "24273",
          "nom": "Molières",
          "slug": "molieres",
          "code_postal": "24480",
          "population": 370,
          "superficie_km2": 2108.01,
          "latitude": 44.816,
          "longitude": 0.824,
          "distance_km": 6.36
        },
        {
          "code_insee": "24015",
          "nom": "Audrix",
          "slug": "audrix",
          "code_postal": "24260",
          "population": 287,
          "superficie_km2": 641.02,
          "latitude": 44.8841,
          "longitude": 0.9497,
          "distance_km": 6.58
        },
        {
          "code_insee": "24327",
          "nom": "Pezuls",
          "slug": "pezuls",
          "code_postal": "24510",
          "population": 113,
          "superficie_km2": 1023.59,
          "latitude": 44.9118,
          "longitude": 0.8052,
          "distance_km": 7.68
        },
        {
          "code_insee": "24142",
          "nom": "Coux et Bigaroque-Mouzens",
          "slug": "coux-et-bigaroque-mouzens",
          "code_postal": "24220",
          "population": 1244,
          "superficie_km2": 2769.49,
          "latitude": 44.8501,
          "longitude": 0.9695,
          "distance_km": 7.76
        },
        {
          "code_insee": "24260",
          "nom": "Mauzac-et-Grand-Castang",
          "slug": "mauzac-et-grand-castang",
          "code_postal": "24150",
          "population": 879,
          "superficie_km2": 1587.93,
          "latitude": 44.8782,
          "longitude": 0.7755,
          "distance_km": 7.85
        },
        {
          "code_insee": "24067",
          "nom": "Le Bugue",
          "slug": "le-bugue",
          "code_postal": "24260",
          "population": 2663,
          "superficie_km2": 3031.27,
          "latitude": 44.9249,
          "longitude": 0.9198,
          "distance_km": 7.95
        },
        {
          "code_insee": "24560",
          "nom": "Urval",
          "slug": "urval",
          "code_postal": "24480",
          "population": 116,
          "superficie_km2": 1337.87,
          "latitude": 44.8011,
          "longitude": 0.9365,
          "distance_km": 8.43
        },
        {
          "code_insee": "24334",
          "nom": "Pontours",
          "slug": "pontours",
          "code_postal": "24150",
          "population": 209,
          "superficie_km2": 664.46,
          "latitude": 44.8264,
          "longitude": 0.7724,
          "distance_km": 8.81
        },
        {
          "code_insee": "24076",
          "nom": "Campagne",
          "slug": "campagne",
          "code_postal": "24260",
          "population": 416,
          "superficie_km2": 1516.75,
          "latitude": 44.8999,
          "longitude": 0.9706,
          "distance_km": 8.82
        },
        {
          "code_insee": "24377",
          "nom": "Saint-Avit-de-Vialard",
          "slug": "saint-avit-de-vialard",
          "code_postal": "24260",
          "population": 152,
          "superficie_km2": 883.47,
          "latitude": 44.9458,
          "longitude": 0.8579,
          "distance_km": 9.41
        },
        {
          "code_insee": "24379",
          "nom": "Saint-Avit-Sénieur",
          "slug": "saint-avit-senieur",
          "code_postal": "24440",
          "population": 422,
          "superficie_km2": 2342.43,
          "latitude": 44.7728,
          "longitude": 0.8184,
          "distance_km": 10.77
        },
        {
          "code_insee": "24290",
          "nom": "Montferrand-du-Périgord",
          "slug": "montferrand-du-perigord",
          "code_postal": "24440",
          "population": 156,
          "superficie_km2": 1318.6,
          "latitude": 44.7563,
          "longitude": 0.8738,
          "distance_km": 11.73
        },
        {
          "code_insee": "24217",
          "nom": "Journiac",
          "slug": "journiac",
          "code_postal": "24260",
          "population": 496,
          "superficie_km2": 1951.95,
          "latitude": 44.9676,
          "longitude": 0.8877,
          "distance_km": 11.83
        }
      ],
      "zonage_abc": "C",
      "reclassement_abc": "Non",
      "codes_postaux": [
        {
          "code_postal": "24480",
          "libelle_acheminement": "ALLES SUR DORDOGNE"
        }
      ],
      "logement": {
        "logements_total": 261,
        "residences_principales": 173,
        "logements_vacants": 12,
        "residences_secondaires": 75,
        "maisons": 260,
        "appartements": 0,
        "proprietaires": 140,
        "locataires": 25,
        "hlm": 0,
        "construits_avant_1919": 56,
        "construits_1919_1945": 15,
        "construits_1946_1970": 13,
        "construits_1971_1990": 42,
        "construits_1991_2005": 19,
        "construits_2006_2019": 21,
        "chauffage_electrique": 50,
        "chauffage_fioul": 38,
        "chauffage_gaz_ville": 2,
        "chauffage_gaz_bouteille": 8,
        "chauffage_autre": 73,
        "menages": 173,
        "logements_avant_1990": 126
      },
      "artisans": {
        "monte_escalier": 0,
        "chauffage_pac_clim": 2,
        "isolation": 2,
        "menuiserie": 1,
        "fenetres_velux": 1,
        "couverture_toiture": 2,
        "facade_peinture": 1,
        "portes_volets": 1,
        "piscine": 1,
        "vmc_ventilation": 1,
        "assainissement": 1
      },
      "revenus": {
        "revenu_median": 21190.0,
        "part_menages_imposes": null,
        "taux_pauvrete": null
      },
      "aides_etat": {
        "zone_climatique": "H2",
        "qpv": false,
        "action_coeur_de_ville": false,
        "petites_villes_de_demain": false
      }
    },
    {
      "code_insee": "24008",
      "nom": "Angoisse",
      "nom_a": null,
      "nom_de": null,
      "slug": "angoisse",
      "code_postal": "24270",
      "population": 598,
      "superficie_km2": 2380.06,
      "latitude": 45.4323,
      "longitude": 1.1528,
      "villes_proches": [
        {
          "code_insee": "24519",
          "nom": "Sarlande",
          "slug": "sarlande",
          "code_postal": "24270",
          "population": 428,
          "superficie_km2": 3541.95,
          "latitude": 45.4441,
          "longitude": 1.1234,
          "distance_km": 2.64
        },
        {
          "code_insee": "24320",
          "nom": "Payzac",
          "slug": "payzac",
          "code_postal": "24270",
          "population": 984,
          "superficie_km2": 4900.98,
          "latitude": 45.42,
          "longitude": 1.229,
          "distance_km": 6.1
        },
        {
          "code_insee": "24227",
          "nom": "Lanouaille",
          "slug": "lanouaille",
          "code_postal": "24270",
          "population": 926,
          "superficie_km2": 2447.09,
          "latitude": 45.3789,
          "longitude": 1.1318,
          "distance_km": 6.16
        },
        {
          "code_insee": "87071",
          "nom": "Glandon",
          "slug": "glandon",
          "code_postal": "87500",
          "population": 810,
          "superficie_km2": 2767.96,
          "latitude": 45.4715,
          "longitude": 1.2158,
          "distance_km": 6.57
        },
        {
          "code_insee": "24526",
          "nom": "Savignac-Lédrier",
          "slug": "savignac-ledrier",
          "code_postal": "24270",
          "population": 729,
          "superficie_km2": 2645.92,
          "latitude": 45.3795,
          "longitude": 1.1954,
          "distance_km": 6.75
        },
        {
          "code_insee": "24158",
          "nom": "Dussac",
          "slug": "dussac",
          "code_postal": "24270",
          "population": 427,
          "superficie_km2": 2064.33,
          "latitude": 45.3905,
          "longitude": 1.0727,
          "distance_km": 7.79
        },
        {
          "code_insee": "24218",
          "nom": "Jumilhac-le-Grand",
          "slug": "jumilhac-le-grand",
          "code_postal": "24630",
          "population": 1130,
          "superficie_km2": 6817.39,
          "latitude": 45.5032,
          "longitude": 1.0874,
          "distance_km": 9.39
        },
        {
          "code_insee": "24522",
          "nom": "Sarrazac",
          "slug": "sarrazac",
          "code_postal": "24800",
          "population": 363,
          "superficie_km2": 3056.39,
          "latitude": 45.4387,
          "longitude": 1.0284,
          "distance_km": 9.73
        },
        {
          "code_insee": "19198",
          "nom": "Saint-Éloy-les-Tuileries",
          "slug": "saint-eloy-les-tuileries",
          "code_postal": "19210",
          "population": 114,
          "superficie_km2": 913.87,
          "latitude": 45.4571,
          "longitude": 1.2809,
          "distance_km": 10.37
        },
        {
          "code_insee": "24339",
          "nom": "Preyssac-d'Excideuil",
          "slug": "preyssac-d-excideuil",
          "code_postal": "24160",
          "population": 152,
          "superficie_km2": 348.68,
          "latitude": 45.3422,
          "longitude": 1.106,
          "distance_km": 10.66
        },
        {
          "code_insee": "24464",
          "nom": "Saint-Mesmin",
          "slug": "saint-mesmin",
          "code_postal": "24270",
          "population": 343,
          "superficie_km2": 3039.98,
          "latitude": 45.3501,
          "longitude": 1.2331,
          "distance_km": 11.08
        },
        {
          "code_insee": "24463",
          "nom": "Saint-Médard-d'Excideuil",
          "slug": "saint-medard-d-excideuil",
          "code_postal": "24160",
          "population": 546,
          "superficie_km2": 1901.56,
          "latitude": 45.3441,
          "longitude": 1.0858,
          "distance_km": 11.12
        },
        {
          "code_insee": "24505",
          "nom": "Saint-Sulpice-d'Excideuil",
          "slug": "saint-sulpice-d-excideuil",
          "code_postal": "24800",
          "population": 377,
          "superficie_km2": 1934.26,
          "latitude": 45.3945,
          "longitude": 1.0208,
          "distance_km": 11.13
        },
        {
          "code_insee": "87187",
          "nom": "Saint-Yrieix-la-Perche",
          "slug": "saint-yrieix-la-perche",
          "code_postal": "87500",
          "population": 6830,
          "superficie_km2": 10152.13,
          "latitude": 45.5274,
          "longitude": 1.2026,
          "distance_km": 11.26
        },
        {
          "code_insee": "24124",
          "nom": "Clermont-d'Excideuil",
          "slug": "clermont-d-excideuil",
          "code_postal": "24160",
          "population": 255,
          "superficie_km2": 1043.89,
          "latitude": 45.3631,
          "longitude": 1.0475,
          "distance_km": 11.26
        },
        {
          "code_insee": "24196",
          "nom": "Génis",
          "slug": "genis",
          "code_postal": "24160",
          "population": 516,
          "superficie_km2": 2701.33,
          "latitude": 45.331,
          "longitude": 1.165,
          "distance_km": 11.3
        },
        {
          "code_insee": "24009",
          "nom": "Anlhiac",
          "slug": "anlhiac",
          "code_postal": "24160",
          "population": 264,
          "superficie_km2": 1240.13,
          "latitude": 45.3241,
          "longitude": 1.1194,
          "distance_km": 12.31
        },
        {
          "code_insee": "24164",
          "nom": "Excideuil",
          "slug": "excideuil",
          "code_postal": "24160",
          "population": 1201,
          "superficie_km2": 522.68,
          "latitude": 45.3296,
          "longitude": 1.0602,
          "distance_km": 13.52
        },
        {
          "code_insee": "24515",
          "nom": "Salagnac",
          "slug": "salagnac",
          "code_postal": "24160",
          "population": 686,
          "superficie_km2": 935.16,
          "latitude": 45.3156,
          "longitude": 1.2114,
          "distance_km": 13.76
        },
        {
          "code_insee": "87031",
          "nom": "Le Chalard",
          "slug": "le-chalard",
          "code_postal": "87500",
          "population": 302,
          "superficie_km2": 1232.54,
          "latitude": 45.5542,
          "longitude": 1.1219,
          "distance_km": 13.77
        }
      ],
      "zonage_abc": "C",
      "reclassement_abc": "Non",
      "codes_postaux": [
        {
          "code_postal": "24270",
          "libelle_acheminement": "ANGOISSE"
        }
      ],
      "logement": {
        "logements_total": 396,
        "residences_principales": 281,
        "logements_vacants": 46,
        "residences_secondaires": 67,
        "maisons": 386,
        "appartements": 7,
        "proprietaires": 223,
        "locataires": 52,
        "hlm": 10,
        "construits_avant_1919": 91,
        "construits_1919_1945": 29,
        "construits_1946_1970": 37,
        "construits_1971_1990": 55,
        "construits_1991_2005": 36,
        "construits_2006_2019": 27,
        "chauffage_electrique": 57,
        "chauffage_fioul": 52,
        "chauffage_gaz_ville": 0,
        "chauffage_gaz_bouteille": 9,
        "chauffage_autre": 163,
        "menages": 281,
        "logements_avant_1990": 212
      },
      "artisans": {
        "monte_escalier": 0,
        "chauffage_pac_clim": 2,
        "isolation": 0,
        "menuiserie": 1,
        "fenetres_velux": 1,
        "couverture_toiture": 3,
        "facade_peinture": 0,
        "portes_volets": 1,
        "piscine": 2,
        "vmc_ventilation": 1,
        "assainissement": 2
      },
      "revenus": {
        "revenu_median": 19660.0,
        "part_menages_imposes": null,
        "taux_pauvrete": null
      },
      "aides_etat": {
        "zone_climatique": "H2",
        "qpv": false,
        "action_coeur_de_ville": false,
        "petites_villes_de_demain": false
      }
    },
    {
      "code_insee": "24009",
      "nom": "Anlhiac",
      "nom_a": null,
      "nom_de": null,
      "slug": "anlhiac",
      "code_postal": "24160",
      "population": 264,
      "superficie_km2": 1240.13,
      "latitude": 45.3241,
      "longitude": 1.1194,
      "villes_proches": [
        {
          "code_insee": "24339",
          "nom": "Preyssac-d'Excideuil",
          "slug": "preyssac-d-excideuil",
          "code_postal": "24160",
          "population": 152,
          "superficie_km2": 348.68,
          "latitude": 45.3422,
          "longitude": 1.106,
          "distance_km": 2.27
        },
        {
          "code_insee": "24463",
          "nom": "Saint-Médard-d'Excideuil",
          "slug": "saint-medard-d-excideuil",
          "code_postal": "24160",
          "population": 546,
          "superficie_km2": 1901.56,
          "latitude": 45.3441,
          "longitude": 1.0858,
          "distance_km": 3.44
        },
        {
          "code_insee": "24196",
          "nom": "Génis",
          "slug": "genis",
          "code_postal": "24160",
          "population": 516,
          "superficie_km2": 2701.33,
          "latitude": 45.331,
          "longitude": 1.165,
          "distance_km": 3.65
        },
        {
          "code_insee": "24120",
          "nom": "Cherveix-Cubas",
          "slug": "cherveix-cubas",
          "code_postal": "24390",
          "population": 557,
          "superficie_km2": 1486.01,
          "latitude": 45.2891,
          "longitude": 1.1163,
          "distance_km": 3.9
        },
        {
          "code_insee": "24493",
          "nom": "Saint-Raphaël",
          "slug": "saint-raphael",
          "code_postal": "24160",
          "population": 94,
          "superficie_km2": 729.71,
          "latitude": 45.3036,
          "longitude": 1.0712,
          "distance_km": 4.4
        },
        {
          "code_insee": "24164",
          "nom": "Excideuil",
          "slug": "excideuil",
          "code_postal": "24160",
          "population": 1201,
          "superficie_km2": 522.68,
          "latitude": 45.3296,
          "longitude": 1.0602,
          "distance_km": 4.67
        },
        {
          "code_insee": "24227",
          "nom": "Lanouaille",
          "slug": "lanouaille",
          "code_postal": "24270",
          "population": 926,
          "superficie_km2": 2447.09,
          "latitude": 45.3789,
          "longitude": 1.1318,
          "distance_km": 6.17
        },
        {
          "code_insee": "24448",
          "nom": "Saint-Martial-d'Albarède",
          "slug": "saint-martial-d-albarede",
          "code_postal": "24160",
          "population": 484,
          "superficie_km2": 1068.38,
          "latitude": 45.3203,
          "longitude": 1.0387,
          "distance_km": 6.32
        },
        {
          "code_insee": "24046",
          "nom": "Boisseuilh",
          "slug": "boisseuilh",
          "code_postal": "24390",
          "population": 110,
          "superficie_km2": 1219.7,
          "latitude": 45.2821,
          "longitude": 1.176,
          "distance_km": 6.43
        },
        {
          "code_insee": "24124",
          "nom": "Clermont-d'Excideuil",
          "slug": "clermont-d-excideuil",
          "code_postal": "24160",
          "population": 255,
          "superficie_km2": 1043.89,
          "latitude": 45.3631,
          "longitude": 1.0475,
          "distance_km": 7.1
        },
        {
          "code_insee": "24515",
          "nom": "Salagnac",
          "slug": "salagnac",
          "code_postal": "24160",
          "population": 686,
          "superficie_km2": 935.16,
          "latitude": 45.3156,
          "longitude": 1.2114,
          "distance_km": 7.25
        },
        {
          "code_insee": "24210",
          "nom": "Hautefort",
          "slug": "hautefort",
          "code_postal": "24390",
          "population": 806,
          "superficie_km2": 2663.84,
          "latitude": 45.2598,
          "longitude": 1.1368,
          "distance_km": 7.28
        },
        {
          "code_insee": "24507",
          "nom": "Sainte-Trie",
          "slug": "sainte-trie",
          "code_postal": "24160",
          "population": 115,
          "superficie_km2": 1126.84,
          "latitude": 45.2908,
          "longitude": 1.2066,
          "distance_km": 7.76
        },
        {
          "code_insee": "24555",
          "nom": "Tourtoirac",
          "slug": "tourtoirac",
          "code_postal": "24390",
          "population": 636,
          "superficie_km2": 2632.96,
          "latitude": 45.2723,
          "longitude": 1.0481,
          "distance_km": 8.02
        },
        {
          "code_insee": "24158",
          "nom": "Dussac",
          "slug": "dussac",
          "code_postal": "24270",
          "population": 427,
          "superficie_km2": 2064.33,
          "latitude": 45.3905,
          "longitude": 1.0727,
          "distance_km": 8.24
        },
        {
          "code_insee": "24476",
          "nom": "Saint-Pantaly-d'Excideuil",
          "slug": "saint-pantaly-d-excideuil",
          "code_postal": "24160",
          "population": 157,
          "superficie_km2": 883.37,
          "latitude": 45.3111,
          "longitude": 1.0125,
          "distance_km": 8.48
        },
        {
          "code_insee": "24526",
          "nom": "Savignac-Lédrier",
          "slug": "savignac-ledrier",
          "code_postal": "24270",
          "population": 729,
          "superficie_km2": 2645.92,
          "latitude": 45.3795,
          "longitude": 1.1954,
          "distance_km": 8.56
        },
        {
          "code_insee": "24546",
          "nom": "Temple-Laguyon",
          "slug": "temple-laguyon",
          "code_postal": "24390",
          "population": 34,
          "superficie_km2": 305.24,
          "latitude": 45.2319,
          "longitude": 1.0978,
          "distance_km": 10.39
        },
        {
          "code_insee": "24302",
          "nom": "Nailhac",
          "slug": "nailhac",
          "code_postal": "24390",
          "population": 289,
          "superficie_km2": 1997.01,
          "latitude": 45.225,
          "longitude": 1.1564,
          "distance_km": 11.39
        },
        {
          "code_insee": "24202",
          "nom": "Granges-d'Ans",
          "slug": "granges-d-ans",
          "code_postal": "24390",
          "population": 150,
          "superficie_km2": 1216.02,
          "latitude": 45.2134,
          "longitude": 1.1164,
          "distance_km": 12.31
        }
      ],
      "zonage_abc": "C",
      "reclassement_abc": "Non",
      "codes_postaux": [
        {
          "code_postal": "24160",
          "libelle_acheminement": "ANLHIAC"
        }
      ],
      "logement": {
        "logements_total": 212,
        "residences_principales": 137,
        "logements_vacants": 25,
        "residences_secondaires": 49,
        "maisons": 202,
        "appartements": 8,
        "proprietaires": 115,
        "locataires": 20,
        "hlm": 0,
        "construits_avant_1919": 59,
        "construits_1919_1945": 7,
        "construits_1946_1970": 9,
        "construits_1971_1990": 25,
        "construits_1991_2005": 23,
        "construits_2006_2019": 12,
        "chauffage_electrique": 22,
        "chauffage_fioul": 47,
        "chauffage_gaz_ville": 1,
        "chauffage_gaz_bouteille": 4,
        "chauffage_autre": 61,
        "menages": 137,
        "logements_avant_1990": 100
      },
      "artisans": {
        "monte_escalier": 0,
        "chauffage_pac_clim": 0,
        "isolation": 0,
        "menuiserie": 1,
        "fenetres_velux": 1,
        "couverture_toiture": 0,
        "facade_peinture": 0,
        "portes_volets": 1,
        "piscine": 0,
        "vmc_ventilation": 0,
        "assainissement": 0
      },
      "revenus": {
        "revenu_median": 20590.0,
        "part_menages_imposes": null,
        "taux_pauvrete": null
      },
      "aides_etat": {
        "zone_climatique": "H2",
        "qpv": false,
        "action_coeur_de_ville": false,
        "petites_villes_de_demain": false
      }
    },
    {
      "code_insee": "24010",
      "nom": "Annesse-et-Beaulieu",
      "nom_a": null,
      "nom_de": null,
      "slug": "annesse-et-beaulieu",
      "code_postal": "24430",
      "population": 1445,
      "superficie_km2": 13.0,
      "latitude": 45.1829987,
      "longitude": 0.595,
      "villes_proches": [
        {
          "code_insee": "24350",
          "nom": "Razac-sur-l'Isle",
          "slug": "razac-sur-l-isle",
          "code_postal": "24430",
          "population": 2369,
          "superficie_km2": 15.0,
          "latitude": 45.1609993,
          "longitude": 0.616,
          "distance_km": 2.95
        },
        {
          "code_insee": "24256",
          "nom": "Marsac-sur-l'Isle",
          "slug": "marsac-sur-l-isle",
          "code_postal": "24430",
          "population": 3143,
          "superficie_km2": 10.0,
          "latitude": 45.1819992,
          "longitude": 0.652,
          "distance_km": 4.47
        },
        {
          "code_insee": "24266",
          "nom": "Mensignac",
          "slug": "mensignac",
          "code_postal": "24350",
          "population": 1520,
          "superficie_km2": 26.0,
          "latitude": 45.2210007,
          "longitude": 0.559,
          "distance_km": 5.08
        },
        {
          "code_insee": "24108",
          "nom": "La Chapelle-Gonaguet",
          "slug": "la-chapelle-gonaguet",
          "code_postal": "24350",
          "population": 1067,
          "superficie_km2": 20.0,
          "latitude": 45.2299995,
          "longitude": 0.619,
          "distance_km": 5.55
        },
        {
          "code_insee": "24102",
          "nom": "Chancelade",
          "slug": "chancelade",
          "code_postal": "24650",
          "population": 4435,
          "superficie_km2": 17.0,
          "latitude": 45.2099991,
          "longitude": 0.655,
          "distance_km": 5.58
        },
        {
          "code_insee": "24295",
          "nom": "Montrem",
          "slug": "montrem",
          "code_postal": "24110",
          "population": 1194,
          "superficie_km2": 21.0,
          "latitude": 45.1310005,
          "longitude": 0.581,
          "distance_km": 5.89
        },
        {
          "code_insee": "24372",
          "nom": "Saint-Astier",
          "slug": "saint-astier",
          "code_postal": "24110",
          "population": 5320,
          "superficie_km2": 36.0,
          "latitude": 45.1479988,
          "longitude": 0.52,
          "distance_km": 7.05
        },
        {
          "code_insee": "24139",
          "nom": "Coursac",
          "slug": "coursac",
          "code_postal": "24430",
          "population": 2284,
          "superficie_km2": 25.0,
          "latitude": 45.1269989,
          "longitude": 0.643,
          "distance_km": 7.28
        },
        {
          "code_insee": "24138",
          "nom": "Coulounieix-Chamiers",
          "slug": "coulounieix-chamiers",
          "code_postal": "24660",
          "population": 7245,
          "superficie_km2": 21.0,
          "latitude": 45.1650009,
          "longitude": 0.688,
          "distance_km": 7.56
        },
        {
          "code_insee": "24322",
          "nom": "Périgueux",
          "slug": "perigueux",
          "code_postal": "24000",
          "population": 29516,
          "superficie_km2": 10.0,
          "latitude": 45.1920013,
          "longitude": 0.712,
          "distance_km": 9.22
        },
        {
          "code_insee": "24553",
          "nom": "Tocane-Saint-Apre",
          "slug": "tocane-saint-apre",
          "code_postal": "24350",
          "population": 1745,
          "superficie_km2": 33.0,
          "latitude": 45.2369995,
          "longitude": 0.497,
          "distance_km": 9.75
        },
        {
          "code_insee": "24442",
          "nom": "Saint-Léon-sur-l'Isle",
          "slug": "saint-leon-sur-l-isle",
          "code_postal": "24110",
          "population": 2051,
          "superficie_km2": 14.0,
          "latitude": 45.1170006,
          "longitude": 0.5,
          "distance_km": 10.46
        },
        {
          "code_insee": "24115",
          "nom": "Château-l'Évêque",
          "slug": "chateau-l-eveque",
          "code_postal": "24460",
          "population": 2151,
          "superficie_km2": 37.0,
          "latitude": 45.2579994,
          "longitude": 0.686,
          "distance_km": 10.97
        },
        {
          "code_insee": "24098",
          "nom": "Champcevinel",
          "slug": "champcevinel",
          "code_postal": "24750",
          "population": 3029,
          "superficie_km2": 18.0,
          "latitude": 45.2210007,
          "longitude": 0.725,
          "distance_km": 11.03
        },
        {
          "code_insee": "24312",
          "nom": "Sanilhac",
          "slug": "sanilhac",
          "code_postal": "24660",
          "population": 4674,
          "superficie_km2": 27.0,
          "latitude": 45.1269989,
          "longitude": 0.713,
          "distance_km": 11.15
        },
        {
          "code_insee": "24053",
          "nom": "Boulazac Isle Manoire",
          "slug": "boulazac-isle-manoire",
          "code_postal": "24750",
          "population": 10697,
          "superficie_km2": 15.0,
          "latitude": 45.1739998,
          "longitude": 0.769,
          "distance_km": 13.68
        },
        {
          "code_insee": "24309",
          "nom": "Neuvic",
          "slug": "neuvic",
          "code_postal": "24190",
          "population": 3640,
          "superficie_km2": 26.0,
          "latitude": 45.0890007,
          "longitude": 0.466,
          "distance_km": 14.55
        },
        {
          "code_insee": "24557",
          "nom": "Trélissac",
          "slug": "trelissac",
          "code_postal": "24750",
          "population": 7268,
          "superficie_km2": 24.0,
          "latitude": 45.2099991,
          "longitude": 0.778,
          "distance_km": 14.65
        },
        {
          "code_insee": "24002",
          "nom": "Agonac",
          "slug": "agonac",
          "code_postal": "24460",
          "population": 1796,
          "superficie_km2": 38.0,
          "latitude": 45.2820015,
          "longitude": 0.745,
          "distance_km": 16.1
        },
        {
          "code_insee": "24026",
          "nom": "Bassillac et Auberoche",
          "slug": "bassillac-et-auberoche",
          "code_postal": "24330",
          "population": 4363,
          "superficie_km2": 19.0,
          "latitude": 45.1790009,
          "longitude": 0.821,
          "distance_km": 17.72
        }
      ],
      "zonage_abc": "C",
      "reclassement_abc": "Non",
      "codes_postaux": [
        {
          "code_postal": "24430",
          "libelle_acheminement": "ANNESSE ET BEAULIEU"
        }
      ],
      "logement": {
        "logements_total": 703,
        "residences_principales": 615,
        "logements_vacants": 59,
        "residences_secondaires": 29,
        "maisons": 654,
        "appartements": 46,
        "proprietaires": 519,
        "locataires": 78,
        "hlm": 0,
        "construits_avant_1919": 77,
        "construits_1919_1945": 40,
        "construits_1946_1970": 67,
        "construits_1971_1990": 207,
        "construits_1991_2005": 112,
        "construits_2006_2019": 82,
        "chauffage_electrique": 227,
        "chauffage_fioul": 64,
        "chauffage_gaz_ville": 119,
        "chauffage_gaz_bouteille": 14,
        "chauffage_autre": 189,
        "menages": 615,
        "logements_avant_1990": 391
      },
      "artisans": {
        "monte_escalier": 0,
        "chauffage_pac_clim": 3,
        "isolation": 4,
        "menuiserie": 1,
        "fenetres_velux": 1,
        "couverture_toiture": 1,
        "facade_peinture": 3,
        "portes_volets": 1,
        "piscine": 0,
        "vmc_ventilation": 2,
        "assainissement": 1
      },
      "revenus": {
        "revenu_median": 22530.0,
        "part_menages_imposes": null,
        "taux_pauvrete": null
      },
      "aides_etat": {
        "zone_climatique": "H2",
        "qpv": false,
        "action_coeur_de_ville": false,
        "petites_villes_de_demain": false
      }
    },
    {
      "code_insee": "24011",
      "nom": "Antonne-et-Trigonant",
      "nom_a": null,
      "nom_de": null,
      "slug": "antonne-et-trigonant",
      "code_postal": "24420",
      "population": 1257,
      "superficie_km2": 21.0,
      "latitude": 45.2299995,
      "longitude": 0.832,
      "villes_proches": [
        {
          "code_insee": "24521",
          "nom": "Sarliac-sur-l'Isle",
          "slug": "sarliac-sur-l-isle",
          "code_postal": "24420",
          "population": 1037,
          "superficie_km2": 10.0,
          "latitude": 45.2400017,
          "longitude": 0.866,
          "distance_km": 2.89
        },
        {
          "code_insee": "24557",
          "nom": "Trélissac",
          "slug": "trelissac",
          "code_postal": "24750",
          "population": 7268,
          "superficie_km2": 24.0,
          "latitude": 45.2099991,
          "longitude": 0.778,
          "distance_km": 4.78
        },
        {
          "code_insee": "24026",
          "nom": "Bassillac et Auberoche",
          "slug": "bassillac-et-auberoche",
          "code_postal": "24330",
          "population": 4363,
          "superficie_km2": 19.0,
          "latitude": 45.1790009,
          "longitude": 0.821,
          "distance_km": 5.74
        },
        {
          "code_insee": "24540",
          "nom": "Sorges et Ligueux en Périgord",
          "slug": "sorges-et-ligueux-en-perigord",
          "code_postal": "24420",
          "population": 1612,
          "superficie_km2": 49.0,
          "latitude": 45.2919998,
          "longitude": 0.85,
          "distance_km": 7.04
        },
        {
          "code_insee": "24053",
          "nom": "Boulazac Isle Manoire",
          "slug": "boulazac-isle-manoire",
          "code_postal": "24750",
          "population": 10697,
          "superficie_km2": 15.0,
          "latitude": 45.1739998,
          "longitude": 0.769,
          "distance_km": 7.95
        },
        {
          "code_insee": "24147",
          "nom": "Cubjac-Auvézère-Val d'Ans",
          "slug": "cubjac-auvezere-val-d-ans",
          "code_postal": "24640",
          "population": 1104,
          "superficie_km2": 21.0,
          "latitude": 45.2249985,
          "longitude": 0.939,
          "distance_km": 8.4
        },
        {
          "code_insee": "24098",
          "nom": "Champcevinel",
          "slug": "champcevinel",
          "code_postal": "24750",
          "population": 3029,
          "superficie_km2": 18.0,
          "latitude": 45.2210007,
          "longitude": 0.725,
          "distance_km": 8.44
        },
        {
          "code_insee": "24002",
          "nom": "Agonac",
          "slug": "agonac",
          "code_postal": "24460",
          "population": 1796,
          "superficie_km2": 38.0,
          "latitude": 45.2820015,
          "longitude": 0.745,
          "distance_km": 8.93
        },
        {
          "code_insee": "24322",
          "nom": "Périgueux",
          "slug": "perigueux",
          "code_postal": "24000",
          "population": 29516,
          "superficie_km2": 10.0,
          "latitude": 45.1920013,
          "longitude": 0.712,
          "distance_km": 10.31
        },
        {
          "code_insee": "24115",
          "nom": "Château-l'Évêque",
          "slug": "chateau-l-eveque",
          "code_postal": "24460",
          "population": 2151,
          "superficie_km2": 37.0,
          "latitude": 45.2579994,
          "longitude": 0.686,
          "distance_km": 11.85
        },
        {
          "code_insee": "24138",
          "nom": "Coulounieix-Chamiers",
          "slug": "coulounieix-chamiers",
          "code_postal": "24660",
          "population": 7245,
          "superficie_km2": 21.0,
          "latitude": 45.1650009,
          "longitude": 0.688,
          "distance_km": 13.4
        },
        {
          "code_insee": "24102",
          "nom": "Chancelade",
          "slug": "chancelade",
          "code_postal": "24650",
          "population": 4435,
          "superficie_km2": 17.0,
          "latitude": 45.2099991,
          "longitude": 0.655,
          "distance_km": 14.04
        },
        {
          "code_insee": "24312",
          "nom": "Sanilhac",
          "slug": "sanilhac",
          "code_postal": "24660",
          "population": 4674,
          "superficie_km2": 27.0,
          "latitude": 45.1269989,
          "longitude": 0.713,
          "distance_km": 14.77
        },
        {
          "code_insee": "24256",
          "nom": "Marsac-sur-l'Isle",
          "slug": "marsac-sur-l-isle",
          "code_postal": "24430",
          "population": 3143,
          "superficie_km2": 10.0,
          "latitude": 45.1819992,
          "longitude": 0.652,
          "distance_km": 15.08
        },
        {
          "code_insee": "24108",
          "nom": "La Chapelle-Gonaguet",
          "slug": "la-chapelle-gonaguet",
          "code_postal": "24350",
          "population": 1067,
          "superficie_km2": 20.0,
          "latitude": 45.2299995,
          "longitude": 0.619,
          "distance_km": 16.68
        },
        {
          "code_insee": "24156",
          "nom": "La Douze",
          "slug": "la-douze",
          "code_postal": "24330",
          "population": 1155,
          "superficie_km2": 24.0,
          "latitude": 45.0680008,
          "longitude": 0.862,
          "distance_km": 18.17
        },
        {
          "code_insee": "24350",
          "nom": "Razac-sur-l'Isle",
          "slug": "razac-sur-l-isle",
          "code_postal": "24430",
          "population": 2369,
          "superficie_km2": 15.0,
          "latitude": 45.1609993,
          "longitude": 0.616,
          "distance_km": 18.58
        },
        {
          "code_insee": "24139",
          "nom": "Coursac",
          "slug": "coursac",
          "code_postal": "24430",
          "population": 2284,
          "superficie_km2": 25.0,
          "latitude": 45.1269989,
          "longitude": 0.643,
          "distance_km": 18.73
        },
        {
          "code_insee": "24010",
          "nom": "Annesse-et-Beaulieu",
          "slug": "annesse-et-beaulieu",
          "code_postal": "24430",
          "population": 1445,
          "superficie_km2": 13.0,
          "latitude": 45.1829987,
          "longitude": 0.595,
          "distance_km": 19.29
        },
        {
          "code_insee": "24064",
          "nom": "Brantôme en Périgord",
          "slug": "brantome-en-perigord",
          "code_postal": "24310",
          "population": 3721,
          "superficie_km2": 36.0,
          "latitude": 45.3600006,
          "longitude": 0.656,
          "distance_km": 19.96
        }
      ],
      "zonage_abc": "C",
      "reclassement_abc": "Non",
      "codes_postaux": [
        {
          "code_postal": "24420",
          "libelle_acheminement": "ANTONNE ET TRIGONANT"
        }
      ],
      "logement": {
        "logements_total": 570,
        "residences_principales": 480,
        "logements_vacants": 56,
        "residences_secondaires": 32,
        "maisons": 554,
        "appartements": 15,
        "proprietaires": 401,
        "locataires": 70,
        "hlm": 12,
        "construits_avant_1919": 61,
        "construits_1919_1945": 21,
        "construits_1946_1970": 93,
        "construits_1971_1990": 155,
        "construits_1991_2005": 77,
        "construits_2006_2019": 65,
        "chauffage_electrique": 208,
        "chauffage_fioul": 82,
        "chauffage_gaz_ville": 0,
        "chauffage_gaz_bouteille": 24,
        "chauffage_autre": 164,
        "menages": 480,
        "logements_avant_1990": 330
      },
      "artisans": {
        "monte_escalier": 1,
        "chauffage_pac_clim": 3,
        "isolation": 2,
        "menuiserie": 2,
        "fenetres_velux": 2,
        "couverture_toiture": 0,
        "facade_peinture": 2,
        "portes_volets": 2,
        "piscine": 1,
        "vmc_ventilation": 2,
        "assainissement": 1
      },
      "revenus": {
        "revenu_median": 22350.0,
        "part_menages_imposes": null,
        "taux_pauvrete": null
      },
      "aides_etat": {
        "zone_climatique": "H2",
        "qpv": false,
        "action_coeur_de_ville": false,
        "petites_villes_de_demain": false
      }
    },
    {
      "code_insee": "24012",
      "nom": "Archignac",
      "nom_a": null,
      "nom_de": null,
      "slug": "archignac",
      "code_postal": "24590",
      "population": 409,
      "superficie_km2": 2336.53,
      "latitude": 45.0162,
      "longitude": 1.2922,
      "villes_proches": [
        {
          "code_insee": "24412",
          "nom": "Saint-Geniès",
          "slug": "saint-genies",
          "code_postal": "24590",
          "population": 926,
          "superficie_km2": 3473.14,
          "latitude": 45.0027,
          "longitude": 1.2539,
          "distance_km": 3.36
        },
        {
          "code_insee": "24317",
          "nom": "Paulin",
          "slug": "paulin",
          "code_postal": "24590",
          "population": 246,
          "superficie_km2": 1174.88,
          "latitude": 44.9969,
          "longitude": 1.3314,
          "distance_km": 3.76
        },
        {
          "code_insee": "24085",
          "nom": "La Cassagne",
          "slug": "la-cassagne",
          "code_postal": "24120",
          "population": 149,
          "superficie_km2": 1518.7,
          "latitude": 45.0562,
          "longitude": 1.3065,
          "distance_km": 4.59
        },
        {
          "code_insee": "24215",
          "nom": "Jayac",
          "slug": "jayac",
          "code_postal": "24590",
          "population": 191,
          "superficie_km2": 1822.02,
          "latitude": 45.0293,
          "longitude": 1.3518,
          "distance_km": 4.91
        },
        {
          "code_insee": "24364",
          "nom": "Coly-Saint-Amand",
          "slug": "coly-saint-amand",
          "code_postal": "24120",
          "population": 640,
          "superficie_km2": 3543.72,
          "latitude": 45.0634,
          "longitude": 1.2456,
          "distance_km": 6.4
        },
        {
          "code_insee": "24392",
          "nom": "Saint-Crépin-et-Carlucet",
          "slug": "saint-crepin-et-carlucet",
          "code_postal": "24590",
          "population": 536,
          "superficie_km2": 1895.44,
          "latitude": 44.9539,
          "longitude": 1.2709,
          "distance_km": 7.13
        },
        {
          "code_insee": "24153",
          "nom": "La Dornac",
          "slug": "la-dornac",
          "code_postal": "24120",
          "population": 407,
          "superficie_km2": 1623.07,
          "latitude": 45.0717,
          "longitude": 1.3421,
          "distance_km": 7.31
        },
        {
          "code_insee": "24106",
          "nom": "La Chapelle-Aubareil",
          "slug": "la-chapelle-aubareil",
          "code_postal": "24290",
          "population": 542,
          "superficie_km2": 2034.45,
          "latitude": 45.0042,
          "longitude": 1.1897,
          "distance_km": 8.17
        },
        {
          "code_insee": "24301",
          "nom": "Nadaillac",
          "slug": "nadaillac",
          "code_postal": "24590",
          "population": 372,
          "superficie_km2": 2765.86,
          "latitude": 45.032,
          "longitude": 1.4029,
          "distance_km": 8.88
        },
        {
          "code_insee": "24050",
          "nom": "Borrèze",
          "slug": "borreze",
          "code_postal": "24590",
          "population": 354,
          "superficie_km2": 2803.51,
          "latitude": 44.972,
          "longitude": 1.3906,
          "distance_km": 9.17
        },
        {
          "code_insee": "24516",
          "nom": "Salignac-Eyvigues",
          "slug": "salignac-eyvigues",
          "code_postal": "24590",
          "population": 1184,
          "superficie_km2": 4457.86,
          "latitude": 44.947,
          "longitude": 1.3719,
          "distance_km": 9.92
        },
        {
          "code_insee": "24252",
          "nom": "Marcillac-Saint-Quentin",
          "slug": "marcillac-saint-quentin",
          "code_postal": "24200",
          "population": 826,
          "superficie_km2": 1709.42,
          "latitude": 44.9532,
          "longitude": 1.2024,
          "distance_km": 9.95
        },
        {
          "code_insee": "24117",
          "nom": "Les Coteaux Périgourdins",
          "slug": "les-coteaux-perigourdins",
          "code_postal": "24120",
          "population": 554,
          "superficie_km2": 2006.76,
          "latitude": 45.092,
          "longitude": 1.3646,
          "distance_km": 10.17
        },
        {
          "code_insee": "24014",
          "nom": "Aubas",
          "slug": "aubas",
          "code_postal": "24290",
          "population": 614,
          "superficie_km2": 1717.61,
          "latitude": 45.0804,
          "longitude": 1.1992,
          "distance_km": 10.21
        },
        {
          "code_insee": "24341",
          "nom": "Proissans",
          "slug": "proissans",
          "code_postal": "24200",
          "population": 1102,
          "superficie_km2": 1812.15,
          "latitude": 44.9293,
          "longitude": 1.2465,
          "distance_km": 10.31
        },
        {
          "code_insee": "24130",
          "nom": "Condat-sur-Vézère",
          "slug": "condat-sur-vezere",
          "code_postal": "24570",
          "population": 859,
          "superficie_km2": 1649.91,
          "latitude": 45.1067,
          "longitude": 1.2278,
          "distance_km": 11.26
        },
        {
          "code_insee": "24547",
          "nom": "Terrasson-Lavilledieu",
          "slug": "terrasson-lavilledieu",
          "code_postal": "24120",
          "population": 6218,
          "superficie_km2": 3923.4,
          "latitude": 45.118,
          "longitude": 1.3022,
          "distance_km": 11.35
        },
        {
          "code_insee": "24471",
          "nom": "Sainte-Nathalène",
          "slug": "sainte-nathalene",
          "code_postal": "24200",
          "population": 648,
          "superficie_km2": 1396.1,
          "latitude": 44.9145,
          "longitude": 1.2782,
          "distance_km": 11.36
        },
        {
          "code_insee": "24535",
          "nom": "Simeyrols",
          "slug": "simeyrols",
          "code_postal": "24370",
          "population": 256,
          "superficie_km2": 943.01,
          "latitude": 44.9137,
          "longitude": 1.3367,
          "distance_km": 11.92
        },
        {
          "code_insee": "24336",
          "nom": "Prats-de-Carlux",
          "slug": "prats-de-carlux",
          "code_postal": "24370",
          "population": 491,
          "superficie_km2": 1294.74,
          "latitude": 44.8923,
          "longitude": 1.3093,
          "distance_km": 13.84
        }
      ],
      "zonage_abc": "C",
      "reclassement_abc": "Non",
      "codes_postaux": [
        {
          "code_postal": "24590",
          "libelle_acheminement": "ARCHIGNAC"
        }
      ],
      "logement": {
        "logements_total": 275,
        "residences_principales": 180,
        "logements_vacants": 11,
        "residences_secondaires": 83,
        "maisons": 270,
        "appartements": 4,
        "proprietaires": 143,
        "locataires": 31,
        "hlm": 0,
        "construits_avant_1919": 56,
        "construits_1919_1945": 8,
        "construits_1946_1970": 10,
        "construits_1971_1990": 15,
        "construits_1991_2005": 33,
        "construits_2006_2019": 41,
        "chauffage_electrique": 71,
        "chauffage_fioul": 18,
        "chauffage_gaz_ville": 0,
        "chauffage_gaz_bouteille": 3,
        "chauffage_autre": 86,
        "menages": 180,
        "logements_avant_1990": 89
      },
      "artisans": {
        "monte_escalier": 0,
        "chauffage_pac_clim": 0,
        "isolation": 2,
        "menuiserie": 1,
        "fenetres_velux": 1,
        "couverture_toiture": 0,
        "facade_peinture": 1,
        "portes_volets": 1,
        "piscine": 0,
        "vmc_ventilation": 0,
        "assainissement": 0
      },
      "revenus": {
        "revenu_median": 20060.0,
        "part_menages_imposes": null,
        "taux_pauvrete": null
      },
      "aides_etat": {
        "zone_climatique": "H2",
        "qpv": false,
        "action_coeur_de_ville": false,
        "petites_villes_de_demain": false
      }
    },
    {
      "code_insee": "24014",
      "nom": "Aubas",
      "nom_a": null,
      "nom_de": null,
      "slug": "aubas",
      "code_postal": "24290",
      "population": 614,
      "superficie_km2": 1717.61,
      "latitude": 45.0804,
      "longitude": 1.1992,
      "villes_proches": [
        {
          "code_insee": "24291",
          "nom": "Montignac-Lascaux",
          "slug": "montignac-lascaux",
          "code_postal": "24290",
          "population": 2762,
          "superficie_km2": 3628.4,
          "latitude": 45.0644,
          "longitude": 1.1589,
          "distance_km": 3.63
        },
        {
          "code_insee": "24130",
          "nom": "Condat-sur-Vézère",
          "slug": "condat-sur-vezere",
          "code_postal": "24570",
          "population": 859,
          "superficie_km2": 1649.91,
          "latitude": 45.1067,
          "longitude": 1.2278,
          "distance_km": 3.69
        },
        {
          "code_insee": "24175",
          "nom": "Les Farges",
          "slug": "les-farges",
          "code_postal": "24290",
          "population": 311,
          "superficie_km2": 796.68,
          "latitude": 45.1144,
          "longitude": 1.1954,
          "distance_km": 3.79
        },
        {
          "code_insee": "24364",
          "nom": "Coly-Saint-Amand",
          "slug": "coly-saint-amand",
          "code_postal": "24120",
          "population": 640,
          "superficie_km2": 3543.72,
          "latitude": 45.0634,
          "longitude": 1.2456,
          "distance_km": 4.1
        },
        {
          "code_insee": "24020",
          "nom": "La Bachellerie",
          "slug": "la-bachellerie",
          "code_postal": "24210",
          "population": 891,
          "superficie_km2": 1775.54,
          "latitude": 45.1313,
          "longitude": 1.1612,
          "distance_km": 6.4
        },
        {
          "code_insee": "24018",
          "nom": "Auriac-du-Périgord",
          "slug": "auriac-du-perigord",
          "code_postal": "24290",
          "population": 397,
          "superficie_km2": 1836.51,
          "latitude": 45.1116,
          "longitude": 1.1286,
          "distance_km": 6.54
        },
        {
          "code_insee": "24229",
          "nom": "Le Lardin-Saint-Lazare",
          "slug": "le-lardin-saint-lazare",
          "code_postal": "24570",
          "population": 1672,
          "superficie_km2": 1088.99,
          "latitude": 45.1365,
          "longitude": 1.2282,
          "distance_km": 6.64
        },
        {
          "code_insee": "24174",
          "nom": "Fanlac",
          "slug": "fanlac",
          "code_postal": "24290",
          "population": 134,
          "superficie_km2": 1464.82,
          "latitude": 45.0731,
          "longitude": 1.0944,
          "distance_km": 8.27
        },
        {
          "code_insee": "24563",
          "nom": "Valojoulx",
          "slug": "valojoulx",
          "code_postal": "24290",
          "population": 285,
          "superficie_km2": 1220.87,
          "latitude": 45.0144,
          "longitude": 1.1498,
          "distance_km": 8.3
        },
        {
          "code_insee": "24106",
          "nom": "La Chapelle-Aubareil",
          "slug": "la-chapelle-aubareil",
          "code_postal": "24290",
          "population": 542,
          "superficie_km2": 2034.45,
          "latitude": 45.0042,
          "longitude": 1.1897,
          "distance_km": 8.51
        },
        {
          "code_insee": "24030",
          "nom": "Beauregard-de-Terrasson",
          "slug": "beauregard-de-terrasson",
          "code_postal": "24120",
          "population": 731,
          "superficie_km2": 833.72,
          "latitude": 45.1557,
          "longitude": 1.2293,
          "distance_km": 8.7
        },
        {
          "code_insee": "24085",
          "nom": "La Cassagne",
          "slug": "la-cassagne",
          "code_postal": "24120",
          "population": 149,
          "superficie_km2": 1518.7,
          "latitude": 45.0562,
          "longitude": 1.3065,
          "distance_km": 8.85
        },
        {
          "code_insee": "24324",
          "nom": "Peyrignac",
          "slug": "peyrignac",
          "code_postal": "24210",
          "population": 577,
          "superficie_km2": 656.34,
          "latitude": 45.1611,
          "longitude": 1.1934,
          "distance_km": 8.98
        },
        {
          "code_insee": "24547",
          "nom": "Terrasson-Lavilledieu",
          "slug": "terrasson-lavilledieu",
          "code_postal": "24120",
          "population": 6218,
          "superficie_km2": 3923.4,
          "latitude": 45.118,
          "longitude": 1.3022,
          "distance_km": 9.1
        },
        {
          "code_insee": "24552",
          "nom": "Thonac",
          "slug": "thonac",
          "code_postal": "24290",
          "population": 275,
          "superficie_km2": 1140.75,
          "latitude": 45.0358,
          "longitude": 1.1013,
          "distance_km": 9.15
        },
        {
          "code_insee": "24412",
          "nom": "Saint-Geniès",
          "slug": "saint-genies",
          "code_postal": "24590",
          "population": 926,
          "superficie_km2": 3473.14,
          "latitude": 45.0027,
          "longitude": 1.2539,
          "distance_km": 9.65
        },
        {
          "code_insee": "24012",
          "nom": "Archignac",
          "slug": "archignac",
          "code_postal": "24590",
          "population": 409,
          "superficie_km2": 2336.53,
          "latitude": 45.0162,
          "longitude": 1.2922,
          "distance_km": 10.21
        },
        {
          "code_insee": "24531",
          "nom": "Sergeac",
          "slug": "sergeac",
          "code_postal": "24290",
          "population": 215,
          "superficie_km2": 1051.92,
          "latitude": 45.0003,
          "longitude": 1.1125,
          "distance_km": 11.21
        },
        {
          "code_insee": "24491",
          "nom": "Saint-Rabier",
          "slug": "saint-rabier",
          "code_postal": "24210",
          "population": 538,
          "superficie_km2": 1663.2,
          "latitude": 45.1744,
          "longitude": 1.1384,
          "distance_km": 11.49
        },
        {
          "code_insee": "24116",
          "nom": "Châtres",
          "slug": "chatres",
          "code_postal": "24120",
          "population": 180,
          "superficie_km2": 1257.41,
          "latitude": 45.1859,
          "longitude": 1.1959,
          "distance_km": 11.73
        }
      ],
      "zonage_abc": "C",
      "reclassement_abc": "Non",
      "codes_postaux": [
        {
          "code_postal": "24290",
          "libelle_acheminement": "AUBAS"
        }
      ],
      "logement": {
        "logements_total": 407,
        "residences_principales": 288,
        "logements_vacants": 65,
        "residences_secondaires": 53,
        "maisons": 396,
        "appartements": 7,
        "proprietaires": 228,
        "locataires": 52,
        "hlm": 10,
        "construits_avant_1919": 39,
        "construits_1919_1945": 13,
        "construits_1946_1970": 19,
        "construits_1971_1990": 82,
        "construits_1991_2005": 61,
        "construits_2006_2019": 60,
        "chauffage_electrique": 104,
        "chauffage_fioul": 32,
        "chauffage_gaz_ville": 11,
        "chauffage_gaz_bouteille": 6,
        "chauffage_autre": 133,
        "menages": 288,
        "logements_avant_1990": 153
      },
      "artisans": {
        "monte_escalier": 0,
        "chauffage_pac_clim": 4,
        "isolation": 5,
        "menuiserie": 1,
        "fenetres_velux": 1,
        "couverture_toiture": 0,
        "facade_peinture": 4,
        "portes_volets": 1,
        "piscine": 2,
        "vmc_ventilation": 2,
        "assainissement": 2
      },
      "revenus": {
        "revenu_median": 20830.0,
        "part_menages_imposes": null,
        "taux_pauvrete": null
      },
      "aides_etat": {
        "zone_climatique": "H2",
        "qpv": false,
        "action_coeur_de_ville": false,
        "petites_villes_de_demain": false
      }
    },