{
  "departement": {
    "code": "28",
    "nom": "Eure-et-Loir",
    "slug": "eure-et-loir",
    "population_totale": 431643
  },
  "region": {
    "id": 5,
    "code": "04",
    "nom": "Centre-Val de Loire",
    "slug": "centre-val-de-loire"
  },
  "voisins": [
    {
      "dep_code": "18",
      "dep_nom": "Cher",
      "dep_slug": "cher"
    },
    {
      "dep_code": "36",
      "dep_nom": "Indre",
      "dep_slug": "indre"
    },
    {
      "dep_code": "37",
      "dep_nom": "Indre-et-Loire",
      "dep_slug": "indre-et-loire"
    },
    {
      "dep_code": "41",
      "dep_nom": "Loir-et-Cher",
      "dep_slug": "loir-et-cher"
    }
  ],
  "communes_count": 363,
  "communes": [
    {
      "code_insee": "28001",
      "nom": "Abondant",
      "nom_a": null,
      "nom_de": null,
      "slug": "abondant",
      "code_postal": "28410",
      "population": 2427,
      "superficie_km2": 35.0,
      "latitude": 48.7949982,
      "longitude": 1.42,
      "villes_proches": [
        {
          "code_insee": "28377",
          "nom": "Sorel-Moussel",
          "slug": "sorel-moussel",
          "code_postal": "28260",
          "population": 1722,
          "superficie_km2": 13.0,
          "latitude": 48.8289986,
          "longitude": 1.3940001,
          "distance_km": 4.23
        },
        {
          "code_insee": "28098",
          "nom": "Cherisy",
          "slug": "cherisy",
          "code_postal": "28500",
          "population": 1827,
          "superficie_km2": 12.0,
          "latitude": 48.757,
          "longitude": 1.4349999,
          "distance_km": 4.37
        },
        {
          "code_insee": "28064",
          "nom": "Bû",
          "slug": "bu",
          "code_postal": "28410",
          "population": 2022,
          "superficie_km2": 23.0,
          "latitude": 48.8019981,
          "longitude": 1.493,
          "distance_km": 5.4
        },
        {
          "code_insee": "28371",
          "nom": "Saussay",
          "slug": "saussay",
          "code_postal": "28260",
          "population": 1099,
          "superficie_km2": 5.0,
          "latitude": 48.8510017,
          "longitude": 1.41,
          "distance_km": 6.27
        },
        {
          "code_insee": "28332",
          "nom": "Sainte-Gemme-Moronval",
          "slug": "sainte-gemme-moronval",
          "code_postal": "28500",
          "population": 1094,
          "superficie_km2": 5.0,
          "latitude": 48.7360001,
          "longitude": 1.4119999,
          "distance_km": 6.59
        },
        {
          "code_insee": "28007",
          "nom": "Anet",
          "slug": "anet",
          "code_postal": "28260",
          "population": 2696,
          "superficie_km2": 8.0,
          "latitude": 48.8530006,
          "longitude": 1.443,
          "distance_km": 6.67
        },
        {
          "code_insee": "28134",
          "nom": "Dreux",
          "slug": "dreux",
          "code_postal": "28100",
          "population": 30879,
          "superficie_km2": 24.0,
          "latitude": 48.7480011,
          "longitude": 1.359,
          "distance_km": 6.88
        },
        {
          "code_insee": "27391",
          "nom": "Marcilly-sur-Eure",
          "slug": "marcilly-sur-eure",
          "code_postal": "27810",
          "population": 1588,
          "superficie_km2": 16.0,
          "latitude": 48.8209992,
          "longitude": 1.3329999,
          "distance_km": 7
        },
        {
          "code_insee": "27193",
          "nom": "Croth",
          "slug": "croth",
          "code_postal": "27530",
          "population": 1378,
          "superficie_km2": 11.0,
          "latitude": 48.8510017,
          "longitude": 1.368,
          "distance_km": 7.3
        },
        {
          "code_insee": "28251",
          "nom": "Mézières-en-Drouais",
          "slug": "mezieres-en-drouais",
          "code_postal": "28500",
          "population": 1055,
          "superficie_km2": 9.0,
          "latitude": 48.7260017,
          "longitude": 1.442,
          "distance_km": 7.84
        },
        {
          "code_insee": "27230",
          "nom": "Ézy-sur-Eure",
          "slug": "ezy-sur-eure",
          "code_postal": "27530",
          "population": 3669,
          "superficie_km2": 9.0,
          "latitude": 48.8709984,
          "longitude": 1.413,
          "distance_km": 8.47
        },
        {
          "code_insee": "28223",
          "nom": "Luray",
          "slug": "luray",
          "code_postal": "28500",
          "population": 1573,
          "superficie_km2": 5.0,
          "latitude": 48.7159996,
          "longitude": 1.399,
          "distance_km": 8.92
        },
        {
          "code_insee": "27073",
          "nom": "Bois-le-Roi",
          "slug": "bois-le-roi",
          "code_postal": "27220",
          "population": 1231,
          "superficie_km2": 6.0,
          "latitude": 48.8610001,
          "longitude": 1.341,
          "distance_km": 9.34
        },
        {
          "code_insee": "28293",
          "nom": "Oulins",
          "slug": "oulins",
          "code_postal": "28260",
          "population": 1191,
          "superficie_km2": 10.0,
          "latitude": 48.8670006,
          "longitude": 1.489,
          "distance_km": 9.47
        },
        {
          "code_insee": "28404",
          "nom": "Vernouillet",
          "slug": "vernouillet",
          "code_postal": "28500",
          "population": 12455,
          "superficie_km2": 12.0,
          "latitude": 48.7200012,
          "longitude": 1.351,
          "distance_km": 9.75
        },
        {
          "code_insee": "27355",
          "nom": "Ivry-la-Bataille",
          "slug": "ivry-la-bataille",
          "code_postal": "27540",
          "population": 2638,
          "superficie_km2": 8.0,
          "latitude": 48.8860016,
          "longitude": 1.447,
          "distance_km": 10.31
        },
        {
          "code_insee": "28185",
          "nom": "Goussainville",
          "slug": "goussainville",
          "code_postal": "28410",
          "population": 1309,
          "superficie_km2": 11.0,
          "latitude": 48.783001,
          "longitude": 1.5599999,
          "distance_km": 10.34
        },
        {
          "code_insee": "28405",
          "nom": "Vert-en-Drouais",
          "slug": "vert-en-drouais",
          "code_postal": "28500",
          "population": 1108,
          "superficie_km2": 10.0,
          "latitude": 48.7509995,
          "longitude": 1.295,
          "distance_km": 10.38
        },
        {
          "code_insee": "28096",
          "nom": "La Chaussée-d'Ivry",
          "slug": "la-chaussee-d-ivry",
          "code_postal": "28260",
          "population": 1294,
          "superficie_km2": 8.0,
          "latitude": 48.8889999,
          "longitude": 1.488,
          "distance_km": 11.58
        },
        {
          "code_insee": "27548",
          "nom": "Saint-Germain-sur-Avre",
          "slug": "saint-germain-sur-avre",
          "code_postal": "27320",
          "population": 1182,
          "superficie_km2": 5.0,
          "latitude": 48.7729988,
          "longitude": 1.263,
          "distance_km": 11.76
        }
      ],
      "zonage_abc": "B2",
      "reclassement_abc": "Non",
      "codes_postaux": [
        {
          "code_postal": "28410",
          "libelle_acheminement": "ABONDANT"
        }
      ],
      "logement": {
        "logements_total": 1119,
        "residences_principales": 962,
        "logements_vacants": 62,
        "residences_secondaires": 95,
        "maisons": 963,
        "appartements": 141,
        "proprietaires": 763,
        "locataires": 182,
        "hlm": 1,
        "construits_avant_1919": 127,
        "construits_1919_1945": 42,
        "construits_1946_1970": 135,
        "construits_1971_1990": 283,
        "construits_1991_2005": 150,
        "construits_2006_2019": 214,
        "chauffage_electrique": 430,
        "chauffage_fioul": 104,
        "chauffage_gaz_ville": 225,
        "chauffage_gaz_bouteille": 27,
        "chauffage_autre": 176,
        "menages": 962,
        "logements_avant_1990": 587
      },
      "artisans": {
        "monte_escalier": 0,
        "chauffage_pac_clim": 5,
        "isolation": 1,
        "menuiserie": 5,
        "fenetres_velux": 5,
        "couverture_toiture": 0,
        "facade_peinture": 3,
        "portes_volets": 5,
        "piscine": 1,
        "vmc_ventilation": 0,
        "assainissement": 5
      },
      "revenus": {
        "revenu_median": 26280.0,
        "part_menages_imposes": 66.0,
        "taux_pauvrete": null
      },
      "aides_etat": {
        "zone_climatique": "H1",
        "qpv": false,
        "action_coeur_de_ville": false,
        "petites_villes_de_demain": false
      }
    },
    {
      "code_insee": "28003",
      "nom": "Allainville",
      "nom_a": null,
      "nom_de": null,
      "slug": "allainville",
      "code_postal": "28500",
      "population": 159,
      "superficie_km2": 533.63,
      "latitude": 48.7211,
      "longitude": 1.2907,
      "villes_proches": [
        {
          "code_insee": "28216",
          "nom": "Louvilliers-en-Drouais",
          "slug": "louvilliers-en-drouais",
          "code_postal": "28500",
          "population": 230,
          "superficie_km2": 416.37,
          "latitude": 48.7338,
          "longitude": 1.283,
          "distance_km": 1.52
        },
        {
          "code_insee": "28170",
          "nom": "Garancières-en-Drouais",
          "slug": "garancieres-en-drouais",
          "code_postal": "28500",
          "population": 272,
          "superficie_km2": 652.39,
          "latitude": 48.7041,
          "longitude": 1.2824,
          "distance_km": 1.99
        },
        {
          "code_insee": "28045",
          "nom": "Boissy-en-Drouais",
          "slug": "boissy-en-drouais",
          "code_postal": "28500",
          "population": 226,
          "superficie_km2": 607.28,
          "latitude": 48.7297,
          "longitude": 1.251,
          "distance_km": 3.07
        },
        {
          "code_insee": "28405",
          "nom": "Vert-en-Drouais",
          "slug": "vert-en-drouais",
          "code_postal": "28500",
          "population": 1123,
          "superficie_km2": 973.0,
          "latitude": 48.7499,
          "longitude": 1.2924,
          "distance_km": 3.2
        },
        {
          "code_insee": "28171",
          "nom": "Garnay",
          "slug": "garnay",
          "code_postal": "28500",
          "population": 1019,
          "superficie_km2": 1436.59,
          "latitude": 48.6983,
          "longitude": 1.3371,
          "distance_km": 4.24
        },
        {
          "code_insee": "28404",
          "nom": "Vernouillet",
          "slug": "vernouillet",
          "code_postal": "28500",
          "population": 12310,
          "superficie_km2": 1225.96,
          "latitude": 48.7141,
          "longitude": 1.352,
          "distance_km": 4.56
        },
        {
          "code_insee": "28117",
          "nom": "Crécy-Couvé",
          "slug": "crecy-couve",
          "code_postal": "28500",
          "population": 255,
          "superficie_km2": 667.23,
          "latitude": 48.6776,
          "longitude": 1.2842,
          "distance_km": 4.86
        },
        {
          "code_insee": "28359",
          "nom": "Saint-Rémy-sur-Avre",
          "slug": "saint-remy-sur-avre",
          "code_postal": "28380",
          "population": 4058,
          "superficie_km2": 1305.21,
          "latitude": 48.7486,
          "longitude": 1.2381,
          "distance_km": 4.92
        },
        {
          "code_insee": "28087",
          "nom": "Châtaincourt",
          "slug": "chataincourt",
          "code_postal": "28270",
          "population": 221,
          "superficie_km2": 1479.58,
          "latitude": 48.6906,
          "longitude": 1.237,
          "distance_km": 5.2
        },
        {
          "code_insee": "28143",
          "nom": "Escorpain",
          "slug": "escorpain",
          "code_postal": "28270",
          "population": 223,
          "superficie_km2": 955.41,
          "latitude": 48.7205,
          "longitude": 1.2145,
          "distance_km": 5.59
        },
        {
          "code_insee": "28134",
          "nom": "Dreux",
          "slug": "dreux",
          "code_postal": "28100",
          "population": 31543,
          "superficie_km2": 2423.79,
          "latitude": 48.7482,
          "longitude": 1.3578,
          "distance_km": 5.77
        },
        {
          "code_insee": "28394",
          "nom": "Tréon",
          "slug": "treon",
          "code_postal": "28500",
          "population": 1418,
          "superficie_km2": 1100.5,
          "latitude": 48.6714,
          "longitude": 1.3213,
          "distance_km": 5.97
        },
        {
          "code_insee": "27548",
          "nom": "Saint-Germain-sur-Avre",
          "slug": "saint-germain-sur-avre",
          "code_postal": "27320",
          "population": 1195,
          "superficie_km2": 549.4,
          "latitude": 48.7742,
          "longitude": 1.2605,
          "distance_km": 6.31
        },
        {
          "code_insee": "27406",
          "nom": "Mesnil-sur-l'Estrée",
          "slug": "mesnil-sur-l-estree",
          "code_postal": "27650",
          "population": 942,
          "superficie_km2": 582.93,
          "latitude": 48.7785,
          "longitude": 1.2923,
          "distance_km": 6.38
        },
        {
          "code_insee": "28369",
          "nom": "Saulnières",
          "slug": "saulnieres",
          "code_postal": "28500",
          "population": 751,
          "superficie_km2": 1073.52,
          "latitude": 48.6655,
          "longitude": 1.2657,
          "distance_km": 6.45
        },
        {
          "code_insee": "27423",
          "nom": "Muzy",
          "slug": "muzy",
          "code_postal": "27650",
          "population": 768,
          "superficie_km2": 908.84,
          "latitude": 48.7764,
          "longitude": 1.3245,
          "distance_km": 6.63
        },
        {
          "code_insee": "28014",
          "nom": "Aunay-sous-Crécy",
          "slug": "aunay-sous-crecy",
          "code_postal": "28500",
          "population": 646,
          "superficie_km2": 849.76,
          "latitude": 48.6576,
          "longitude": 1.3054,
          "distance_km": 7.14
        },
        {
          "code_insee": "28155",
          "nom": "Fontaine-les-Ribouts",
          "slug": "fontaine-les-ribouts",
          "code_postal": "28170",
          "population": 186,
          "superficie_km2": 713.37,
          "latitude": 48.657,
          "longitude": 1.2484,
          "distance_km": 7.77
        },
        {
          "code_insee": "27376",
          "nom": "Louye",
          "slug": "louye",
          "code_postal": "27650",
          "population": 210,
          "superficie_km2": 524.99,
          "latitude": 48.7964,
          "longitude": 1.3223,
          "distance_km": 8.69
        },
        {
          "code_insee": "27181",
          "nom": "Courdemanche",
          "slug": "courdemanche",
          "code_postal": "27320",
          "population": 590,
          "superficie_km2": 910.63,
          "latitude": 48.8021,
          "longitude": 1.2852,
          "distance_km": 9.02
        }
      ],
      "zonage_abc": "C",
      "reclassement_abc": "Non",
      "codes_postaux": [
        {
          "code_postal": "28500",
          "libelle_acheminement": "ALLAINVILLE"
        }
      ],
      "logement": {
        "logements_total": 60,
        "residences_principales": 56,
        "logements_vacants": 2,
        "residences_secondaires": 2,
        "maisons": 60,
        "appartements": 0,
        "proprietaires": 48,
        "locataires": 5,
        "hlm": 0,
        "construits_avant_1919": 14,
        "construits_1919_1945": 2,
        "construits_1946_1970": 4,
        "construits_1971_1990": 18,
        "construits_1991_2005": 9,
        "construits_2006_2019": 7,
        "chauffage_electrique": 17,
        "chauffage_fioul": 20,
        "chauffage_gaz_ville": 0,
        "chauffage_gaz_bouteille": 4,
        "chauffage_autre": 14,
        "menages": 56,
        "logements_avant_1990": 38
      },
      "artisans": {
        "monte_escalier": 0,
        "chauffage_pac_clim": 0,
        "isolation": 0,
        "menuiserie": 0,
        "fenetres_velux": 0,
        "couverture_toiture": 0,
        "facade_peinture": 0,
        "portes_volets": 0,
        "piscine": 0,
        "vmc_ventilation": 0,
        "assainissement": 0
      },
      "revenus": {
        "revenu_median": 26030.0,
        "part_menages_imposes": null,
        "taux_pauvrete": null
      },
      "aides_etat": {
        "zone_climatique": "H1",
        "qpv": false,
        "action_coeur_de_ville": false,
        "petites_villes_de_demain": false
      }
    },
    {
      "code_insee": "28004",
      "nom": "Allonnes",
      "nom_a": null,
      "nom_de": null,
      "slug": "allonnes",
      "code_postal": "28150",
      "population": 321,
      "superficie_km2": 1031.82,
      "latitude": 48.3312,
      "longitude": 1.6524,
      "villes_proches": [
        {
          "code_insee": "28032",
          "nom": "Beauvilliers",
          "slug": "beauvilliers",
          "code_postal": "28150",
          "population": 340,
          "superficie_km2": 2325.53,
          "latitude": 48.2994,
          "longitude": 1.6561,
          "distance_km": 3.55
        },
        {
          "code_insee": "28047",
          "nom": "Boisville-la-Saint-Père",
          "slug": "boisville-la-saint-pere",
          "code_postal": "28150",
          "population": 719,
          "superficie_km2": 2518.1,
          "latitude": 48.3331,
          "longitude": 1.7008,
          "distance_km": 3.58
        },
        {
          "code_insee": "28309",
          "nom": "Prunay-le-Gillon",
          "slug": "prunay-le-gillon",
          "code_postal": "28360",
          "population": 1164,
          "superficie_km2": 2570.39,
          "latitude": 48.3678,
          "longitude": 1.6381,
          "distance_km": 4.2
        },
        {
          "code_insee": "28383",
          "nom": "Theuville",
          "slug": "theuville",
          "code_postal": "28150",
          "population": 729,
          "superficie_km2": 3043.86,
          "latitude": 48.3281,
          "longitude": 1.5909,
          "distance_km": 4.56
        },
        {
          "code_insee": "28255",
          "nom": "Moinville-la-Jeulin",
          "slug": "moinville-la-jeulin",
          "code_postal": "28700",
          "population": 159,
          "superficie_km2": 606.85,
          "latitude": 48.3752,
          "longitude": 1.7012,
          "distance_km": 6.08
        },
        {
          "code_insee": "28313",
          "nom": "Réclainville",
          "slug": "reclainville",
          "code_postal": "28150",
          "population": 203,
          "superficie_km2": 996.04,
          "latitude": 48.3387,
          "longitude": 1.7423,
          "distance_km": 6.7
        },
        {
          "code_insee": "28422",
          "nom": "Les Villages Vovéens",
          "slug": "les-villages-voveens",
          "code_postal": "28150",
          "population": 4009,
          "superficie_km2": 6383.17,
          "latitude": 48.2714,
          "longitude": 1.5995,
          "distance_km": 7.72
        },
        {
          "code_insee": "28160",
          "nom": "Francourville",
          "slug": "francourville",
          "code_postal": "28700",
          "population": 941,
          "superficie_km2": 1864.12,
          "latitude": 48.4008,
          "longitude": 1.6583,
          "distance_km": 7.75
        },
        {
          "code_insee": "28304",
          "nom": "Prasville",
          "slug": "prasville",
          "code_postal": "28150",
          "population": 451,
          "superficie_km2": 1651.12,
          "latitude": 48.271,
          "longitude": 1.7145,
          "distance_km": 8.12
        },
        {
          "code_insee": "28035",
          "nom": "Berchères-les-Pierres",
          "slug": "bercheres-les-pierres",
          "code_postal": "28630",
          "population": 1000,
          "superficie_km2": 2009.04,
          "latitude": 48.3758,
          "longitude": 1.5595,
          "distance_km": 8.47
        },
        {
          "code_insee": "28366",
          "nom": "Santeuil",
          "slug": "santeuil",
          "code_postal": "28700",
          "population": 324,
          "superficie_km2": 928.83,
          "latitude": 48.3807,
          "longitude": 1.7399,
          "distance_km": 8.49
        },
        {
          "code_insee": "28274",
          "nom": "Moutiers",
          "slug": "moutiers",
          "code_postal": "28150",
          "population": 246,
          "superficie_km2": 2140.19,
          "latitude": 48.2974,
          "longitude": 1.7595,
          "distance_km": 8.77
        },
        {
          "code_insee": "28291",
          "nom": "Ouarville",
          "slug": "ouarville",
          "code_postal": "28150",
          "population": 548,
          "superficie_km2": 2042.1,
          "latitude": 48.361,
          "longitude": 1.765,
          "distance_km": 8.96
        },
        {
          "code_insee": "28421",
          "nom": "Voise",
          "slug": "voise",
          "code_postal": "28700",
          "population": 245,
          "superficie_km2": 1031.87,
          "latitude": 48.4032,
          "longitude": 1.7079,
          "distance_km": 8.99
        },
        {
          "code_insee": "28380",
          "nom": "Sours",
          "slug": "sours",
          "code_postal": "28630",
          "population": 1959,
          "superficie_km2": 3319.97,
          "latitude": 48.4126,
          "longitude": 1.5977,
          "distance_km": 9.91
        },
        {
          "code_insee": "28426",
          "nom": "Ymonville",
          "slug": "ymonville",
          "code_postal": "28150",
          "population": 475,
          "superficie_km2": 2092.94,
          "latitude": 48.2481,
          "longitude": 1.7505,
          "distance_km": 11.75
        },
        {
          "code_insee": "28344",
          "nom": "Saint-Léger-des-Aubées",
          "slug": "saint-leger-des-aubees",
          "code_postal": "28700",
          "population": 254,
          "superficie_km2": 1338.5,
          "latitude": 48.417,
          "longitude": 1.7504,
          "distance_km": 11.98
        },
        {
          "code_insee": "28039",
          "nom": "Béville-le-Comte",
          "slug": "beville-le-comte",
          "code_postal": "28700",
          "population": 1705,
          "superficie_km2": 2025.0,
          "latitude": 48.4378,
          "longitude": 1.7032,
          "distance_km": 12.43
        },
        {
          "code_insee": "28194",
          "nom": "Houville-la-Branche",
          "slug": "houville-la-branche",
          "code_postal": "28700",
          "population": 420,
          "superficie_km2": 1391.39,
          "latitude": 48.4449,
          "longitude": 1.6383,
          "distance_km": 12.69
        },
        {
          "code_insee": "28406",
          "nom": "Éole-en-Beauce",
          "slug": "eole-en-beauce",
          "code_postal": "28150",
          "population": 1238,
          "superficie_km2": 10415.1,
          "latitude": 48.2108,
          "longitude": 1.6716,
          "distance_km": 13.46
        }
      ],
      "zonage_abc": "C",
      "reclassement_abc": "Non",
      "codes_postaux": [
        {
          "code_postal": "28150",
          "libelle_acheminement": "ALLONNES"
        }
      ],
      "logement": {
        "logements_total": 142,
        "residences_principales": 124,
        "logements_vacants": 5,
        "residences_secondaires": 12,
        "maisons": 142,
        "appartements": 0,
        "proprietaires": 108,
        "locataires": 14,
        "hlm": 4,
        "construits_avant_1919": 33,
        "construits_1919_1945": 11,
        "construits_1946_1970": 11,
        "construits_1971_1990": 31,
        "construits_1991_2005": 10,
        "construits_2006_2019": 24,
        "chauffage_electrique": 54,
        "chauffage_fioul": 29,
        "chauffage_gaz_ville": 0,
        "chauffage_gaz_bouteille": 5,
        "chauffage_autre": 34,
        "menages": 124,
        "logements_avant_1990": 86
      },
      "artisans": {
        "monte_escalier": 0,
        "chauffage_pac_clim": 1,
        "isolation": 0,
        "menuiserie": 0,
        "fenetres_velux": 0,
        "couverture_toiture": 0,
        "facade_peinture": 0,
        "portes_volets": 0,
        "piscine": 0,
        "vmc_ventilation": 0,
        "assainissement": 1
      },
      "revenus": {
        "revenu_median": 22790.0,
        "part_menages_imposes": null,
        "taux_pauvrete": null
      },
      "aides_etat": {
        "zone_climatique": "H1",
        "qpv": false,
        "action_coeur_de_ville": false,
        "petites_villes_de_demain": false
      }
    },
    {
      "code_insee": "28005",
      "nom": "Alluyes",
      "nom_a": null,
      "nom_de": null,
      "slug": "alluyes",
      "code_postal": "28800",
      "population": 756,
      "superficie_km2": 1981.39,
      "latitude": 48.2251,
      "longitude": 1.3666,
      "villes_proches": [
        {
          "code_insee": "28259",
          "nom": "Montboissier",
          "slug": "montboissier",
          "code_postal": "28800",
          "population": 341,
          "superficie_km2": 1417.2,
          "latitude": 48.2292,
          "longitude": 1.412,
          "distance_km": 3.39
        },
        {
          "code_insee": "28396",
          "nom": "Trizay-lès-Bonneval",
          "slug": "trizay-les-bonneval",
          "code_postal": "28800",
          "population": 323,
          "superficie_km2": 990.45,
          "latitude": 48.1993,
          "longitude": 1.3336,
          "distance_km": 3.77
        },
        {
          "code_insee": "28057",
          "nom": "Bouville",
          "slug": "bouville",
          "code_postal": "28800",
          "population": 530,
          "superficie_km2": 1568.6,
          "latitude": 48.2631,
          "longitude": 1.3804,
          "distance_km": 4.35
        },
        {
          "code_insee": "28370",
          "nom": "Saumeray",
          "slug": "saumeray",
          "code_postal": "28800",
          "population": 465,
          "superficie_km2": 1951.15,
          "latitude": 48.2552,
          "longitude": 1.3169,
          "distance_km": 4.97
        },
        {
          "code_insee": "28051",
          "nom": "Bonneval",
          "slug": "bonneval",
          "code_postal": "28800",
          "population": 4868,
          "superficie_km2": 2884.67,
          "latitude": 48.1787,
          "longitude": 1.3844,
          "distance_km": 5.33
        },
        {
          "code_insee": "28270",
          "nom": "Moriers",
          "slug": "moriers",
          "code_postal": "28800",
          "population": 223,
          "superficie_km2": 908.0,
          "latitude": 48.2191,
          "longitude": 1.4408,
          "distance_km": 5.54
        },
        {
          "code_insee": "28260",
          "nom": "Montharville",
          "slug": "montharville",
          "code_postal": "28800",
          "population": 105,
          "superficie_km2": 646.93,
          "latitude": 48.1771,
          "longitude": 1.326,
          "distance_km": 6.13
        },
        {
          "code_insee": "28419",
          "nom": "Vitray-en-Beauce",
          "slug": "vitray-en-beauce",
          "code_postal": "28360",
          "population": 346,
          "superficie_km2": 1093.13,
          "latitude": 48.2759,
          "longitude": 1.4181,
          "distance_km": 6.82
        },
        {
          "code_insee": "28081",
          "nom": "Charonville",
          "slug": "charonville",
          "code_postal": "28120",
          "population": 293,
          "superficie_km2": 971.88,
          "latitude": 48.2796,
          "longitude": 1.3145,
          "distance_km": 7.18
        },
        {
          "code_insee": "28127",
          "nom": "Dangeau",
          "slug": "dangeau",
          "code_postal": "28160",
          "population": 1259,
          "superficie_km2": 5497.78,
          "latitude": 48.2065,
          "longitude": 1.2712,
          "distance_km": 7.36
        },
        {
          "code_insee": "28142",
          "nom": "Ermenonville-la-Petite",
          "slug": "ermenonville-la-petite",
          "code_postal": "28120",
          "population": 192,
          "superficie_km2": 512.93,
          "latitude": 48.29,
          "longitude": 1.3448,
          "distance_km": 7.39
        },
        {
          "code_insee": "28305",
          "nom": "Pré-Saint-Évroult",
          "slug": "pre-saint-evroult",
          "code_postal": "28800",
          "population": 283,
          "superficie_km2": 2160.62,
          "latitude": 48.1885,
          "longitude": 1.4526,
          "distance_km": 7.56
        },
        {
          "code_insee": "28306",
          "nom": "Pré-Saint-Martin",
          "slug": "pre-saint-martin",
          "code_postal": "28800",
          "population": 174,
          "superficie_km2": 729.27,
          "latitude": 48.2222,
          "longitude": 1.4715,
          "distance_km": 7.78
        },
        {
          "code_insee": "28222",
          "nom": "Luplanté",
          "slug": "luplante",
          "code_postal": "28360",
          "population": 384,
          "superficie_km2": 1669.84,
          "latitude": 48.2987,
          "longitude": 1.385,
          "distance_km": 8.3
        },
        {
          "code_insee": "28153",
          "nom": "Flacey",
          "slug": "flacey",
          "code_postal": "28800",
          "population": 208,
          "superficie_km2": 1416.02,
          "latitude": 48.1505,
          "longitude": 1.3319,
          "distance_km": 8.68
        },
        {
          "code_insee": "28353",
          "nom": "Saint-Maur-sur-le-Loir",
          "slug": "saint-maur-sur-le-loir",
          "code_postal": "28800",
          "population": 411,
          "superficie_km2": 1669.05,
          "latitude": 48.152,
          "longitude": 1.4184,
          "distance_km": 8.99
        },
        {
          "code_insee": "28139",
          "nom": "Épeautrolles",
          "slug": "epeautrolles",
          "code_postal": "28120",
          "population": 165,
          "superficie_km2": 929.6,
          "latitude": 48.3135,
          "longitude": 1.3352,
          "distance_km": 10.1
        },
        {
          "code_insee": "28329",
          "nom": "Saint-Christophe",
          "slug": "saint-christophe",
          "code_postal": "28200",
          "population": 143,
          "superficie_km2": 615.47,
          "latitude": 48.133,
          "longitude": 1.3709,
          "distance_km": 10.25
        },
        {
          "code_insee": "28048",
          "nom": "La Bourdinière-Saint-Loup",
          "slug": "la-bourdiniere-saint-loup",
          "code_postal": "28360",
          "population": 741,
          "superficie_km2": 2032.38,
          "latitude": 48.3183,
          "longitude": 1.4272,
          "distance_km": 11.29
        },
        {
          "code_insee": "28141",
          "nom": "Ermenonville-la-Grande",
          "slug": "ermenonville-la-grande",
          "code_postal": "28120",
          "population": 311,
          "superficie_km2": 1208.83,
          "latitude": 48.337,
          "longitude": 1.3785,
          "distance_km": 12.47
        }
      ],
      "zonage_abc": "C",
      "reclassement_abc": "Non",
      "codes_postaux": [
        {
          "code_postal": "28800",
          "libelle_acheminement": "ALLUYES"
        }
      ],
      "logement": {
        "logements_total": 366,
        "residences_principales": 305,
        "logements_vacants": 21,
        "residences_secondaires": 40,
        "maisons": 362,
        "appartements": 4,
        "proprietaires": 249,
        "locataires": 51,
        "hlm": 21,
        "construits_avant_1919": 57,
        "construits_1919_1945": 40,
        "construits_1946_1970": 51,
        "construits_1971_1990": 84,
        "construits_1991_2005": 38,
        "construits_2006_2019": 35,
        "chauffage_electrique": 122,
        "chauffage_fioul": 68,
        "chauffage_gaz_ville": 9,
        "chauffage_gaz_bouteille": 23,
        "chauffage_autre": 83,
        "menages": 305,
        "logements_avant_1990": 232
      },
      "artisans": {
        "monte_escalier": 0,
        "chauffage_pac_clim": 2,
        "isolation": 2,
        "menuiserie": 0,
        "fenetres_velux": 0,
        "couverture_toiture": 2,
        "facade_peinture": 0,
        "portes_volets": 0,
        "piscine": 0,
        "vmc_ventilation": 0,
        "assainissement": 3
      },
      "revenus": {
        "revenu_median": 21710.0,
        "part_menages_imposes": null,
        "taux_pauvrete": null
      },
      "aides_etat": {
        "zone_climatique": "H1",
        "qpv": false,
        "action_coeur_de_ville": false,
        "petites_villes_de_demain": false
      }
    },
    {
      "code_insee": "28006",
      "nom": "Amilly",
      "nom_a": null,
      "nom_de": null,
      "slug": "amilly",
      "code_postal": "28300",
      "population": 1806,
      "superficie_km2": 20.0,
      "latitude": 48.4420013,
      "longitude": 1.4069999,
      "villes_proches": [
        {
          "code_insee": "28218",
          "nom": "Lucé",
          "slug": "luce",
          "code_postal": "28110",
          "population": 15602,
          "superficie_km2": 6.0,
          "latitude": 48.4350014,
          "longitude": 1.4529999,
          "distance_km": 3.48
        },
        {
          "code_insee": "28229",
          "nom": "Mainvilliers",
          "slug": "mainvilliers",
          "code_postal": "28300",
          "population": 11057,
          "superficie_km2": 12.0,
          "latitude": 48.4620018,
          "longitude": 1.446,
          "distance_km": 3.64
        },
        {
          "code_insee": "28158",
          "nom": "Fontenay-sur-Eure",
          "slug": "fontenay-sur-eure",
          "code_postal": "28630",
          "population": 1153,
          "superficie_km2": 14.0,
          "latitude": 48.4059982,
          "longitude": 1.4220001,
          "distance_km": 4.15
        },
        {
          "code_insee": "28337",
          "nom": "Saint-Georges-sur-Eure",
          "slug": "saint-georges-sur-eure",
          "code_postal": "28190",
          "population": 2759,
          "superficie_km2": 15.0,
          "latitude": 48.4199982,
          "longitude": 1.357,
          "distance_km": 4.43
        },
        {
          "code_insee": "28220",
          "nom": "Luisant",
          "slug": "luisant",
          "code_postal": "28600",
          "population": 6682,
          "superficie_km2": 4.0,
          "latitude": 48.4230003,
          "longitude": 1.469,
          "distance_km": 5.04
        },
        {
          "code_insee": "28325",
          "nom": "Saint-Aubin-des-Bois",
          "slug": "saint-aubin-des-bois",
          "code_postal": "28300",
          "population": 1096,
          "superficie_km2": 18.0,
          "latitude": 48.4630013,
          "longitude": 1.345,
          "distance_km": 5.13
        },
        {
          "code_insee": "28022",
          "nom": "Bailleau-l'Évêque",
          "slug": "bailleau-l-eveque",
          "code_postal": "28300",
          "population": 1159,
          "superficie_km2": 20.0,
          "latitude": 48.487999,
          "longitude": 1.397,
          "distance_km": 5.17
        },
        {
          "code_insee": "28024",
          "nom": "Barjouville",
          "slug": "barjouville",
          "code_postal": "28630",
          "population": 1767,
          "superficie_km2": 4.0,
          "latitude": 48.4070015,
          "longitude": 1.472,
          "distance_km": 6.18
        },
        {
          "code_insee": "28209",
          "nom": "Lèves",
          "slug": "leves",
          "code_postal": "28300",
          "population": 5623,
          "superficie_km2": 8.0,
          "latitude": 48.4799995,
          "longitude": 1.469,
          "distance_km": 6.23
        },
        {
          "code_insee": "28085",
          "nom": "Chartres",
          "slug": "chartres",
          "code_postal": "28000",
          "population": 38447,
          "superficie_km2": 17.0,
          "latitude": 48.4469986,
          "longitude": 1.506,
          "distance_km": 7.32
        },
        {
          "code_insee": "28388",
          "nom": "Thivars",
          "slug": "thivars",
          "code_postal": "28630",
          "population": 1047,
          "superficie_km2": 9.0,
          "latitude": 48.382,
          "longitude": 1.449,
          "distance_km": 7.36
        },
        {
          "code_insee": "28110",
          "nom": "Le Coudray",
          "slug": "le-coudray",
          "code_postal": "28630",
          "population": 4089,
          "superficie_km2": 5.0,
          "latitude": 48.4189987,
          "longitude": 1.503,
          "distance_km": 7.53
        },
        {
          "code_insee": "28070",
          "nom": "Champhol",
          "slug": "champhol",
          "code_postal": "28300",
          "population": 3706,
          "superficie_km2": 5.0,
          "latitude": 48.4669991,
          "longitude": 1.511,
          "distance_km": 8.16
        },
        {
          "code_insee": "28269",
          "nom": "Morancez",
          "slug": "morancez",
          "code_postal": "28630",
          "population": 1918,
          "superficie_km2": 7.0,
          "latitude": 48.3969994,
          "longitude": 1.503,
          "distance_km": 8.67
        },
        {
          "code_insee": "28154",
          "nom": "Fontaine-la-Guyon",
          "slug": "fontaine-la-guyon",
          "code_postal": "28190",
          "population": 1665,
          "superficie_km2": 15.0,
          "latitude": 48.4760017,
          "longitude": 1.298,
          "distance_km": 8.88
        },
        {
          "code_insee": "28253",
          "nom": "Mignières",
          "slug": "mignieres",
          "code_postal": "28630",
          "population": 1124,
          "superficie_km2": 13.0,
          "latitude": 48.3610001,
          "longitude": 1.424,
          "distance_km": 9.09
        },
        {
          "code_insee": "28358",
          "nom": "Saint-Prest",
          "slug": "saint-prest",
          "code_postal": "28300",
          "population": 2093,
          "superficie_km2": 17.0,
          "latitude": 48.4920006,
          "longitude": 1.5140001,
          "distance_km": 9.65
        },
        {
          "code_insee": "28021",
          "nom": "Bailleau-le-Pin",
          "slug": "bailleau-le-pin",
          "code_postal": "28120",
          "population": 1607,
          "superficie_km2": 17.0,
          "latitude": 48.3590012,
          "longitude": 1.323,
          "distance_km": 11.12
        },
        {
          "code_insee": "28173",
          "nom": "Gasville-Oisème",
          "slug": "gasville-oiseme",
          "code_postal": "28300",
          "population": 1482,
          "superficie_km2": 9.0,
          "latitude": 48.4729996,
          "longitude": 1.5549999,
          "distance_km": 11.45
        },
        {
          "code_insee": "28116",
          "nom": "Courville-sur-Eure",
          "slug": "courville-sur-eure",
          "code_postal": "28190",
          "population": 2806,
          "superficie_km2": 11.0,
          "latitude": 48.4519997,
          "longitude": 1.249,
          "distance_km": 11.71
        }
      ],
      "zonage_abc": "C",
      "reclassement_abc": "Non",
      "codes_postaux": [
        {
          "code_postal": "28300",
          "libelle_acheminement": "AMILLY"
        }
      ],
      "logement": {
        "logements_total": 866,
        "residences_principales": 823,
        "logements_vacants": 38,
        "residences_secondaires": 4,
        "maisons": 846,
        "appartements": 17,
        "proprietaires": 721,
        "locataires": 96,
        "hlm": 48,
        "construits_avant_1919": 44,
        "construits_1919_1945": 16,
        "construits_1946_1970": 122,
        "construits_1971_1990": 459,
        "construits_1991_2005": 77,
        "construits_2006_2019": 102,
        "chauffage_electrique": 391,
        "chauffage_fioul": 223,
        "chauffage_gaz_ville": 31,
        "chauffage_gaz_bouteille": 55,
        "chauffage_autre": 120,
        "menages": 823,
        "logements_avant_1990": 641
      },
      "artisans": {
        "monte_escalier": 0,
        "chauffage_pac_clim": 2,
        "isolation": 6,
        "menuiserie": 3,
        "fenetres_velux": 3,
        "couverture_toiture": 2,
        "facade_peinture": 3,
        "portes_volets": 3,
        "piscine": 0,
        "vmc_ventilation": 0,
        "assainissement": 2
      },
      "revenus": {
        "revenu_median": 24950.0,
        "part_menages_imposes": null,
        "taux_pauvrete": null
      },
      "aides_etat": {
        "zone_climatique": "H1",
        "qpv": false,
        "action_coeur_de_ville": false,
        "petites_villes_de_demain": false
      }
    },
    {
      "code_insee": "28007",
      "nom": "Anet",
      "nom_a": null,
      "nom_de": null,
      "slug": "anet",
      "code_postal": "28260",
      "population": 2696,
      "superficie_km2": 8.0,
      "latitude": 48.8530006,
      "longitude": 1.443,
      "villes_proches": [
        {
          "code_insee": "28371",
          "nom": "Saussay",
          "slug": "saussay",
          "code_postal": "28260",
          "population": 1099,
          "superficie_km2": 5.0,
          "latitude": 48.8510017,
          "longitude": 1.41,
          "distance_km": 2.42
        },
        {
          "code_insee": "27230",
          "nom": "Ézy-sur-Eure",
          "slug": "ezy-sur-eure",
          "code_postal": "27530",
          "population": 3669,
          "superficie_km2": 9.0,
          "latitude": 48.8709984,
          "longitude": 1.413,
          "distance_km": 2.97
        },
        {
          "code_insee": "27355",
          "nom": "Ivry-la-Bataille",
          "slug": "ivry-la-bataille",
          "code_postal": "27540",
          "population": 2638,
          "superficie_km2": 8.0,
          "latitude": 48.8860016,
          "longitude": 1.447,
          "distance_km": 3.68
        },
        {
          "code_insee": "28293",
          "nom": "Oulins",
          "slug": "oulins",
          "code_postal": "28260",
          "population": 1191,
          "superficie_km2": 10.0,
          "latitude": 48.8670006,
          "longitude": 1.489,
          "distance_km": 3.71
        },
        {
          "code_insee": "28377",
          "nom": "Sorel-Moussel",
          "slug": "sorel-moussel",
          "code_postal": "28260",
          "population": 1722,
          "superficie_km2": 13.0,
          "latitude": 48.8289986,
          "longitude": 1.3940001,
          "distance_km": 4.47
        },
        {
          "code_insee": "28096",
          "nom": "La Chaussée-d'Ivry",
          "slug": "la-chaussee-d-ivry",
          "code_postal": "28260",
          "population": 1294,
          "superficie_km2": 8.0,
          "latitude": 48.8889999,
          "longitude": 1.488,
          "distance_km": 5.18
        },
        {
          "code_insee": "27193",
          "nom": "Croth",
          "slug": "croth",
          "code_postal": "27530",
          "population": 1378,
          "superficie_km2": 11.0,
          "latitude": 48.8510017,
          "longitude": 1.368,
          "distance_km": 5.49
        },
        {
          "code_insee": "27278",
          "nom": "Garennes-sur-Eure",
          "slug": "garennes-sur-eure",
          "code_postal": "27780",
          "population": 1991,
          "superficie_km2": 11.0,
          "latitude": 48.9090004,
          "longitude": 1.434,
          "distance_km": 6.26
        },
        {
          "code_insee": "27183",
          "nom": "La Couture-Boussey",
          "slug": "la-couture-boussey",
          "code_postal": "27750",
          "population": 2306,
          "superficie_km2": 11.0,
          "latitude": 48.9020004,
          "longitude": 1.396,
          "distance_km": 6.44
        },
        {
          "code_insee": "28001",
          "nom": "Abondant",
          "slug": "abondant",
          "code_postal": "28410",
          "population": 2427,
          "superficie_km2": 35.0,
          "latitude": 48.7949982,
          "longitude": 1.42,
          "distance_km": 6.67
        },
        {
          "code_insee": "28064",
          "nom": "Bû",
          "slug": "bu",
          "code_postal": "28410",
          "population": 2022,
          "superficie_km2": 23.0,
          "latitude": 48.8019981,
          "longitude": 1.493,
          "distance_km": 6.75
        },
        {
          "code_insee": "27073",
          "nom": "Bois-le-Roi",
          "slug": "bois-le-roi",
          "code_postal": "27220",
          "population": 1231,
          "superficie_km2": 6.0,
          "latitude": 48.8610001,
          "longitude": 1.341,
          "distance_km": 7.52
        },
        {
          "code_insee": "27391",
          "nom": "Marcilly-sur-Eure",
          "slug": "marcilly-sur-eure",
          "code_postal": "27810",
          "population": 1588,
          "superficie_km2": 16.0,
          "latitude": 48.8209992,
          "longitude": 1.3329999,
          "distance_km": 8.8
        },
        {
          "code_insee": "27119",
          "nom": "Bueil",
          "slug": "bueil",
          "code_postal": "27730",
          "population": 1625,
          "superficie_km2": 5.0,
          "latitude": 48.9339981,
          "longitude": 1.444,
          "distance_km": 9.01
        },
        {
          "code_insee": "28098",
          "nom": "Cherisy",
          "slug": "cherisy",
          "code_postal": "28500",
          "population": 1827,
          "superficie_km2": 12.0,
          "latitude": 48.757,
          "longitude": 1.4349999,
          "distance_km": 10.69
        },
        {
          "code_insee": "28185",
          "nom": "Goussainville",
          "slug": "goussainville",
          "code_postal": "28410",
          "population": 1309,
          "superficie_km2": 11.0,
          "latitude": 48.783001,
          "longitude": 1.5599999,
          "distance_km": 11.57
        },
        {
          "code_insee": "27114",
          "nom": "Breuilpont",
          "slug": "breuilpont",
          "code_postal": "27640",
          "population": 1205,
          "superficie_km2": 12.0,
          "latitude": 48.9650002,
          "longitude": 1.4400001,
          "distance_km": 12.46
        },
        {
          "code_insee": "78346",
          "nom": "Longnes",
          "slug": "longnes",
          "code_postal": "78980",
          "population": 1544,
          "superficie_km2": 14.0,
          "latitude": 48.9230003,
          "longitude": 1.58,
          "distance_km": 12.69
        },
        {
          "code_insee": "78310",
          "nom": "Houdan",
          "slug": "houdan",
          "code_postal": "78550",
          "population": 3699,
          "superficie_km2": 10.0,
          "latitude": 48.7989998,
          "longitude": 1.597,
          "distance_km": 12.77
        },
        {
          "code_insee": "28134",
          "nom": "Dreux",
          "slug": "dreux",
          "code_postal": "28100",
          "population": 30879,
          "superficie_km2": 24.0,
          "latitude": 48.7480011,
          "longitude": 1.359,
          "distance_km": 13.2
        }
      ],
      "zonage_abc": "B1",
      "reclassement_abc": "Non",
      "codes_postaux": [
        {
          "code_postal": "28260",
          "libelle_acheminement": "ANET"
        }
      ],
      "logement": {
        "logements_total": 1409,
        "residences_principales": 1274,
        "logements_vacants": 74,
        "residences_secondaires": 59,
        "maisons": 1097,
        "appartements": 308,
        "proprietaires": 849,
        "locataires": 390,
        "hlm": 109,
        "construits_avant_1919": 184,
        "construits_1919_1945": 90,
        "construits_1946_1970": 254,
        "construits_1971_1990": 492,
        "construits_1991_2005": 111,
        "construits_2006_2019": 109,
        "chauffage_electrique": 476,
        "chauffage_fioul": 81,
        "chauffage_gaz_ville": 589,
        "chauffage_gaz_bouteille": 6,
        "chauffage_autre": 120,
        "menages": 1274,
        "logements_avant_1990": 1020
      },
      "artisans": {
        "monte_escalier": 0,
        "chauffage_pac_clim": 9,
        "isolation": 2,
        "menuiserie": 11,
        "fenetres_velux": 11,
        "couverture_toiture": 1,
        "facade_peinture": 3,
        "portes_volets": 11,
        "piscine": 0,
        "vmc_ventilation": 2,
        "assainissement": 7
      },
      "revenus": {
        "revenu_median": 24050.0,
        "part_menages_imposes": 56.0,
        "taux_pauvrete": null
      },
      "aides_etat": {
        "zone_climatique": "H1",
        "qpv": false,
        "action_coeur_de_ville": false,
        "petites_villes_de_demain": false
      }
    },
    {
      "code_insee": "28236",
      "nom": "Arcisses",
      "nom_a": null,
      "nom_de": null,
      "slug": "arcisses",
      "code_postal": "28400",
      "population": 2200,
      "superficie_km2": 12.0,
      "latitude": 48.3370018,
      "longitude": 0.851,
      "villes_proches": [
        {
          "code_insee": "28280",
          "nom": "Nogent-le-Rotrou",
          "slug": "nogent-le-rotrou",
          "code_postal": "28400",
          "population": 9341,
          "superficie_km2": 23.0,
          "latitude": 48.3180008,
          "longitude": 0.804,
          "distance_km": 4.07
        },
        {
          "code_insee": "61116",
          "nom": "Sablons sur Huisne",
          "slug": "sablons-sur-huisne",
          "code_postal": "61110",
          "population": 1983,
          "superficie_km2": 18.0,
          "latitude": 48.3790016,
          "longitude": 0.865,
          "distance_km": 4.78
        },
        {
          "code_insee": "61043",
          "nom": "Berd'huis",
          "slug": "berd-huis",
          "code_postal": "61340",
          "population": 1094,
          "superficie_km2": 11.0,
          "latitude": 48.3499985,
          "longitude": 0.74,
          "distance_km": 8.33
        },
        {
          "code_insee": "61061",
          "nom": "Bretoncelles",
          "slug": "bretoncelles",
          "code_postal": "61110",
          "population": 1469,
          "superficie_km2": 40.0,
          "latitude": 48.4360008,
          "longitude": 0.901,
          "distance_km": 11.61
        },
        {
          "code_insee": "61309",
          "nom": "Perche en Nocé",
          "slug": "perche-en-noce",
          "code_postal": "61340",
          "population": 2001,
          "superficie_km2": 21.0,
          "latitude": 48.3810005,
          "longitude": 0.687,
          "distance_km": 13.07
        },
        {
          "code_insee": "61345",
          "nom": "Rémalard en Perche",
          "slug": "remalard-en-perche",
          "code_postal": "61110",
          "population": 1896,
          "superficie_km2": 21.0,
          "latitude": 48.4500008,
          "longitude": 0.779,
          "distance_km": 13.64
        },
        {
          "code_insee": "61079",
          "nom": "Ceton",
          "slug": "ceton",
          "code_postal": "61260",
          "population": 1765,
          "superficie_km2": 60.0,
          "latitude": 48.2249985,
          "longitude": 0.758,
          "distance_km": 14.23
        },
        {
          "code_insee": "28018",
          "nom": "Authon-du-Perche",
          "slug": "authon-du-perche",
          "code_postal": "28330",
          "population": 1484,
          "superficie_km2": 17.0,
          "latitude": 48.2019997,
          "longitude": 0.886,
          "distance_km": 15.23
        },
        {
          "code_insee": "61484",
          "nom": "Val-au-Perche",
          "slug": "val-au-perche",
          "code_postal": "61130",
          "population": 3369,
          "superficie_km2": 10.0,
          "latitude": 48.2680016,
          "longitude": 0.651,
          "distance_km": 16.66
        },
        {
          "code_insee": "28214",
          "nom": "La Loupe",
          "slug": "la-loupe",
          "code_postal": "28240",
          "population": 3268,
          "superficie_km2": 7.0,
          "latitude": 48.4729996,
          "longitude": 1.022,
          "distance_km": 19.7
        },
        {
          "code_insee": "61038",
          "nom": "Bellême",
          "slug": "belleme",
          "code_postal": "61130",
          "population": 1456,
          "superficie_km2": 2.0,
          "latitude": 48.3730011,
          "longitude": 0.563,
          "distance_km": 21.65
        },
        {
          "code_insee": "61230",
          "nom": "Longny les Villages",
          "slug": "longny-les-villages",
          "code_postal": "61290",
          "population": 2878,
          "superficie_km2": 40.0,
          "latitude": 48.5289993,
          "longitude": 0.758,
          "distance_km": 22.42
        },
        {
          "code_insee": "28398",
          "nom": "Unverre",
          "slug": "unverre",
          "code_postal": "28160",
          "population": 1197,
          "superficie_km2": 62.0,
          "latitude": 48.1889992,
          "longitude": 1.072,
          "distance_km": 23.2
        },
        {
          "code_insee": "72132",
          "nom": "La Ferté-Bernard",
          "slug": "la-ferte-bernard",
          "code_postal": "72400",
          "population": 8799,
          "superficie_km2": 16.0,
          "latitude": 48.1839981,
          "longitude": 0.635,
          "distance_km": 23.35
        },
        {
          "code_insee": "28027",
          "nom": "La Bazoche-Gouet",
          "slug": "la-bazoche-gouet",
          "code_postal": "28330",
          "population": 1215,
          "superficie_km2": 38.0,
          "latitude": 48.1399994,
          "longitude": 0.971,
          "distance_km": 23.64
        },
        {
          "code_insee": "72080",
          "nom": "Cherré-Au",
          "slug": "cherre-au",
          "code_postal": "72400",
          "population": 2735,
          "superficie_km2": 18.0,
          "latitude": 48.1549988,
          "longitude": 0.657,
          "distance_km": 24.82
        },
        {
          "code_insee": "61196",
          "nom": "Belforêt-en-Perche",
          "slug": "belforet-en-perche",
          "code_postal": "61130",
          "population": 1491,
          "superficie_km2": 19.0,
          "latitude": 48.3720017,
          "longitude": 0.51,
          "distance_km": 25.5
        },
        {
          "code_insee": "28061",
          "nom": "Brou",
          "slug": "brou",
          "code_postal": "28160",
          "population": 3248,
          "superficie_km2": 20.0,
          "latitude": 48.2169991,
          "longitude": 1.1569999,
          "distance_km": 26.28
        },
        {
          "code_insee": "28099",
          "nom": "Chuisnes",
          "slug": "chuisnes",
          "code_postal": "28190",
          "population": 1101,
          "superficie_km2": 23.0,
          "latitude": 48.4370003,
          "longitude": 1.189,
          "distance_km": 27.32
        },
        {
          "code_insee": "28373",
          "nom": "Senonches",
          "slug": "senonches",
          "code_postal": "28250",
          "population": 2985,
          "superficie_km2": 63.0,
          "latitude": 48.5600014,
          "longitude": 1.0190001,
          "distance_km": 27.72
        }
      ],
      "zonage_abc": "C",
      "reclassement_abc": "Non",
      "codes_postaux": [
        {
          "code_postal": "28400",
          "libelle_acheminement": "ARCISSES"
        }
      ],
      "logement": {
        "logements_total": 1206,
        "residences_principales": 1029,
        "logements_vacants": 75,
        "residences_secondaires": 102,
        "maisons": 1114,
        "appartements": 59,
        "proprietaires": 814,
        "locataires": 200,
        "hlm": 28,
        "construits_avant_1919": 200,
        "construits_1919_1945": 53,
        "construits_1946_1970": 132,
        "construits_1971_1990": 335,
        "construits_1991_2005": 147,
        "construits_2006_2019": 151,
        "chauffage_electrique": 354,
        "chauffage_fioul": 160,
        "chauffage_gaz_ville": 183,
        "chauffage_gaz_bouteille": 32,
        "chauffage_autre": 300,
        "menages": 1029,
        "logements_avant_1990": 720
      },
      "artisans": {
        "monte_escalier": 0,
        "chauffage_pac_clim": 2,
        "isolation": 7,
        "menuiserie": 3,
        "fenetres_velux": 3,
        "couverture_toiture": 7,
        "facade_peinture": 3,
        "portes_volets": 3,
        "piscine": 3,
        "vmc_ventilation": 2,
        "assainissement": 1
      },
      "revenus": {
        "revenu_median": 22710.0,
        "part_menages_imposes": 51.0,
        "taux_pauvrete": 10.0
      },
      "aides_etat": {
        "zone_climatique": "H1",
        "qpv": false,
        "action_coeur_de_ville": false,
        "petites_villes_de_demain": false
      }
    },
    {
      "code_insee": "28008",
      "nom": "Ardelles",
      "nom_a": null,
      "nom_de": null,
      "slug": "ardelles",
      "code_postal": "28170",
      "population": 211,
      "superficie_km2": 1040.57,
      "latitude": 48.5445,
      "longitude": 1.1768,
      "villes_proches": [
        {
          "code_insee": "28130",
          "nom": "Digny",
          "slug": "digny",
          "code_postal": "28250",
          "population": 1003,
          "superficie_km2": 4066.94,
          "latitude": 48.5338,
          "longitude": 1.1378,
          "distance_km": 3.11
        },
        {
          "code_insee": "28147",
          "nom": "Favières",
          "slug": "favieres",
          "code_postal": "28170",
          "population": 637,
          "superficie_km2": 1279.27,
          "latitude": 48.5317,
          "longitude": 1.2337,
          "distance_km": 4.42
        },
        {
          "code_insee": "28200",
          "nom": "Jaudrais",
          "slug": "jaudrais",
          "code_postal": "28250",
          "population": 396,
          "superficie_km2": 1538.19,
          "latitude": 48.5752,
          "longitude": 1.1202,
          "distance_km": 5.39
        },
        {
          "code_insee": "28351",
          "nom": "Saint-Maixme-Hauterive",
          "slug": "saint-maixme-hauterive",
          "code_postal": "28170",
          "population": 420,
          "superficie_km2": 3204.77,
          "latitude": 48.594,
          "longitude": 1.1914,
          "distance_km": 5.61
        },
        {
          "code_insee": "28386",
          "nom": "Thimert-Gâtelles",
          "slug": "thimert-gatelles",
          "code_postal": "28170",
          "population": 1231,
          "superficie_km2": 4277.46,
          "latitude": 48.5521,
          "longitude": 1.2549,
          "distance_km": 5.81
        },
        {
          "code_insee": "28040",
          "nom": "Billancelles",
          "slug": "billancelles",
          "code_postal": "28190",
          "population": 310,
          "superficie_km2": 1206.63,
          "latitude": 48.4945,
          "longitude": 1.2131,
          "distance_km": 6.17
        },
        {
          "code_insee": "28302",
          "nom": "Pontgouin",
          "slug": "pontgouin",
          "code_postal": "28190",
          "population": 1110,
          "superficie_km2": 2541.51,
          "latitude": 48.4902,
          "longitude": 1.1372,
          "distance_km": 6.71
        },
        {
          "code_insee": "28089",
          "nom": "Châteauneuf-en-Thymerais",
          "slug": "chateauneuf-en-thymerais",
          "code_postal": "28170",
          "population": 2641,
          "superficie_km2": 408.82,
          "latitude": 48.5928,
          "longitude": 1.2391,
          "distance_km": 7.06
        },
        {
          "code_insee": "28248",
          "nom": "Le Mesnil-Thomas",
          "slug": "le-mesnil-thomas",
          "code_postal": "28250",
          "population": 335,
          "superficie_km2": 1633.08,
          "latitude": 48.588,
          "longitude": 1.0953,
          "distance_km": 7.7
        },
        {
          "code_insee": "28324",
          "nom": "Saint-Arnoult-des-Bois",
          "slug": "saint-arnoult-des-bois",
          "code_postal": "28190",
          "population": 897,
          "superficie_km2": 2064.44,
          "latitude": 48.4919,
          "longitude": 1.2568,
          "distance_km": 8.3
        },
        {
          "code_insee": "28203",
          "nom": "Landelles",
          "slug": "landelles",
          "code_postal": "28190",
          "population": 628,
          "superficie_km2": 1043.86,
          "latitude": 48.4636,
          "longitude": 1.1906,
          "distance_km": 9.05
        },
        {
          "code_insee": "28354",
          "nom": "Saint-Maurice-Saint-Germain",
          "slug": "saint-maurice-saint-germain",
          "code_postal": "28240",
          "population": 528,
          "superficie_km2": 1216.79,
          "latitude": 48.4941,
          "longitude": 1.0748,
          "distance_km": 9.37
        },
        {
          "code_insee": "28226",
          "nom": "Maillebois",
          "slug": "maillebois",
          "code_postal": "28170",
          "population": 941,
          "superficie_km2": 4125.84,
          "latitude": 48.63,
          "longitude": 1.1527,
          "distance_km": 9.67
        },
        {
          "code_insee": "28360",
          "nom": "Saint-Sauveur-Marville",
          "slug": "saint-sauveur-marville",
          "code_postal": "28170",
          "population": 921,
          "superficie_km2": 1892.94,
          "latitude": 48.6077,
          "longitude": 1.2811,
          "distance_km": 10.41
        },
        {
          "code_insee": "28341",
          "nom": "Saint-Jean-de-Rebervilliers",
          "slug": "saint-jean-de-rebervilliers",
          "code_postal": "28170",
          "population": 235,
          "superficie_km2": 1093.74,
          "latitude": 48.6204,
          "longitude": 1.2601,
          "distance_km": 10.43
        },
        {
          "code_insee": "28148",
          "nom": "Le Favril",
          "slug": "le-favril",
          "code_postal": "28190",
          "population": 360,
          "superficie_km2": 2392.27,
          "latitude": 48.457,
          "longitude": 1.1171,
          "distance_km": 10.68
        },
        {
          "code_insee": "28116",
          "nom": "Courville-sur-Eure",
          "slug": "courville-sur-eure",
          "code_postal": "28190",
          "population": 2791,
          "superficie_km2": 1118.1,
          "latitude": 48.4533,
          "longitude": 1.2483,
          "distance_km": 11.43
        },
        {
          "code_insee": "28323",
          "nom": "Saint-Ange-et-Torçay",
          "slug": "saint-ange-et-torcay",
          "code_postal": "28170",
          "population": 284,
          "superficie_km2": 1664.29,
          "latitude": 48.6478,
          "longitude": 1.2095,
          "distance_km": 11.74
        },
        {
          "code_insee": "28099",
          "nom": "Chuisnes",
          "slug": "chuisnes",
          "code_postal": "28190",
          "population": 1126,
          "superficie_km2": 2318.69,
          "latitude": 48.4367,
          "longitude": 1.1881,
          "distance_km": 12.02
        },
        {
          "code_insee": "28166",
          "nom": "Friaize",
          "slug": "friaize",
          "code_postal": "28240",
          "population": 256,
          "superficie_km2": 1066.3,
          "latitude": 48.4318,
          "longitude": 1.1217,
          "distance_km": 13.17
        }
      ],
      "zonage_abc": "C",
      "reclassement_abc": "Non",
      "codes_postaux": [
        {
          "code_postal": "28170",
          "libelle_acheminement": "ARDELLES"
        }
      ],
      "logement": {
        "logements_total": 107,
        "residences_principales": 83,
        "logements_vacants": 6,
        "residences_secondaires": 17,
        "maisons": 107,
        "appartements": 0,
        "proprietaires": 76,
        "locataires": 6,
        "hlm": 0,
        "construits_avant_1919": 22,
        "construits_1919_1945": 10,
        "construits_1946_1970": 13,
        "construits_1971_1990": 19,
        "construits_1991_2005": 8,
        "construits_2006_2019": 6,
        "chauffage_electrique": 32,
        "chauffage_fioul": 15,
        "chauffage_gaz_ville": 0,
        "chauffage_gaz_bouteille": 3,
        "chauffage_autre": 29,
        "menages": 83,
        "logements_avant_1990": 64
      },
      "artisans": {
        "monte_escalier": 0,
        "chauffage_pac_clim": 2,
        "isolation": 1,
        "menuiserie": 0,
        "fenetres_velux": 0,
        "couverture_toiture": 1,
        "facade_peinture": 1,
        "portes_volets": 0,
        "piscine": 0,
        "vmc_ventilation": 1,
        "assainissement": 1
      },
      "revenus": {
        "revenu_median": 24540.0,
        "part_menages_imposes": null,
        "taux_pauvrete": null
      },
      "aides_etat": {
        "zone_climatique": "H1",
        "qpv": false,
        "action_coeur_de_ville": false,
        "petites_villes_de_demain": false
      }
    },
    {
      "code_insee": "28009",
      "nom": "Ardelu",
      "nom_a": null,
      "nom_de": null,
      "slug": "ardelu",
      "code_postal": "28700",
      "population": 72,
      "superficie_km2": 408.37,
      "latitude": 48.3544,
      "longitude": 1.9135,
      "villes_proches": [
        {
          "code_insee": "28092",
          "nom": "Châtenay",
          "slug": "chatenay",
          "code_postal": "28700",
          "population": 241,
          "superficie_km2": 1038.85,
          "latitude": 48.3537,
          "longitude": 1.8841,
          "distance_km": 2.17
        },
        {
          "code_insee": "28183",
          "nom": "Gommerville",
          "slug": "gommerville",
          "code_postal": "28310",
          "population": 663,
          "superficie_km2": 3261.4,
          "latitude": 48.3458,
          "longitude": 1.947,
          "distance_km": 2.65
        },
        {
          "code_insee": "28408",
          "nom": "Vierville",
          "slug": "vierville",
          "code_postal": "28700",
          "population": 107,
          "superficie_km2": 672.21,
          "latitude": 48.3848,
          "longitude": 1.9045,
          "distance_km": 3.45
        },
        {
          "code_insee": "28026",
          "nom": "Baudreville",
          "slug": "baudreville",
          "code_postal": "28310",
          "population": 247,
          "superficie_km2": 1311.68,
          "latitude": 48.3241,
          "longitude": 1.8922,
          "distance_km": 3.72
        },
        {
          "code_insee": "28207",
          "nom": "Léthuin",
          "slug": "lethuin",
          "code_postal": "28700",
          "population": 240,
          "superficie_km2": 709.69,
          "latitude": 48.3772,
          "longitude": 1.8586,
          "distance_km": 4.78
        },
        {
          "code_insee": "28294",
          "nom": "Oysonville",
          "slug": "oysonville",
          "code_postal": "28700",
          "population": 517,
          "superficie_km2": 963.17,
          "latitude": 48.3918,
          "longitude": 1.9481,
          "distance_km": 4.88
        },
        {
          "code_insee": "28184",
          "nom": "Gouillons",
          "slug": "gouillons",
          "code_postal": "28310",
          "population": 335,
          "superficie_km2": 1211.82,
          "latitude": 48.3435,
          "longitude": 1.8374,
          "distance_km": 5.75
        },
        {
          "code_insee": "28243",
          "nom": "Mérouville",
          "slug": "merouville",
          "code_postal": "28310",
          "population": 214,
          "superficie_km2": 970.73,
          "latitude": 48.3013,
          "longitude": 1.9014,
          "distance_km": 5.97
        },
        {
          "code_insee": "91511",
          "nom": "Pussay",
          "slug": "pussay",
          "code_postal": "91740",
          "population": 2288,
          "superficie_km2": 1159.12,
          "latitude": 48.3501,
          "longitude": 1.9981,
          "distance_km": 6.27
        },
        {
          "code_insee": "28197",
          "nom": "Intréville",
          "slug": "intreville",
          "code_postal": "28310",
          "population": 118,
          "superficie_km2": 896.19,
          "latitude": 48.2985,
          "longitude": 1.9366,
          "distance_km": 6.45
        },
        {
          "code_insee": "91613",
          "nom": "Congerville-Thionville",
          "slug": "congerville-thionville",
          "code_postal": "91740",
          "population": 211,
          "superficie_km2": 841.79,
          "latitude": 48.3833,
          "longitude": 1.9912,
          "distance_km": 6.58
        },
        {
          "code_insee": "28257",
          "nom": "Mondonville-Saint-Jean",
          "slug": "mondonville-saint-jean",
          "code_postal": "28700",
          "population": 96,
          "superficie_km2": 550.14,
          "latitude": 48.3623,
          "longitude": 1.8251,
          "distance_km": 6.59
        },
        {
          "code_insee": "28268",
          "nom": "Morainville",
          "slug": "morainville",
          "code_postal": "28700",
          "population": 18,
          "superficie_km2": 386.18,
          "latitude": 48.3794,
          "longitude": 1.8314,
          "distance_km": 6.67
        },
        {
          "code_insee": "28363",
          "nom": "Sainville",
          "slug": "sainville",
          "code_postal": "28700",
          "population": 1046,
          "superficie_km2": 2203.03,
          "latitude": 48.4149,
          "longitude": 1.8802,
          "distance_km": 7.16
        },
        {
          "code_insee": "28230",
          "nom": "Maisons",
          "slug": "maisons",
          "code_postal": "28700",
          "population": 408,
          "superficie_km2": 957.19,
          "latitude": 48.4038,
          "longitude": 1.846,
          "distance_km": 7.42
        },
        {
          "code_insee": "91547",
          "nom": "Saint-Escobille",
          "slug": "saint-escobille",
          "code_postal": "91410",
          "population": 454,
          "superficie_km2": 1201.08,
          "latitude": 48.4223,
          "longitude": 1.9605,
          "distance_km": 8.31
        },
        {
          "code_insee": "28210",
          "nom": "Levesville-la-Chenard",
          "slug": "levesville-la-chenard",
          "code_postal": "28310",
          "population": 229,
          "superficie_km2": 1403.47,
          "latitude": 48.302,
          "longitude": 1.8306,
          "distance_km": 8.46
        },
        {
          "code_insee": "28319",
          "nom": "Neuville Saint Denis",
          "slug": "neuville-saint-denis",
          "code_postal": "28310",
          "population": 647,
          "superficie_km2": 4176.47,
          "latitude": 48.2774,
          "longitude": 1.9222,
          "distance_km": 8.59
        },
        {
          "code_insee": "28169",
          "nom": "Garancières-en-Beauce",
          "slug": "garancieres-en-beauce",
          "code_postal": "28700",
          "population": 238,
          "superficie_km2": 1136.92,
          "latitude": 48.4352,
          "longitude": 1.9106,
          "distance_km": 8.99
        },
        {
          "code_insee": "91393",
          "nom": "Mérobert",
          "slug": "merobert",
          "code_postal": "91780",
          "population": 635,
          "superficie_km2": 1061.7,
          "latitude": 48.4191,
          "longitude": 1.9919,
          "distance_km": 9.23
        }
      ],
      "zonage_abc": "B2",
      "reclassement_abc": "Non",
      "codes_postaux": [
        {
          "code_postal": "28700",
          "libelle_acheminement": "ARDELU"
        }
      ],
      "logement": {
        "logements_total": 34,
        "residences_principales": 29,
        "logements_vacants": 4,
        "residences_secondaires": 1,
        "maisons": 34,
        "appartements": 0,
        "proprietaires": 25,
        "locataires": 4,
        "hlm": 0,
        "construits_avant_1919": 7,
        "construits_1919_1945": 5,
        "construits_1946_1970": 3,
        "construits_1971_1990": 9,
        "construits_1991_2005": 4,
        "construits_2006_2019": 1,
        "chauffage_electrique": 13,
        "chauffage_fioul": 11,
        "chauffage_gaz_ville": 0,
        "chauffage_gaz_bouteille": 2,
        "chauffage_autre": 3,
        "menages": 29,
        "logements_avant_1990": 24
      },
      "artisans": {
        "monte_escalier": 0,
        "chauffage_pac_clim": 0,
        "isolation": 0,
        "menuiserie": 1,
        "fenetres_velux": 1,
        "couverture_toiture": 0,
        "facade_peinture": 0,
        "portes_volets": 1,
        "piscine": 0,
        "vmc_ventilation": 0,
        "assainissement": 0
      },
      "revenus": {
        "revenu_median": null,
        "part_menages_imposes": null,
        "taux_pauvrete": null
      },
      "aides_etat": {
        "zone_climatique": "H1",
        "qpv": false,
        "action_coeur_de_ville": false,
        "petites_villes_de_demain": false
      }
    },
    {
      "code_insee": "28010",
      "nom": "Argenvilliers",
      "nom_a": null,
      "nom_de": null,
      "slug": "argenvilliers",
      "code_postal": "28480",
      "population": 310,
      "superficie_km2": 1837.82,
      "latitude": 48.2753,
      "longitude": 0.9724,
      "villes_proches": [
        {
          "code_insee": "28175",
          "nom": "La Gaudaine",
          "slug": "la-gaudaine",
          "code_postal": "28400",
          "population": 178,
          "superficie_km2": 919.7,
          "latitude": 48.2978,
          "longitude": 0.9595,
          "distance_km": 2.68
        },
        {
          "code_insee": "28252",
          "nom": "Miermaigne",
          "slug": "miermaigne",
          "code_postal": "28480",
          "population": 164,
          "superficie_km2": 1117.66,
          "latitude": 48.2471,
          "longitude": 1.0006,
          "distance_km": 3.77
        },
        {
          "code_insee": "28031",
          "nom": "Beaumont-les-Autels",
          "slug": "beaumont-les-autels",
          "code_postal": "28480",
          "population": 438,
          "superficie_km2": 2139.82,
          "latitude": 48.2416,
          "longitude": 0.9613,
          "distance_km": 3.84
        },
        {
          "code_insee": "28387",
          "nom": "Thiron-Gardais",
          "slug": "thiron-gardais",
          "code_postal": "28480",
          "population": 962,
          "superficie_km2": 1346.47,
          "latitude": 48.3047,
          "longitude": 1.0137,
          "distance_km": 4.47
        },
        {
          "code_insee": "28407",
          "nom": "Vichères",
          "slug": "vicheres",
          "code_postal": "28480",
          "population": 289,
          "superficie_km2": 1235.27,
          "latitude": 48.2636,
          "longitude": 0.9068,
          "distance_km": 5.03
        },
        {
          "code_insee": "28119",
          "nom": "La Croix-du-Perche",
          "slug": "la-croix-du-perche",
          "code_postal": "28480",
          "population": 147,
          "superficie_km2": 1256.44,
          "latitude": 48.2816,
          "longitude": 1.0427,
          "distance_km": 5.25
        },
        {
          "code_insee": "28219",
          "nom": "Luigny",
          "slug": "luigny",
          "code_postal": "28480",
          "population": 430,
          "superficie_km2": 1623.08,
          "latitude": 48.2393,
          "longitude": 1.0246,
          "distance_km": 5.56
        },
        {
          "code_insee": "28395",
          "nom": "Trizay-Coutretot-Saint-Serge",
          "slug": "trizay-coutretot-saint-serge",
          "code_postal": "28400",
          "population": 430,
          "superficie_km2": 1118.8,
          "latitude": 48.2942,
          "longitude": 0.8826,
          "distance_km": 6.97
        },
        {
          "code_insee": "28086",
          "nom": "Chassant",
          "slug": "chassant",
          "code_postal": "28480",
          "population": 299,
          "superficie_km2": 446.05,
          "latitude": 48.2915,
          "longitude": 1.0652,
          "distance_km": 7.1
        },
        {
          "code_insee": "28038",
          "nom": "Béthonvilliers",
          "slug": "bethonvilliers",
          "code_postal": "28330",
          "population": 132,
          "superficie_km2": 1237.86,
          "latitude": 48.2304,
          "longitude": 0.9016,
          "distance_km": 7.24
        },
        {
          "code_insee": "28072",
          "nom": "Champrond-en-Perchet",
          "slug": "champrond-en-perchet",
          "code_postal": "28400",
          "population": 388,
          "superficie_km2": 926.7,
          "latitude": 48.31,
          "longitude": 0.8878,
          "distance_km": 7.35
        },
        {
          "code_insee": "28273",
          "nom": "Moulhard",
          "slug": "moulhard",
          "code_postal": "28160",
          "population": 139,
          "superficie_km2": 1143.9,
          "latitude": 48.2108,
          "longitude": 1.0077,
          "distance_km": 7.63
        },
        {
          "code_insee": "28331",
          "nom": "Saintigny",
          "slug": "saintigny",
          "code_postal": "28480",
          "population": 922,
          "superficie_km2": 4525.37,
          "latitude": 48.3506,
          "longitude": 1.0029,
          "distance_km": 8.67
        },
        {
          "code_insee": "28105",
          "nom": "Combres",
          "slug": "combres",
          "code_postal": "28480",
          "population": 547,
          "superficie_km2": 1512.37,
          "latitude": 48.3345,
          "longitude": 1.0572,
          "distance_km": 9.09
        },
        {
          "code_insee": "28236",
          "nom": "Arcisses",
          "slug": "arcisses",
          "code_postal": "28400",
          "population": 2197,
          "superficie_km2": 4580.93,
          "latitude": 48.3365,
          "longitude": 0.89,
          "distance_km": 9.14
        },
        {
          "code_insee": "28111",
          "nom": "Coudray-au-Perche",
          "slug": "coudray-au-perche",
          "code_postal": "28330",
          "population": 364,
          "superficie_km2": 1467.26,
          "latitude": 48.2361,
          "longitude": 0.8609,
          "distance_km": 9.33
        },
        {
          "code_insee": "28080",
          "nom": "Charbonnières",
          "slug": "charbonnieres",
          "code_postal": "28330",
          "population": 263,
          "superficie_km2": 2109.68,
          "latitude": 48.1891,
          "longitude": 0.9448,
          "distance_km": 9.8
        },
        {
          "code_insee": "28237",
          "nom": "Marolles-les-Buis",
          "slug": "marolles-les-buis",
          "code_postal": "28400",
          "population": 205,
          "superficie_km2": 1320.05,
          "latitude": 48.3674,
          "longitude": 0.9437,
          "distance_km": 10.46
        },
        {
          "code_insee": "28398",
          "nom": "Unverre",
          "slug": "unverre",
          "code_postal": "28160",
          "population": 1203,
          "superficie_km2": 6222.95,
          "latitude": 48.1997,
          "longitude": 1.0586,
          "distance_km": 10.56
        },
        {
          "code_insee": "28016",
          "nom": "Les Autels-Villevillon",
          "slug": "les-autels-villevillon",
          "code_postal": "28330",
          "population": 106,
          "superficie_km2": 1023.35,
          "latitude": 48.1778,
          "longitude": 0.9924,
          "distance_km": 10.94
        }
      ],
      "zonage_abc": "C",
      "reclassement_abc": "Non",
      "codes_postaux": [
        {
          "code_postal": "28480",
          "libelle_acheminement": "ARGENVILLIERS"
        }
      ],
      "logement": {
        "logements_total": 219,
        "residences_principales": 152,
        "logements_vacants": 12,
        "residences_secondaires": 54,
        "maisons": 210,
        "appartements": 0,
        "proprietaires": 129,
        "locataires": 16,
        "hlm": 0,
        "construits_avant_1919": 60,
        "construits_1919_1945": 10,
        "construits_1946_1970": 15,
        "construits_1971_1990": 27,
        "construits_1991_2005": 22,
        "construits_2006_2019": 16,
        "chauffage_electrique": 55,
        "chauffage_fioul": 32,
        "chauffage_gaz_ville": 0,
        "chauffage_gaz_bouteille": 13,
        "chauffage_autre": 51,
        "menages": 152,
        "logements_avant_1990": 112
      },
      "artisans": {
        "monte_escalier": 0,
        "chauffage_pac_clim": 1,
        "isolation": 2,
        "menuiserie": 1,
        "fenetres_velux": 1,
        "couverture_toiture": 2,
        "facade_peinture": 0,
        "portes_volets": 1,
        "piscine": 0,
        "vmc_ventilation": 1,
        "assainissement": 1
      },
      "revenus": {
        "revenu_median": 21220.0,
        "part_menages_imposes": null,
        "taux_pauvrete": null
      },
      "aides_etat": {
        "zone_climatique": "H1",
        "qpv": false,
        "action_coeur_de_ville": false,
        "petites_villes_de_demain": false
      }
    },
    {
      "code_insee": "28013",
      "nom": "Aunay-sous-Auneau",
      "nom_a": null,
      "nom_de": null,
      "slug": "aunay-sous-auneau",
      "code_postal": "28700",
      "population": 1537,
      "superficie_km2": 20.0,
      "latitude": 48.4430008,
      "longitude": 1.814,
      "villes_proches": [
        {
          "code_insee": "28015",
          "nom": "Auneau-Bleury-Saint-Symphorien",
          "slug": "auneau-bleury-saint-symphorien",
          "code_postal": "28700",
          "population": 6288,
          "superficie_km2": 17.0,
          "latitude": 48.4690018,
          "longitude": 1.773,
          "distance_km": 4.18
        },
        {
          "code_insee": "28363",
          "nom": "Sainville",
          "slug": "sainville",
          "code_postal": "28700",
          "population": 1029,
          "superficie_km2": 22.0,
          "latitude": 48.4150009,
          "longitude": 1.882,
          "distance_km": 5.9
        },
        {
          "code_insee": "28039",
          "nom": "Béville-le-Comte",
          "slug": "beville-le-comte",
          "code_postal": "28700",
          "population": 1682,
          "superficie_km2": 20.0,
          "latitude": 48.4399986,
          "longitude": 1.7029999,
          "distance_km": 8.19
        },
        {
          "code_insee": "78003",
          "nom": "Ablis",
          "slug": "ablis",
          "code_postal": "78660",
          "population": 3715,
          "superficie_km2": 26.0,
          "latitude": 48.5279999,
          "longitude": 1.851,
          "distance_km": 9.84
        },
        {
          "code_insee": "91175",
          "nom": "Corbreuse",
          "slug": "corbreuse",
          "code_postal": "91410",
          "population": 1706,
          "superficie_km2": 16.0,
          "latitude": 48.4949989,
          "longitude": 1.96,
          "distance_km": 12.22
        },
        {
          "code_insee": "28168",
          "nom": "Gallardon",
          "slug": "gallardon",
          "code_postal": "28320",
          "population": 3589,
          "superficie_km2": 11.0,
          "latitude": 48.5340004,
          "longitude": 1.689,
          "distance_km": 13.68
        },
        {
          "code_insee": "28023",
          "nom": "Bailleau-Armenonville",
          "slug": "bailleau-armenonville",
          "code_postal": "28320",
          "population": 1344,
          "superficie_km2": 18.0,
          "latitude": 48.5270004,
          "longitude": 1.647,
          "distance_km": 15.45
        },
        {
          "code_insee": "28309",
          "nom": "Prunay-le-Gillon",
          "slug": "prunay-le-gillon",
          "code_postal": "28360",
          "population": 1089,
          "superficie_km2": 26.0,
          "latitude": 48.3660011,
          "longitude": 1.635,
          "distance_km": 15.75
        },
        {
          "code_insee": "91284",
          "nom": "Les Granges-le-Roi",
          "slug": "les-granges-le-roi",
          "code_postal": "91410",
          "population": 1183,
          "superficie_km2": 13.0,
          "latitude": 48.4980011,
          "longitude": 2.0109999,
          "distance_km": 15.76
        },
        {
          "code_insee": "28380",
          "nom": "Sours",
          "slug": "sours",
          "code_postal": "28630",
          "population": 1969,
          "superficie_km2": 33.0,
          "latitude": 48.4140015,
          "longitude": 1.596,
          "distance_km": 16.4
        },
        {
          "code_insee": "78601",
          "nom": "Sonchamp",
          "slug": "sonchamp",
          "code_postal": "78120",
          "population": 1630,
          "superficie_km2": 46.0,
          "latitude": 48.5880013,
          "longitude": 1.869,
          "distance_km": 16.62
        },
        {
          "code_insee": "91200",
          "nom": "Dourdan",
          "slug": "dourdan",
          "code_postal": "91410",
          "population": 11279,
          "superficie_km2": 31.0,
          "latitude": 48.5359993,
          "longitude": 1.994,
          "distance_km": 16.82
        },
        {
          "code_insee": "78537",
          "nom": "Saint-Arnoult-en-Yvelines",
          "slug": "saint-arnoult-en-yvelines",
          "code_postal": "78730",
          "population": 5870,
          "superficie_km2": 13.0,
          "latitude": 48.5719986,
          "longitude": 1.9349999,
          "distance_km": 16.89
        },
        {
          "code_insee": "91511",
          "nom": "Pussay",
          "slug": "pussay",
          "code_postal": "91740",
          "population": 2169,
          "superficie_km2": 12.0,
          "latitude": 48.3499985,
          "longitude": 1.998,
          "distance_km": 17.07
        },
        {
          "code_insee": "28278",
          "nom": "Nogent-le-Phaye",
          "slug": "nogent-le-phaye",
          "code_postal": "28630",
          "population": 1474,
          "superficie_km2": 15.0,
          "latitude": 48.4519997,
          "longitude": 1.5779999,
          "distance_km": 17.44
        },
        {
          "code_insee": "91130",
          "nom": "Chalo-Saint-Mars",
          "slug": "chalo-saint-mars",
          "code_postal": "91780",
          "population": 1031,
          "superficie_km2": 29.0,
          "latitude": 48.4169998,
          "longitude": 2.052,
          "distance_km": 17.8
        },
        {
          "code_insee": "28140",
          "nom": "Épernon",
          "slug": "epernon",
          "code_postal": "28230",
          "population": 5549,
          "superficie_km2": 7.0,
          "latitude": 48.5940018,
          "longitude": 1.6849999,
          "distance_km": 19.29
        },
        {
          "code_insee": "28173",
          "nom": "Gasville-Oisème",
          "slug": "gasville-oiseme",
          "code_postal": "28300",
          "population": 1482,
          "superficie_km2": 9.0,
          "latitude": 48.4729996,
          "longitude": 1.5549999,
          "distance_km": 19.39
        },
        {
          "code_insee": "91525",
          "nom": "Roinville",
          "slug": "roinville",
          "code_postal": "91410",
          "population": 1314,
          "superficie_km2": 14.0,
          "latitude": 48.5169983,
          "longitude": 2.053,
          "distance_km": 19.44
        },
        {
          "code_insee": "28135",
          "nom": "Droue-sur-Drouette",
          "slug": "droue-sur-drouette",
          "code_postal": "28230",
          "population": 1195,
          "superficie_km2": 5.0,
          "latitude": 48.6020012,
          "longitude": 1.701,
          "distance_km": 19.54
        }
      ],
      "zonage_abc": "B2",
      "reclassement_abc": "Non",
      "codes_postaux": [
        {
          "code_postal": "28700",
          "libelle_acheminement": "AUNAY SOUS AUNEAU"
        }
      ],
      "logement": {
        "logements_total": 686,
        "residences_principales": 611,
        "logements_vacants": 51,
        "residences_secondaires": 22,
        "maisons": 665,
        "appartements": 17,
        "proprietaires": 537,
        "locataires": 68,
        "hlm": 9,
        "construits_avant_1919": 120,
        "construits_1919_1945": 44,
        "construits_1946_1970": 73,
        "construits_1971_1990": 191,
        "construits_1991_2005": 86,
        "construits_2006_2019": 82,
        "chauffage_electrique": 297,
        "chauffage_fioul": 89,
        "chauffage_gaz_ville": 85,
        "chauffage_gaz_bouteille": 7,
        "chauffage_autre": 131,
        "menages": 611,
        "logements_avant_1990": 428
      },
      "artisans": {
        "monte_escalier": 0,
        "chauffage_pac_clim": 7,
        "isolation": 2,
        "menuiserie": 2,
        "fenetres_velux": 2,
        "couverture_toiture": 0,
        "facade_peinture": 4,
        "portes_volets": 2,
        "piscine": 0,
        "vmc_ventilation": 2,
        "assainissement": 5
      },
      "revenus": {
        "revenu_median": 24940.0,
        "part_menages_imposes": null,
        "taux_pauvrete": null
      },
      "aides_etat": {
        "zone_climatique": "H1",
        "qpv": false,
        "action_coeur_de_ville": false,
        "petites_villes_de_demain": false
      }
    },
    {
      "code_insee": "28014",
      "nom": "Aunay-sous-Crécy",
      "nom_a": null,
      "nom_de": null,
      "slug": "aunay-sous-crecy",
      "code_postal": "28500",
      "population": 646,
      "superficie_km2": 849.76,
      "latitude": 48.6576,
      "longitude": 1.3054,
      "villes_proches": [
        {
          "code_insee": "28394",
          "nom": "Tréon",
          "slug": "treon",
          "code_postal": "28500",
          "population": 1418,
          "superficie_km2": 1100.5,
          "latitude": 48.6714,
          "longitude": 1.3213,
          "distance_km": 1.93
        },
        {
          "code_insee": "28117",
          "nom": "Crécy-Couvé",
          "slug": "crecy-couve",
          "code_postal": "28500",
          "population": 255,
          "superficie_km2": 667.23,
          "latitude": 48.6776,
          "longitude": 1.2842,
          "distance_km": 2.71
        },
        {
          "code_insee": "28369",
          "nom": "Saulnières",
          "slug": "saulnieres",
          "code_postal": "28500",
          "population": 751,
          "superficie_km2": 1073.52,
          "latitude": 48.6655,
          "longitude": 1.2657,
          "distance_km": 3.05
        },
        {
          "code_insee": "28053",
          "nom": "Le Boullay-les-Deux-Églises",
          "slug": "le-boullay-les-deux-eglises",
          "code_postal": "28170",
          "population": 242,
          "superficie_km2": 1385.99,
          "latitude": 48.6302,
          "longitude": 1.3275,
          "distance_km": 3.45
        },
        {
          "code_insee": "28155",
          "nom": "Fontaine-les-Ribouts",
          "slug": "fontaine-les-ribouts",
          "code_postal": "28170",
          "population": 186,
          "superficie_km2": 713.37,
          "latitude": 48.657,
          "longitude": 1.2484,
          "distance_km": 4.19
        },
        {
          "code_insee": "28312",
          "nom": "Puiseux",
          "slug": "puiseux",
          "code_postal": "28170",
          "population": 136,
          "superficie_km2": 521.8,
          "latitude": 48.6396,
          "longitude": 1.368,
          "distance_km": 5.02
        },
        {
          "code_insee": "28171",
          "nom": "Garnay",
          "slug": "garnay",
          "code_postal": "28500",
          "population": 1019,
          "superficie_km2": 1436.59,
          "latitude": 48.6983,
          "longitude": 1.3371,
          "distance_km": 5.09
        },
        {
          "code_insee": "28341",
          "nom": "Saint-Jean-de-Rebervilliers",
          "slug": "saint-jean-de-rebervilliers",
          "code_postal": "28170",
          "population": 235,
          "superficie_km2": 1093.74,
          "latitude": 48.6204,
          "longitude": 1.2601,
          "distance_km": 5.31
        },
        {
          "code_insee": "28170",
          "nom": "Garancières-en-Drouais",
          "slug": "garancieres-en-drouais",
          "code_postal": "28500",
          "population": 272,
          "superficie_km2": 652.39,
          "latitude": 48.7041,
          "longitude": 1.2824,
          "distance_km": 5.44
        },
        {
          "code_insee": "28239",
          "nom": "Marville-Moutiers-Brûlé",
          "slug": "marville-moutiers-brule",
          "code_postal": "28500",
          "population": 1024,
          "superficie_km2": 2041.58,
          "latitude": 48.6742,
          "longitude": 1.3779,
          "distance_km": 5.64
        },
        {
          "code_insee": "28360",
          "nom": "Saint-Sauveur-Marville",
          "slug": "saint-sauveur-marville",
          "code_postal": "28170",
          "population": 921,
          "superficie_km2": 1892.94,
          "latitude": 48.6077,
          "longitude": 1.2811,
          "distance_km": 5.83
        },
        {
          "code_insee": "28087",
          "nom": "Châtaincourt",
          "slug": "chataincourt",
          "code_postal": "28270",
          "population": 221,
          "superficie_km2": 1479.58,
          "latitude": 48.6906,
          "longitude": 1.237,
          "distance_km": 6.22
        },
        {
          "code_insee": "28323",
          "nom": "Saint-Ange-et-Torçay",
          "slug": "saint-ange-et-torcay",
          "code_postal": "28170",
          "population": 284,
          "superficie_km2": 1664.29,
          "latitude": 48.6478,
          "longitude": 1.2095,
          "distance_km": 7.13
        },
        {
          "code_insee": "28003",
          "nom": "Allainville",
          "slug": "allainville",
          "code_postal": "28500",
          "population": 159,
          "superficie_km2": 533.63,
          "latitude": 48.7211,
          "longitude": 1.2907,
          "distance_km": 7.14
        },
        {
          "code_insee": "28404",
          "nom": "Vernouillet",
          "slug": "vernouillet",
          "code_postal": "28500",
          "population": 12310,
          "superficie_km2": 1225.96,
          "latitude": 48.7141,
          "longitude": 1.352,
          "distance_km": 7.15
        },
        {
          "code_insee": "28054",
          "nom": "Le Boullay-Mivoye",
          "slug": "le-boullay-mivoye",
          "code_postal": "28210",
          "population": 526,
          "superficie_km2": 1105.37,
          "latitude": 48.6551,
          "longitude": 1.4082,
          "distance_km": 7.56
        },
        {
          "code_insee": "28216",
          "nom": "Louvilliers-en-Drouais",
          "slug": "louvilliers-en-drouais",
          "code_postal": "28500",
          "population": 230,
          "superficie_km2": 416.37,
          "latitude": 48.7338,
          "longitude": 1.283,
          "distance_km": 8.63
        },
        {
          "code_insee": "28089",
          "nom": "Châteauneuf-en-Thymerais",
          "slug": "chateauneuf-en-thymerais",
          "code_postal": "28170",
          "population": 2641,
          "superficie_km2": 408.82,
          "latitude": 48.5928,
          "longitude": 1.2391,
          "distance_km": 8.7
        },
        {
          "code_insee": "28045",
          "nom": "Boissy-en-Drouais",
          "slug": "boissy-en-drouais",
          "code_postal": "28500",
          "population": 226,
          "superficie_km2": 607.28,
          "latitude": 48.7297,
          "longitude": 1.251,
          "distance_km": 8.96
        },
        {
          "code_insee": "28405",
          "nom": "Vert-en-Drouais",
          "slug": "vert-en-drouais",
          "code_postal": "28500",
          "population": 1123,
          "superficie_km2": 973.0,
          "latitude": 48.7499,
          "longitude": 1.2924,
          "distance_km": 10.31
        }
      ],
      "zonage_abc": "C",
      "reclassement_abc": "Non",
      "codes_postaux": [
        {
          "code_postal": "28500",
          "libelle_acheminement": "AUNAY SOUS CRECY"
        }
      ],
      "logement": {
        "logements_total": 291,
        "residences_principales": 261,
        "logements_vacants": 24,
        "residences_secondaires": 5,
        "maisons": 282,
        "appartements": 8,
        "proprietaires": 223,
        "locataires": 35,
        "hlm": 7,
        "construits_avant_1919": 36,
        "construits_1919_1945": 20,
        "construits_1946_1970": 45,
        "construits_1971_1990": 107,
        "construits_1991_2005": 7,
        "construits_2006_2019": 38,
        "chauffage_electrique": 96,
        "chauffage_fioul": 32,
        "chauffage_gaz_ville": 78,
        "chauffage_gaz_bouteille": 4,
        "chauffage_autre": 49,
        "menages": 261,
        "logements_avant_1990": 208
      },
      "artisans": {
        "monte_escalier": 0,
        "chauffage_pac_clim": 1,
        "isolation": 1,
        "menuiserie": 1,
        "fenetres_velux": 1,
        "couverture_toiture": 1,
        "facade_peinture": 0,
        "portes_volets": 1,
        "piscine": 0,
        "vmc_ventilation": 0,
        "assainissement": 2
      },
      "revenus": {
        "revenu_median": 22750.0,
        "part_menages_imposes": null,
        "taux_pauvrete": null
      },
      "aides_etat": {
        "zone_climatique": "H1",
        "qpv": false,
        "action_coeur_de_ville": false,
        "petites_villes_de_demain": false
      }
    },
    {
      "code_insee": "28015",
      "nom": "Auneau-Bleury-Saint-Symphorien",
      "nom_a": null,
      "nom_de": null,
      "slug": "auneau-bleury-saint-symphorien",
      "code_postal": "28700",
      "population": 6288,
      "superficie_km2": 17.0,
      "latitude": 48.4690018,
      "longitude": 1.773,
      "villes_proches": [
        {
          "code_insee": "28013",
          "nom": "Aunay-sous-Auneau",
          "slug": "aunay-sous-auneau",
          "code_postal": "28700",
          "population": 1537,
          "superficie_km2": 20.0,
          "latitude": 48.4430008,
          "longitude": 1.814,
          "distance_km": 4.18
        },
        {
          "code_insee": "28039",
          "nom": "Béville-le-Comte",
          "slug": "beville-le-comte",
          "code_postal": "28700",
          "population": 1682,
          "superficie_km2": 20.0,
          "latitude": 48.4399986,
          "longitude": 1.7029999,
          "distance_km": 6.09
        },