{
  "departement": {
    "code": "2B",
    "nom": "Haute-Corse",
    "slug": "haute-corse",
    "population_totale": 185493
  },
  "region": {
    "id": 6,
    "code": "05",
    "nom": "Corse",
    "slug": "corse"
  },
  "voisins": [
    {
      "dep_code": "2A",
      "dep_nom": "Corse-du-Sud",
      "dep_slug": "corse-du-sud"
    }
  ],
  "communes_count": 236,
  "communes": [
    {
      "code_insee": "2B002",
      "nom": "Aghione",
      "nom_a": null,
      "nom_de": null,
      "slug": "aghione",
      "code_postal": "20270",
      "population": 258,
      "superficie_km2": 3387.15,
      "latitude": 42.0934,
      "longitude": 9.4064,
      "villes_proches": [
        {
          "code_insee": "2B123",
          "nom": "Ghisonaccia",
          "slug": "ghisonaccia",
          "code_postal": "20240",
          "population": 4405,
          "superficie_km2": 7605.57,
          "latitude": 42.0454,
          "longitude": 9.4192,
          "distance_km": 5.44
        },
        {
          "code_insee": "2B075",
          "nom": "Casevecchie",
          "slug": "casevecchie",
          "code_postal": "20270",
          "population": 69,
          "superficie_km2": 902.09,
          "latitude": 42.1368,
          "longitude": 9.3678,
          "distance_km": 5.78
        },
        {
          "code_insee": "2B016",
          "nom": "Antisanti",
          "slug": "antisanti",
          "code_postal": "20270",
          "population": 591,
          "superficie_km2": 4813.03,
          "latitude": 42.157,
          "longitude": 9.3861,
          "distance_km": 7.27
        },
        {
          "code_insee": "2B149",
          "nom": "Lugo-di-Nazza",
          "slug": "lugo-di-nazza",
          "code_postal": "20240",
          "population": 85,
          "superficie_km2": 2534.49,
          "latitude": 42.0722,
          "longitude": 9.3225,
          "distance_km": 7.31
        },
        {
          "code_insee": "2B009",
          "nom": "Aléria",
          "slug": "aleria",
          "code_postal": "20270",
          "population": 2267,
          "superficie_km2": 6311.61,
          "latitude": 42.0993,
          "longitude": 9.4972,
          "distance_km": 7.52
        },
        {
          "code_insee": "2B229",
          "nom": "Pietroso",
          "slug": "pietroso",
          "code_postal": "20242",
          "population": 334,
          "superficie_km2": 2590.41,
          "latitude": 42.1231,
          "longitude": 9.3123,
          "distance_km": 8.44
        },
        {
          "code_insee": "2B236",
          "nom": "Poggio-di-Nazza",
          "slug": "poggio-di-nazza",
          "code_postal": "20240",
          "population": 187,
          "superficie_km2": 3282.06,
          "latitude": 42.0539,
          "longitude": 9.2998,
          "distance_km": 9.83
        },
        {
          "code_insee": "2B251",
          "nom": "Prunelli-di-Fiumorbo",
          "slug": "prunelli-di-fiumorbo",
          "code_postal": "20243",
          "population": 3880,
          "superficie_km2": 3758.47,
          "latitude": 42.0069,
          "longitude": 9.3749,
          "distance_km": 9.96
        },
        {
          "code_insee": "2B126",
          "nom": "Giuncaggio",
          "slug": "giuncaggio",
          "code_postal": "20251",
          "population": 91,
          "superficie_km2": 1604.92,
          "latitude": 42.1829,
          "longitude": 9.398,
          "distance_km": 9.98
        },
        {
          "code_insee": "2B201",
          "nom": "Pancheraccia",
          "slug": "pancheraccia",
          "code_postal": "20251",
          "population": 198,
          "superficie_km2": 1449.7,
          "latitude": 42.1891,
          "longitude": 9.4093,
          "distance_km": 10.64
        },
        {
          "code_insee": "2B347",
          "nom": "Vezzani",
          "slug": "vezzani",
          "code_postal": "20242",
          "population": 269,
          "superficie_km2": 4626.25,
          "latitude": 42.1501,
          "longitude": 9.2936,
          "distance_km": 11.24
        },
        {
          "code_insee": "2B320",
          "nom": "Tallone",
          "slug": "tallone",
          "code_postal": "20270",
          "population": 288,
          "superficie_km2": 6996.06,
          "latitude": 42.1897,
          "longitude": 9.4697,
          "distance_km": 11.91
        },
        {
          "code_insee": "2B135",
          "nom": "Isolaccio-di-Fiumorbo",
          "slug": "isolaccio-di-fiumorbo",
          "code_postal": "20243",
          "population": 330,
          "superficie_km2": 4131.7,
          "latitude": 42.0169,
          "longitude": 9.2694,
          "distance_km": 14.15
        },
        {
          "code_insee": "2B277",
          "nom": "Serra-di-Fiumorbo",
          "slug": "serra-di-fiumorbo",
          "code_postal": "20243",
          "population": 365,
          "superficie_km2": 4360.81,
          "latitude": 41.9668,
          "longitude": 9.3352,
          "distance_km": 15.26
        },
        {
          "code_insee": "2B218",
          "nom": "Piedicorte-di-Gaggio",
          "slug": "piedicorte-di-gaggio",
          "code_postal": "20251",
          "population": 114,
          "superficie_km2": 2735.68,
          "latitude": 42.2175,
          "longitude": 9.3223,
          "distance_km": 15.44
        },
        {
          "code_insee": "2B143",
          "nom": "Linguizzetta",
          "slug": "linguizzetta",
          "code_postal": "20230",
          "population": 1166,
          "superficie_km2": 6476.96,
          "latitude": 42.2144,
          "longitude": 9.5014,
          "distance_km": 15.57
        },
        {
          "code_insee": "2B226",
          "nom": "Pietraserena",
          "slug": "pietraserena",
          "code_postal": "20251",
          "population": 62,
          "superficie_km2": 675.38,
          "latitude": 42.2346,
          "longitude": 9.36,
          "distance_km": 16.16
        },
        {
          "code_insee": "2B328",
          "nom": "Tox",
          "slug": "tox",
          "code_postal": "20270",
          "population": 96,
          "superficie_km2": 1457.18,
          "latitude": 42.2454,
          "longitude": 9.4436,
          "distance_km": 17.18
        },
        {
          "code_insee": "2B342",
          "nom": "Ventiseri",
          "slug": "ventiseri",
          "code_postal": "20240",
          "population": 2629,
          "superficie_km2": 4701.74,
          "latitude": 41.9386,
          "longitude": 9.3552,
          "distance_km": 17.73
        },
        {
          "code_insee": "2B356",
          "nom": "Zalana",
          "slug": "zalana",
          "code_postal": "20272",
          "population": 153,
          "superficie_km2": 1321.22,
          "latitude": 42.253,
          "longitude": 9.3837,
          "distance_km": 17.85
        }
      ],
      "zonage_abc": "B2",
      "reclassement_abc": "Non",
      "codes_postaux": [
        {
          "code_postal": "20270",
          "libelle_acheminement": "AGHIONE"
        }
      ],
      "logement": {
        "logements_total": 163,
        "residences_principales": 114,
        "logements_vacants": 12,
        "residences_secondaires": 36,
        "maisons": 86,
        "appartements": 48,
        "proprietaires": 59,
        "locataires": 28,
        "hlm": 0,
        "construits_avant_1919": 12,
        "construits_1919_1945": 5,
        "construits_1946_1970": 9,
        "construits_1971_1990": 29,
        "construits_1991_2005": 30,
        "construits_2006_2019": 22,
        "chauffage_electrique": 61,
        "chauffage_fioul": 0,
        "chauffage_gaz_ville": 0,
        "chauffage_gaz_bouteille": 2,
        "chauffage_autre": 49,
        "menages": 114,
        "logements_avant_1990": 55
      },
      "artisans": {
        "monte_escalier": 0,
        "chauffage_pac_clim": 1,
        "isolation": 0,
        "menuiserie": 0,
        "fenetres_velux": 0,
        "couverture_toiture": 0,
        "facade_peinture": 1,
        "portes_volets": 0,
        "piscine": 0,
        "vmc_ventilation": 1,
        "assainissement": 0
      },
      "revenus": {
        "revenu_median": 19030.0,
        "part_menages_imposes": null,
        "taux_pauvrete": null
      },
      "aides_etat": {
        "zone_climatique": "H2",
        "qpv": false,
        "action_coeur_de_ville": false,
        "petites_villes_de_demain": false
      }
    },
    {
      "code_insee": "2B003",
      "nom": "Aiti",
      "nom_a": null,
      "nom_de": null,
      "slug": "aiti",
      "code_postal": "20244",
      "population": 27,
      "superficie_km2": 1212.94,
      "latitude": 42.4026,
      "longitude": 9.2284,
      "villes_proches": [
        {
          "code_insee": "2B267",
          "nom": "Saliceto",
          "slug": "saliceto",
          "code_postal": "20218",
          "population": 46,
          "superficie_km2": 1254.81,
          "latitude": 42.4126,
          "longitude": 9.262,
          "distance_km": 2.97
        },
        {
          "code_insee": "2B137",
          "nom": "Lano",
          "slug": "lano",
          "code_postal": "20244",
          "population": 21,
          "superficie_km2": 824.66,
          "latitude": 42.3753,
          "longitude": 9.2298,
          "distance_km": 3.04
        },
        {
          "code_insee": "2B193",
          "nom": "Omessa",
          "slug": "omessa",
          "code_postal": "20236",
          "population": 595,
          "superficie_km2": 2445.73,
          "latitude": 42.387,
          "longitude": 9.1946,
          "distance_km": 3.27
        },
        {
          "code_insee": "2B122",
          "nom": "Gavignano",
          "slug": "gavignano",
          "code_postal": "20218",
          "population": 61,
          "superficie_km2": 1079.46,
          "latitude": 42.4228,
          "longitude": 9.2642,
          "distance_km": 3.7
        },
        {
          "code_insee": "2B106",
          "nom": "Érone",
          "slug": "erone",
          "code_postal": "20244",
          "population": 9,
          "superficie_km2": 396.67,
          "latitude": 42.3755,
          "longitude": 9.2665,
          "distance_km": 4.34
        },
        {
          "code_insee": "2B082",
          "nom": "Castineta",
          "slug": "castineta",
          "code_postal": "20218",
          "population": 34,
          "superficie_km2": 939.0,
          "latitude": 42.4254,
          "longitude": 9.2732,
          "distance_km": 4.47
        },
        {
          "code_insee": "2B248",
          "nom": "Prato-di-Giovellina",
          "slug": "prato-di-giovellina",
          "code_postal": "20218",
          "population": 52,
          "superficie_km2": 1226.95,
          "latitude": 42.418,
          "longitude": 9.1751,
          "distance_km": 4.7
        },
        {
          "code_insee": "2B304",
          "nom": "San-Lorenzo",
          "slug": "san-lorenzo",
          "code_postal": "20244",
          "population": 138,
          "superficie_km2": 1015.07,
          "latitude": 42.3907,
          "longitude": 9.2916,
          "distance_km": 5.36
        },
        {
          "code_insee": "2B169",
          "nom": "Morosaglia",
          "slug": "morosaglia",
          "code_postal": "20218",
          "population": 961,
          "superficie_km2": 2448.66,
          "latitude": 42.45,
          "longitude": 9.2514,
          "distance_km": 5.6
        },
        {
          "code_insee": "2B220",
          "nom": "Piedigriggio",
          "slug": "piedigriggio",
          "code_postal": "20218",
          "population": 164,
          "superficie_km2": 1051.18,
          "latitude": 42.4456,
          "longitude": 9.1798,
          "distance_km": 6.23
        },
        {
          "code_insee": "2B264",
          "nom": "Rusio",
          "slug": "rusio",
          "code_postal": "20244",
          "population": 65,
          "superficie_km2": 861.58,
          "latitude": 42.3501,
          "longitude": 9.2572,
          "distance_km": 6.3
        },
        {
          "code_insee": "2B337",
          "nom": "Valle-di-Rostino",
          "slug": "valle-di-rostino",
          "code_postal": "20235",
          "population": 167,
          "superficie_km2": 1560.18,
          "latitude": 42.46,
          "longitude": 9.2592,
          "distance_km": 6.86
        },
        {
          "code_insee": "2B051",
          "nom": "Cambia",
          "slug": "cambia",
          "code_postal": "20244",
          "population": 61,
          "superficie_km2": 835.47,
          "latitude": 42.367,
          "longitude": 9.303,
          "distance_km": 7.29
        },
        {
          "code_insee": "2B329",
          "nom": "Tralonca",
          "slug": "tralonca",
          "code_postal": "20250",
          "population": 118,
          "superficie_km2": 1566.48,
          "latitude": 42.3389,
          "longitude": 9.1956,
          "distance_km": 7.58
        },
        {
          "code_insee": "2B068",
          "nom": "Carticasi",
          "slug": "carticasi",
          "code_postal": "20244",
          "population": 25,
          "superficie_km2": 1312.7,
          "latitude": 42.3485,
          "longitude": 9.3052,
          "distance_km": 8.72
        },
        {
          "code_insee": "2B306",
          "nom": "Santa-Lucia-di-Mercurio",
          "slug": "santa-lucia-di-mercurio",
          "code_postal": "20250",
          "population": 115,
          "superficie_km2": 2380.16,
          "latitude": 42.3186,
          "longitude": 9.2217,
          "distance_km": 9.36
        },
        {
          "code_insee": "2B079",
          "nom": "Castello-di-Rostino",
          "slug": "castello-di-rostino",
          "code_postal": "20235",
          "population": 522,
          "superficie_km2": 1248.43,
          "latitude": 42.4732,
          "longitude": 9.2967,
          "distance_km": 9.65
        },
        {
          "code_insee": "2B275",
          "nom": "Sermano",
          "slug": "sermano",
          "code_postal": "20212",
          "population": 72,
          "superficie_km2": 763.75,
          "latitude": 42.3155,
          "longitude": 9.2637,
          "distance_km": 10.11
        },
        {
          "code_insee": "2B078",
          "nom": "Castellare-di-Mercurio",
          "slug": "castellare-di-mercurio",
          "code_postal": "20212",
          "population": 31,
          "superficie_km2": 612.17,
          "latitude": 42.3121,
          "longitude": 9.2439,
          "distance_km": 10.14
        },
        {
          "code_insee": "2B059",
          "nom": "Canavaggia",
          "slug": "canavaggia",
          "code_postal": "20235",
          "population": 123,
          "superficie_km2": 3498.55,
          "latitude": 42.4987,
          "longitude": 9.2341,
          "distance_km": 10.7
        }
      ],
      "zonage_abc": "B2",
      "reclassement_abc": "Non",
      "codes_postaux": [
        {
          "code_postal": "20244",
          "libelle_acheminement": "AITI"
        }
      ],
      "logement": {
        "logements_total": 80,
        "residences_principales": 15,
        "logements_vacants": 1,
        "residences_secondaires": 64,
        "maisons": 79,
        "appartements": 1,
        "proprietaires": 15,
        "locataires": 0,
        "hlm": 0,
        "construits_avant_1919": 2,
        "construits_1919_1945": 2,
        "construits_1946_1970": 3,
        "construits_1971_1990": 3,
        "construits_1991_2005": 3,
        "construits_2006_2019": 0,
        "chauffage_electrique": 8,
        "chauffage_fioul": 1,
        "chauffage_gaz_ville": 0,
        "chauffage_gaz_bouteille": 0,
        "chauffage_autre": 5,
        "menages": 15,
        "logements_avant_1990": 10
      },
      "artisans": {
        "monte_escalier": 0,
        "chauffage_pac_clim": 0,
        "isolation": 0,
        "menuiserie": 0,
        "fenetres_velux": 0,
        "couverture_toiture": 0,
        "facade_peinture": 0,
        "portes_volets": 0,
        "piscine": 1,
        "vmc_ventilation": 0,
        "assainissement": 0
      },
      "revenus": {
        "revenu_median": null,
        "part_menages_imposes": null,
        "taux_pauvrete": null
      },
      "aides_etat": {
        "zone_climatique": "H2",
        "qpv": false,
        "action_coeur_de_ville": false,
        "petites_villes_de_demain": false
      }
    },
    {
      "code_insee": "2B005",
      "nom": "Alando",
      "nom_a": null,
      "nom_de": null,
      "slug": "alando",
      "code_postal": "20212",
      "population": 30,
      "superficie_km2": 306.14,
      "latitude": 42.3083,
      "longitude": 9.2899,
      "villes_proches": [
        {
          "code_insee": "2B275",
          "nom": "Sermano",
          "slug": "sermano",
          "code_postal": "20212",
          "population": 72,
          "superficie_km2": 763.75,
          "latitude": 42.3155,
          "longitude": 9.2637,
          "distance_km": 2.3
        },
        {
          "code_insee": "2B013",
          "nom": "Alzi",
          "slug": "alzi",
          "code_postal": "20212",
          "population": 27,
          "superficie_km2": 269.7,
          "latitude": 42.3133,
          "longitude": 9.3175,
          "distance_km": 2.34
        },
        {
          "code_insee": "2B045",
          "nom": "Bustanico",
          "slug": "bustanico",
          "code_postal": "20212",
          "population": 65,
          "superficie_km2": 1156.27,
          "latitude": 42.326,
          "longitude": 9.3112,
          "distance_km": 2.63
        },
        {
          "code_insee": "2B157",
          "nom": "Mazzola",
          "slug": "mazzola",
          "code_postal": "20212",
          "population": 22,
          "superficie_km2": 656.73,
          "latitude": 42.306,
          "longitude": 9.3251,
          "distance_km": 2.91
        },
        {
          "code_insee": "2B292",
          "nom": "Sant'Andréa-di-Bozio",
          "slug": "sant-andrea-di-bozio",
          "code_postal": "20212",
          "population": 55,
          "superficie_km2": 2404.5,
          "latitude": 42.2767,
          "longitude": 9.2792,
          "distance_km": 3.62
        },
        {
          "code_insee": "2B078",
          "nom": "Castellare-di-Mercurio",
          "slug": "castellare-di-mercurio",
          "code_postal": "20212",
          "population": 31,
          "superficie_km2": 612.17,
          "latitude": 42.3121,
          "longitude": 9.2439,
          "distance_km": 3.81
        },
        {
          "code_insee": "2B110",
          "nom": "Favalello",
          "slug": "favalello",
          "code_postal": "20212",
          "population": 71,
          "superficie_km2": 553.71,
          "latitude": 42.2886,
          "longitude": 9.2519,
          "distance_km": 3.82
        },
        {
          "code_insee": "2B068",
          "nom": "Carticasi",
          "slug": "carticasi",
          "code_postal": "20244",
          "population": 25,
          "superficie_km2": 1312.7,
          "latitude": 42.3485,
          "longitude": 9.3052,
          "distance_km": 4.64
        },
        {
          "code_insee": "2B264",
          "nom": "Rusio",
          "slug": "rusio",
          "code_postal": "20244",
          "population": 65,
          "superficie_km2": 861.58,
          "latitude": 42.3501,
          "longitude": 9.2572,
          "distance_km": 5.37
        },
        {
          "code_insee": "2B213",
          "nom": "Pianello",
          "slug": "pianello",
          "code_postal": "20272",
          "population": 53,
          "superficie_km2": 1695.91,
          "latitude": 42.3004,
          "longitude": 9.3577,
          "distance_km": 5.64
        },
        {
          "code_insee": "2B306",
          "nom": "Santa-Lucia-di-Mercurio",
          "slug": "santa-lucia-di-mercurio",
          "code_postal": "20250",
          "population": 115,
          "superficie_km2": 2380.16,
          "latitude": 42.3186,
          "longitude": 9.2217,
          "distance_km": 5.72
        },
        {
          "code_insee": "2B364",
          "nom": "Zuani",
          "slug": "zuani",
          "code_postal": "20272",
          "population": 37,
          "superficie_km2": 517.92,
          "latitude": 42.2651,
          "longitude": 9.342,
          "distance_km": 6.44
        },
        {
          "code_insee": "2B105",
          "nom": "Erbajolo",
          "slug": "erbajolo",
          "code_postal": "20212",
          "population": 90,
          "superficie_km2": 1559.9,
          "latitude": 42.252,
          "longitude": 9.2642,
          "distance_km": 6.61
        },
        {
          "code_insee": "2B051",
          "nom": "Cambia",
          "slug": "cambia",
          "code_postal": "20244",
          "population": 61,
          "superficie_km2": 835.47,
          "latitude": 42.367,
          "longitude": 9.303,
          "distance_km": 6.62
        },
        {
          "code_insee": "2B116",
          "nom": "Focicchia",
          "slug": "focicchia",
          "code_postal": "20212",
          "population": 36,
          "superficie_km2": 723.34,
          "latitude": 42.2472,
          "longitude": 9.2856,
          "distance_km": 6.8
        },
        {
          "code_insee": "2B221",
          "nom": "Piedipartino",
          "slug": "piedipartino",
          "code_postal": "20229",
          "population": 19,
          "superficie_km2": 330.17,
          "latitude": 42.3569,
          "longitude": 9.3483,
          "distance_km": 7.23
        },
        {
          "code_insee": "2B106",
          "nom": "Érone",
          "slug": "erone",
          "code_postal": "20244",
          "population": 9,
          "superficie_km2": 396.67,
          "latitude": 42.3755,
          "longitude": 9.2665,
          "distance_km": 7.72
        },
        {
          "code_insee": "2B063",
          "nom": "Carcheto-Brustico",
          "slug": "carcheto-brustico",
          "code_postal": "20229",
          "population": 57,
          "superficie_km2": 520.93,
          "latitude": 42.3554,
          "longitude": 9.3593,
          "distance_km": 7.74
        },
        {
          "code_insee": "2B222",
          "nom": "Pie-d'Orezza",
          "slug": "pie-d-orezza",
          "code_postal": "20229",
          "population": 35,
          "superficie_km2": 577.56,
          "latitude": 42.3756,
          "longitude": 9.3404,
          "distance_km": 8.56
        },
        {
          "code_insee": "2B304",
          "nom": "San-Lorenzo",
          "slug": "san-lorenzo",
          "code_postal": "20244",
          "population": 138,
          "superficie_km2": 1015.07,
          "latitude": 42.3907,
          "longitude": 9.2916,
          "distance_km": 9.16
        }
      ],
      "zonage_abc": "B2",
      "reclassement_abc": "Non",
      "codes_postaux": [
        {
          "code_postal": "20212",
          "libelle_acheminement": "ALANDO"
        }
      ],
      "logement": {
        "logements_total": 42,
        "residences_principales": 10,
        "logements_vacants": 0,
        "residences_secondaires": 31,
        "maisons": 35,
        "appartements": 6,
        "proprietaires": 6,
        "locataires": 4,
        "hlm": 0,
        "construits_avant_1919": 5,
        "construits_1919_1945": 0,
        "construits_1946_1970": 0,
        "construits_1971_1990": 2,
        "construits_1991_2005": 1,
        "construits_2006_2019": 0,
        "chauffage_electrique": 6,
        "chauffage_fioul": 0,
        "chauffage_gaz_ville": 0,
        "chauffage_gaz_bouteille": 0,
        "chauffage_autre": 4,
        "menages": 10,
        "logements_avant_1990": 7
      },
      "artisans": {
        "monte_escalier": 0,
        "chauffage_pac_clim": 0,
        "isolation": 0,
        "menuiserie": 0,
        "fenetres_velux": 0,
        "couverture_toiture": 0,
        "facade_peinture": 0,
        "portes_volets": 0,
        "piscine": 0,
        "vmc_ventilation": 0,
        "assainissement": 0
      },
      "revenus": {
        "revenu_median": null,
        "part_menages_imposes": null,
        "taux_pauvrete": null
      },
      "aides_etat": {
        "zone_climatique": "H2",
        "qpv": false,
        "action_coeur_de_ville": false,
        "petites_villes_de_demain": false
      }
    },
    {
      "code_insee": "2B007",
      "nom": "Albertacce",
      "nom_a": null,
      "nom_de": null,
      "slug": "albertacce",
      "code_postal": "20224",
      "population": 196,
      "superficie_km2": 9694.91,
      "latitude": 42.3145,
      "longitude": 8.9277,
      "villes_proches": [
        {
          "code_insee": "2B073",
          "nom": "Casamaccioli",
          "slug": "casamaccioli",
          "code_postal": "20224",
          "population": 115,
          "superficie_km2": 3627.09,
          "latitude": 42.2832,
          "longitude": 8.9828,
          "distance_km": 5.71
        },
        {
          "code_insee": "2B147",
          "nom": "Lozzi",
          "slug": "lozzi",
          "code_postal": "20224",
          "population": 110,
          "superficie_km2": 3062.29,
          "latitude": 42.3624,
          "longitude": 8.9773,
          "distance_km": 6.71
        },
        {
          "code_insee": "2B047",
          "nom": "Calacuccia",
          "slug": "calacuccia",
          "code_postal": "20224",
          "population": 272,
          "superficie_km2": 1820.87,
          "latitude": 42.3242,
          "longitude": 9.0345,
          "distance_km": 8.85
        },
        {
          "code_insee": "2A108",
          "nom": "Évisa",
          "slug": "evisa",
          "code_postal": "20126",
          "population": 231,
          "superficie_km2": 6716.99,
          "latitude": 42.2846,
          "longitude": 8.8265,
          "distance_km": 8.96
        },
        {
          "code_insee": "2A100",
          "nom": "Cristinacce",
          "slug": "cristinacce",
          "code_postal": "20126",
          "population": 77,
          "superficie_km2": 2059.91,
          "latitude": 42.2458,
          "longitude": 8.8575,
          "distance_km": 9.58
        },
        {
          "code_insee": "2B095",
          "nom": "Corscia",
          "slug": "corscia",
          "code_postal": "20224",
          "population": 123,
          "superficie_km2": 5894.89,
          "latitude": 42.3627,
          "longitude": 9.0453,
          "distance_km": 11.05
        },
        {
          "code_insee": "2B153",
          "nom": "Manso",
          "slug": "manso",
          "code_postal": "20245",
          "population": 116,
          "superficie_km2": 12094.17,
          "latitude": 42.3686,
          "longitude": 8.814,
          "distance_km": 11.11
        },
        {
          "code_insee": "2A141",
          "nom": "Letia",
          "slug": "letia",
          "code_postal": "20160",
          "population": 111,
          "superficie_km2": 3661.52,
          "latitude": 42.2166,
          "longitude": 8.8759,
          "distance_km": 11.69
        },
        {
          "code_insee": "2A282",
          "nom": "Soccia",
          "slug": "soccia",
          "code_postal": "20125",
          "population": 160,
          "superficie_km2": 2790.99,
          "latitude": 42.2065,
          "longitude": 8.9309,
          "distance_km": 12.01
        },
        {
          "code_insee": "2B096",
          "nom": "Corte",
          "slug": "corte",
          "code_postal": "20250",
          "population": 7819,
          "superficie_km2": 14909.96,
          "latitude": 42.2737,
          "longitude": 9.0691,
          "distance_km": 12.48
        },
        {
          "code_insee": "2A196",
          "nom": "Orto",
          "slug": "orto",
          "code_postal": "20125",
          "population": 81,
          "superficie_km2": 1603.55,
          "latitude": 42.1983,
          "longitude": 8.9626,
          "distance_km": 13.24
        },
        {
          "code_insee": "2B023",
          "nom": "Asco",
          "slug": "asco",
          "code_postal": "20276",
          "population": 116,
          "superficie_km2": 12385.08,
          "latitude": 42.4386,
          "longitude": 8.9924,
          "distance_km": 14.79
        },
        {
          "code_insee": "2A258",
          "nom": "Renno",
          "slug": "renno",
          "code_postal": "20160",
          "population": 62,
          "superficie_km2": 1263.77,
          "latitude": 42.2053,
          "longitude": 8.8207,
          "distance_km": 15.0
        },
        {
          "code_insee": "2A131",
          "nom": "Guagno",
          "slug": "guagno",
          "code_postal": "20160",
          "population": 145,
          "superficie_km2": 4278.75,
          "latitude": 42.1772,
          "longitude": 8.9813,
          "distance_km": 15.89
        },
        {
          "code_insee": "2A240",
          "nom": "Poggiolo",
          "slug": "poggiolo",
          "code_postal": "20125",
          "population": 104,
          "superficie_km2": 1216.35,
          "latitude": 42.1616,
          "longitude": 8.8985,
          "distance_km": 17.17
        },
        {
          "code_insee": "2A174",
          "nom": "Murzo",
          "slug": "murzo",
          "code_postal": "20160",
          "population": 98,
          "superficie_km2": 2145.96,
          "latitude": 42.1556,
          "longitude": 8.8491,
          "distance_km": 18.82
        },
        {
          "code_insee": "2A204",
          "nom": "Pastricciola",
          "slug": "pastricciola",
          "code_postal": "20121",
          "population": 90,
          "superficie_km2": 4637.72,
          "latitude": 42.1444,
          "longitude": 9.0148,
          "distance_km": 20.23
        },
        {
          "code_insee": "2B156",
          "nom": "Mausoléo",
          "slug": "mausoleo",
          "code_postal": "20259",
          "population": 24,
          "superficie_km2": 1942.99,
          "latitude": 42.498,
          "longitude": 8.968,
          "distance_km": 20.67
        },
        {
          "code_insee": "2A259",
          "nom": "Rezza",
          "slug": "rezza",
          "code_postal": "20121",
          "population": 61,
          "superficie_km2": 1363.75,
          "latitude": 42.1255,
          "longitude": 8.9557,
          "distance_km": 21.14
        },
        {
          "code_insee": "2A027",
          "nom": "Azzana",
          "slug": "azzana",
          "code_postal": "20121",
          "population": 49,
          "superficie_km2": 1190.79,
          "latitude": 42.1172,
          "longitude": 8.9331,
          "distance_km": 21.94
        }
      ],
      "zonage_abc": "B2",
      "reclassement_abc": "Non",
      "codes_postaux": [
        {
          "code_postal": "20224",
          "libelle_acheminement": "ALBERTACCE"
        }
      ],
      "logement": {
        "logements_total": 333,
        "residences_principales": 110,
        "logements_vacants": 2,
        "residences_secondaires": 221,
        "maisons": 222,
        "appartements": 108,
        "proprietaires": 76,
        "locataires": 21,
        "hlm": 14,
        "construits_avant_1919": 27,
        "construits_1919_1945": 9,
        "construits_1946_1970": 15,
        "construits_1971_1990": 28,
        "construits_1991_2005": 16,
        "construits_2006_2019": 12,
        "chauffage_electrique": 39,
        "chauffage_fioul": 6,
        "chauffage_gaz_ville": 2,
        "chauffage_gaz_bouteille": 8,
        "chauffage_autre": 55,
        "menages": 110,
        "logements_avant_1990": 79
      },
      "artisans": {
        "monte_escalier": 0,
        "chauffage_pac_clim": 1,
        "isolation": 0,
        "menuiserie": 0,
        "fenetres_velux": 0,
        "couverture_toiture": 0,
        "facade_peinture": 0,
        "portes_volets": 0,
        "piscine": 0,
        "vmc_ventilation": 0,
        "assainissement": 1
      },
      "revenus": {
        "revenu_median": 18020.0,
        "part_menages_imposes": null,
        "taux_pauvrete": null
      },
      "aides_etat": {
        "zone_climatique": "H2",
        "qpv": false,
        "action_coeur_de_ville": false,
        "petites_villes_de_demain": false
      }
    },
    {
      "code_insee": "2B010",
      "nom": "Algajola",
      "nom_a": null,
      "nom_de": null,
      "slug": "algajola",
      "code_postal": "20220",
      "population": 363,
      "superficie_km2": 168.72,
      "latitude": 42.6051,
      "longitude": 8.8587,
      "villes_proches": [
        {
          "code_insee": "2B020",
          "nom": "Aregno",
          "slug": "aregno",
          "code_postal": "20220",
          "population": 588,
          "superficie_km2": 929.69,
          "latitude": 42.5943,
          "longitude": 8.8765,
          "distance_km": 1.89
        },
        {
          "code_insee": "2B138",
          "nom": "Lavatoggio",
          "slug": "lavatoggio",
          "code_postal": "20225",
          "population": 154,
          "superficie_km2": 684.5,
          "latitude": 42.5754,
          "longitude": 8.8624,
          "distance_km": 3.32
        },
        {
          "code_insee": "2B231",
          "nom": "Pigna",
          "slug": "pigna",
          "code_postal": "20220",
          "population": 128,
          "superficie_km2": 221.12,
          "latitude": 42.6003,
          "longitude": 8.9,
          "distance_km": 3.42
        },
        {
          "code_insee": "2B093",
          "nom": "Corbara",
          "slug": "corbara",
          "code_postal": "20220",
          "population": 962,
          "superficie_km2": 1012.32,
          "latitude": 42.6197,
          "longitude": 8.8995,
          "distance_km": 3.71
        },
        {
          "code_insee": "2B150",
          "nom": "Lumio",
          "slug": "lumio",
          "code_postal": "20260",
          "population": 1224,
          "superficie_km2": 1947.07,
          "latitude": 42.5801,
          "longitude": 8.8262,
          "distance_km": 3.85
        },
        {
          "code_insee": "2B296",
          "nom": "Sant'Antonino",
          "slug": "sant-antonino",
          "code_postal": "20220",
          "population": 127,
          "superficie_km2": 411.83,
          "latitude": 42.5861,
          "longitude": 8.9095,
          "distance_km": 4.66
        },
        {
          "code_insee": "2B084",
          "nom": "Cateri",
          "slug": "cateri",
          "code_postal": "20225",
          "population": 247,
          "superficie_km2": 321.43,
          "latitude": 42.5678,
          "longitude": 8.897,
          "distance_km": 5.2
        },
        {
          "code_insee": "2B025",
          "nom": "Avapessa",
          "slug": "avapessa",
          "code_postal": "20225",
          "population": 80,
          "superficie_km2": 325.13,
          "latitude": 42.5592,
          "longitude": 8.8962,
          "distance_km": 5.96
        },
        {
          "code_insee": "2B316",
          "nom": "Santa-Reparata-di-Balagna",
          "slug": "santa-reparata-di-balagna",
          "code_postal": "20220",
          "population": 1024,
          "superficie_km2": 1013.82,
          "latitude": 42.6038,
          "longitude": 8.9332,
          "distance_km": 6.1
        },
        {
          "code_insee": "2B167",
          "nom": "Montegrosso",
          "slug": "montegrosso",
          "code_postal": "20214",
          "population": 413,
          "superficie_km2": 2286.31,
          "latitude": 42.5445,
          "longitude": 8.8542,
          "distance_km": 6.75
        },
        {
          "code_insee": "2B134",
          "nom": "L'Île-Rousse",
          "slug": "l-ile-rousse",
          "code_postal": "20220",
          "population": 3231,
          "superficie_km2": 258.8,
          "latitude": 42.6344,
          "longitude": 8.9364,
          "distance_km": 7.14
        },
        {
          "code_insee": "2B173",
          "nom": "Muro",
          "slug": "muro",
          "code_postal": "20225",
          "population": 243,
          "superficie_km2": 792.92,
          "latitude": 42.5454,
          "longitude": 8.915,
          "distance_km": 8.08
        },
        {
          "code_insee": "2B168",
          "nom": "Monticello",
          "slug": "monticello",
          "code_postal": "20220",
          "population": 2065,
          "superficie_km2": 1065.72,
          "latitude": 42.6213,
          "longitude": 8.9613,
          "distance_km": 8.59
        },
        {
          "code_insee": "2B112",
          "nom": "Feliceto",
          "slug": "feliceto",
          "code_postal": "20225",
          "population": 232,
          "superficie_km2": 1527.84,
          "latitude": 42.5515,
          "longitude": 8.9415,
          "distance_km": 9.03
        },
        {
          "code_insee": "2B290",
          "nom": "Speloncato",
          "slug": "speloncato",
          "code_postal": "20226",
          "population": 261,
          "superficie_km2": 1763.89,
          "latitude": 42.5757,
          "longitude": 8.9731,
          "distance_km": 9.92
        },
        {
          "code_insee": "2B175",
          "nom": "Nessa",
          "slug": "nessa",
          "code_postal": "20225",
          "population": 122,
          "superficie_km2": 588.48,
          "latitude": 42.5517,
          "longitude": 8.9576,
          "distance_km": 10.04
        },
        {
          "code_insee": "2B050",
          "nom": "Calvi",
          "slug": "calvi",
          "code_postal": "20260",
          "population": 5788,
          "superficie_km2": 3150.42,
          "latitude": 42.5498,
          "longitude": 8.7611,
          "distance_km": 10.08
        },
        {
          "code_insee": "2B361",
          "nom": "Zilia",
          "slug": "zilia",
          "code_postal": "20214",
          "population": 320,
          "superficie_km2": 1398.42,
          "latitude": 42.5181,
          "longitude": 8.8989,
          "distance_km": 10.22
        },
        {
          "code_insee": "2B352",
          "nom": "Ville-di-Paraso",
          "slug": "ville-di-paraso",
          "code_postal": "20279",
          "population": 205,
          "superficie_km2": 943.46,
          "latitude": 42.5845,
          "longitude": 8.9917,
          "distance_km": 11.13
        },
        {
          "code_insee": "2B165",
          "nom": "Moncale",
          "slug": "moncale",
          "code_postal": "20214",
          "population": 348,
          "superficie_km2": 723.87,
          "latitude": 42.5024,
          "longitude": 8.8212,
          "distance_km": 11.83
        }
      ],
      "zonage_abc": "B1",
      "reclassement_abc": "Non",
      "codes_postaux": [
        {
          "code_postal": "20220",
          "libelle_acheminement": "ALGAJOLA"
        }
      ],
      "logement": {
        "logements_total": 761,
        "residences_principales": 200,
        "logements_vacants": 0,
        "residences_secondaires": 561,
        "maisons": 123,
        "appartements": 629,
        "proprietaires": 103,
        "locataires": 69,
        "hlm": 0,
        "construits_avant_1919": 4,
        "construits_1919_1945": 2,
        "construits_1946_1970": 42,
        "construits_1971_1990": 47,
        "construits_1991_2005": 50,
        "construits_2006_2019": 53,
        "chauffage_electrique": 182,
        "chauffage_fioul": 3,
        "chauffage_gaz_ville": 0,
        "chauffage_gaz_bouteille": 1,
        "chauffage_autre": 14,
        "menages": 200,
        "logements_avant_1990": 95
      },
      "artisans": {
        "monte_escalier": 0,
        "chauffage_pac_clim": 0,
        "isolation": 0,
        "menuiserie": 1,
        "fenetres_velux": 1,
        "couverture_toiture": 0,
        "facade_peinture": 0,
        "portes_volets": 1,
        "piscine": 0,
        "vmc_ventilation": 0,
        "assainissement": 0
      },
      "revenus": {
        "revenu_median": 22810.0,
        "part_menages_imposes": null,
        "taux_pauvrete": null
      },
      "aides_etat": {
        "zone_climatique": "H2",
        "qpv": false,
        "action_coeur_de_ville": false,
        "petites_villes_de_demain": false
      }
    },
    {
      "code_insee": "2B012",
      "nom": "Altiani",
      "nom_a": null,
      "nom_de": null,
      "slug": "altiani",
      "code_postal": "20251",
      "population": 53,
      "superficie_km2": 1848.11,
      "latitude": 42.2198,
      "longitude": 9.2766,
      "villes_proches": [
        {
          "code_insee": "2B116",
          "nom": "Focicchia",
          "slug": "focicchia",
          "code_postal": "20212",
          "population": 36,
          "superficie_km2": 723.34,
          "latitude": 42.2472,
          "longitude": 9.2856,
          "distance_km": 3.14
        },
        {
          "code_insee": "2B105",
          "nom": "Erbajolo",
          "slug": "erbajolo",
          "code_postal": "20212",
          "population": 90,
          "superficie_km2": 1559.9,
          "latitude": 42.252,
          "longitude": 9.2642,
          "distance_km": 3.72
        },
        {
          "code_insee": "2B218",
          "nom": "Piedicorte-di-Gaggio",
          "slug": "piedicorte-di-gaggio",
          "code_postal": "20251",
          "population": 114,
          "superficie_km2": 2735.68,
          "latitude": 42.2175,
          "longitude": 9.3223,
          "distance_km": 3.77
        },
        {
          "code_insee": "2B263",
          "nom": "Rospigliani",
          "slug": "rospigliani",
          "code_postal": "20242",
          "population": 70,
          "superficie_km2": 987.05,
          "latitude": 42.1922,
          "longitude": 9.2387,
          "distance_km": 4.38
        },
        {
          "code_insee": "2B177",
          "nom": "Noceta",
          "slug": "noceta",
          "code_postal": "20242",
          "population": 73,
          "superficie_km2": 1860.66,
          "latitude": 42.1966,
          "longitude": 9.21,
          "distance_km": 6.06
        },
        {
          "code_insee": "2B292",
          "nom": "Sant'Andréa-di-Bozio",
          "slug": "sant-andrea-di-bozio",
          "code_postal": "20212",
          "population": 55,
          "superficie_km2": 2404.5,
          "latitude": 42.2767,
          "longitude": 9.2792,
          "distance_km": 6.33
        },
        {
          "code_insee": "2B260",
          "nom": "Riventosa",
          "slug": "riventosa",
          "code_postal": "20250",
          "population": 145,
          "superficie_km2": 590.02,
          "latitude": 42.2484,
          "longitude": 9.2061,
          "distance_km": 6.62
        },
        {
          "code_insee": "2B226",
          "nom": "Pietraserena",
          "slug": "pietraserena",
          "code_postal": "20251",
          "population": 62,
          "superficie_km2": 675.38,
          "latitude": 42.2346,
          "longitude": 9.36,
          "distance_km": 7.06
        },
        {
          "code_insee": "2B364",
          "nom": "Zuani",
          "slug": "zuani",
          "code_postal": "20272",
          "population": 37,
          "superficie_km2": 517.92,
          "latitude": 42.2651,
          "longitude": 9.342,
          "distance_km": 7.37
        },
        {
          "code_insee": "2B015",
          "nom": "Ampriani",
          "slug": "ampriani",
          "code_postal": "20272",
          "population": 23,
          "superficie_km2": 230.61,
          "latitude": 42.2537,
          "longitude": 9.3566,
          "distance_km": 7.59
        },
        {
          "code_insee": "2B347",
          "nom": "Vezzani",
          "slug": "vezzani",
          "code_postal": "20242",
          "population": 269,
          "superficie_km2": 4626.25,
          "latitude": 42.1501,
          "longitude": 9.2936,
          "distance_km": 7.88
        },
        {
          "code_insee": "2B110",
          "nom": "Favalello",
          "slug": "favalello",
          "code_postal": "20212",
          "population": 71,
          "superficie_km2": 553.71,
          "latitude": 42.2886,
          "longitude": 9.2519,
          "distance_km": 7.92
        },
        {
          "code_insee": "2B238",
          "nom": "Poggio-di-Venaco",
          "slug": "poggio-di-venaco",
          "code_postal": "20250",
          "population": 211,
          "superficie_km2": 1331.2,
          "latitude": 42.269,
          "longitude": 9.2048,
          "distance_km": 8.05
        },
        {
          "code_insee": "2B171",
          "nom": "Muracciole",
          "slug": "muracciole",
          "code_postal": "20219",
          "population": 33,
          "superficie_km2": 1417.21,
          "latitude": 42.1701,
          "longitude": 9.1938,
          "distance_km": 8.78
        },
        {
          "code_insee": "2B005",
          "nom": "Alando",
          "slug": "alando",
          "code_postal": "20212",
          "population": 30,
          "superficie_km2": 306.14,
          "latitude": 42.3083,
          "longitude": 9.2899,
          "distance_km": 9.9
        },
        {
          "code_insee": "2B157",
          "nom": "Mazzola",
          "slug": "mazzola",
          "code_postal": "20212",
          "population": 22,
          "superficie_km2": 656.73,
          "latitude": 42.306,
          "longitude": 9.3251,
          "distance_km": 10.38
        },
        {
          "code_insee": "2B078",
          "nom": "Castellare-di-Mercurio",
          "slug": "castellare-di-mercurio",
          "code_postal": "20212",
          "population": 31,
          "superficie_km2": 612.17,
          "latitude": 42.3121,
          "longitude": 9.2439,
          "distance_km": 10.61
        },
        {
          "code_insee": "2B275",
          "nom": "Sermano",
          "slug": "sermano",
          "code_postal": "20212",
          "population": 72,
          "superficie_km2": 763.75,
          "latitude": 42.3155,
          "longitude": 9.2637,
          "distance_km": 10.69
        },
        {
          "code_insee": "2B013",
          "nom": "Alzi",
          "slug": "alzi",
          "code_postal": "20212",
          "population": 27,
          "superficie_km2": 269.7,
          "latitude": 42.3133,
          "longitude": 9.3175,
          "distance_km": 10.93
        },
        {
          "code_insee": "2B229",
          "nom": "Pietroso",
          "slug": "pietroso",
          "code_postal": "20242",
          "population": 334,
          "superficie_km2": 2590.41,
          "latitude": 42.1231,
          "longitude": 9.3123,
          "distance_km": 11.15
        }
      ],
      "zonage_abc": "B2",
      "reclassement_abc": "Non",
      "codes_postaux": [
        {
          "code_postal": "20251",
          "libelle_acheminement": "ALTIANI"
        }
      ],
      "logement": {
        "logements_total": 120,
        "residences_principales": 32,
        "logements_vacants": 4,
        "residences_secondaires": 84,
        "maisons": 111,
        "appartements": 9,
        "proprietaires": 26,
        "locataires": 5,
        "hlm": 0,
        "construits_avant_1919": 16,
        "construits_1919_1945": 0,
        "construits_1946_1970": 8,
        "construits_1971_1990": 4,
        "construits_1991_2005": 2,
        "construits_2006_2019": 2,
        "chauffage_electrique": 15,
        "chauffage_fioul": 1,
        "chauffage_gaz_ville": 0,
        "chauffage_gaz_bouteille": 0,
        "chauffage_autre": 16,
        "menages": 32,
        "logements_avant_1990": 28
      },
      "artisans": {
        "monte_escalier": 0,
        "chauffage_pac_clim": 0,
        "isolation": 0,
        "menuiserie": 0,
        "fenetres_velux": 0,
        "couverture_toiture": 0,
        "facade_peinture": 0,
        "portes_volets": 0,
        "piscine": 0,
        "vmc_ventilation": 0,
        "assainissement": 0
      },
      "revenus": {
        "revenu_median": null,
        "part_menages_imposes": null,
        "taux_pauvrete": null
      },
      "aides_etat": {
        "zone_climatique": "H2",
        "qpv": false,
        "action_coeur_de_ville": false,
        "petites_villes_de_demain": false
      }
    },
    {
      "code_insee": "2B013",
      "nom": "Alzi",
      "nom_a": null,
      "nom_de": null,
      "slug": "alzi",
      "code_postal": "20212",
      "population": 27,
      "superficie_km2": 269.7,
      "latitude": 42.3133,
      "longitude": 9.3175,
      "villes_proches": [
        {
          "code_insee": "2B157",
          "nom": "Mazzola",
          "slug": "mazzola",
          "code_postal": "20212",
          "population": 22,
          "superficie_km2": 656.73,
          "latitude": 42.306,
          "longitude": 9.3251,
          "distance_km": 1.02
        },
        {
          "code_insee": "2B045",
          "nom": "Bustanico",
          "slug": "bustanico",
          "code_postal": "20212",
          "population": 65,
          "superficie_km2": 1156.27,
          "latitude": 42.326,
          "longitude": 9.3112,
          "distance_km": 1.5
        },
        {
          "code_insee": "2B005",
          "nom": "Alando",
          "slug": "alando",
          "code_postal": "20212",
          "population": 30,
          "superficie_km2": 306.14,
          "latitude": 42.3083,
          "longitude": 9.2899,
          "distance_km": 2.34
        },
        {
          "code_insee": "2B213",
          "nom": "Pianello",
          "slug": "pianello",
          "code_postal": "20272",
          "population": 53,
          "superficie_km2": 1695.91,
          "latitude": 42.3004,
          "longitude": 9.3577,
          "distance_km": 3.6
        },
        {
          "code_insee": "2B068",
          "nom": "Carticasi",
          "slug": "carticasi",
          "code_postal": "20244",
          "population": 25,
          "superficie_km2": 1312.7,
          "latitude": 42.3485,
          "longitude": 9.3052,
          "distance_km": 4.04
        },
        {
          "code_insee": "2B275",
          "nom": "Sermano",
          "slug": "sermano",
          "code_postal": "20212",
          "population": 72,
          "superficie_km2": 763.75,
          "latitude": 42.3155,
          "longitude": 9.2637,
          "distance_km": 4.43
        },
        {
          "code_insee": "2B292",
          "nom": "Sant'Andréa-di-Bozio",
          "slug": "sant-andrea-di-bozio",
          "code_postal": "20212",
          "population": 55,
          "superficie_km2": 2404.5,
          "latitude": 42.2767,
          "longitude": 9.2792,
          "distance_km": 5.15
        },
        {
          "code_insee": "2B234",
          "nom": "Piobetta",
          "slug": "piobetta",
          "code_postal": "20234",
          "population": 20,
          "superficie_km2": 504.67,
          "latitude": 42.3409,
          "longitude": 9.3693,
          "distance_km": 5.25
        },
        {
          "code_insee": "2B227",
          "nom": "Pietricaggio",
          "slug": "pietricaggio",
          "code_postal": "20234",
          "population": 32,
          "superficie_km2": 532.08,
          "latitude": 42.3283,
          "longitude": 9.378,
          "distance_km": 5.25
        },
        {
          "code_insee": "2B221",
          "nom": "Piedipartino",
          "slug": "piedipartino",
          "code_postal": "20229",
          "population": 19,
          "superficie_km2": 330.17,
          "latitude": 42.3569,
          "longitude": 9.3483,
          "distance_km": 5.47
        },
        {
          "code_insee": "2B364",
          "nom": "Zuani",
          "slug": "zuani",
          "code_postal": "20272",
          "population": 37,
          "superficie_km2": 517.92,
          "latitude": 42.2651,
          "longitude": 9.342,
          "distance_km": 5.73
        },
        {
          "code_insee": "2B208",
          "nom": "Perelli",
          "slug": "perelli",
          "code_postal": "20234",
          "population": 109,
          "superficie_km2": 620.14,
          "latitude": 42.3145,
          "longitude": 9.3876,
          "distance_km": 5.77
        },
        {
          "code_insee": "2B063",
          "nom": "Carcheto-Brustico",
          "slug": "carcheto-brustico",
          "code_postal": "20229",
          "population": 57,
          "superficie_km2": 520.93,
          "latitude": 42.3554,
          "longitude": 9.3593,
          "distance_km": 5.81
        },
        {
          "code_insee": "2B110",
          "nom": "Favalello",
          "slug": "favalello",
          "code_postal": "20212",
          "population": 71,
          "superficie_km2": 553.71,
          "latitude": 42.2886,
          "longitude": 9.2519,
          "distance_km": 6.05
        },
        {
          "code_insee": "2B078",
          "nom": "Castellare-di-Mercurio",
          "slug": "castellare-di-mercurio",
          "code_postal": "20212",
          "population": 31,
          "superficie_km2": 612.17,
          "latitude": 42.3121,
          "longitude": 9.2439,
          "distance_km": 6.05
        },
        {
          "code_insee": "2B051",
          "nom": "Cambia",
          "slug": "cambia",
          "code_postal": "20244",
          "population": 61,
          "superficie_km2": 835.47,
          "latitude": 42.367,
          "longitude": 9.303,
          "distance_km": 6.09
        },
        {
          "code_insee": "2B264",
          "nom": "Rusio",
          "slug": "rusio",
          "code_postal": "20244",
          "population": 65,
          "superficie_km2": 861.58,
          "latitude": 42.3501,
          "longitude": 9.2572,
          "distance_km": 6.43
        },
        {
          "code_insee": "2B222",
          "nom": "Pie-d'Orezza",
          "slug": "pie-d-orezza",
          "code_postal": "20229",
          "population": 35,
          "superficie_km2": 577.56,
          "latitude": 42.3756,
          "longitude": 9.3404,
          "distance_km": 7.18
        },
        {
          "code_insee": "2B015",
          "nom": "Ampriani",
          "slug": "ampriani",
          "code_postal": "20272",
          "population": 23,
          "superficie_km2": 230.61,
          "latitude": 42.2537,
          "longitude": 9.3566,
          "distance_km": 7.37
        },
        {
          "code_insee": "2B116",
          "nom": "Focicchia",
          "slug": "focicchia",
          "code_postal": "20212",
          "population": 36,
          "superficie_km2": 723.34,
          "latitude": 42.2472,
          "longitude": 9.2856,
          "distance_km": 7.8
        }
      ],
      "zonage_abc": "B2",
      "reclassement_abc": "Non",
      "codes_postaux": [
        {
          "code_postal": "20212",
          "libelle_acheminement": "ALZI"
        }
      ],
      "logement": {
        "logements_total": 19,
        "residences_principales": 14,
        "logements_vacants": 0,
        "residences_secondaires": 5,
        "maisons": 13,
        "appartements": 5,
        "proprietaires": 7,
        "locataires": 6,
        "hlm": 0,
        "construits_avant_1919": 9,
        "construits_1919_1945": 1,
        "construits_1946_1970": 1,
        "construits_1971_1990": 0,
        "construits_1991_2005": 0,
        "construits_2006_2019": 1,
        "chauffage_electrique": 5,
        "chauffage_fioul": 0,
        "chauffage_gaz_ville": 0,
        "chauffage_gaz_bouteille": 0,
        "chauffage_autre": 8,
        "menages": 14,
        "logements_avant_1990": 11
      },
      "artisans": {
        "monte_escalier": 0,
        "chauffage_pac_clim": 0,
        "isolation": 0,
        "menuiserie": 0,
        "fenetres_velux": 0,
        "couverture_toiture": 0,
        "facade_peinture": 0,
        "portes_volets": 0,
        "piscine": 0,
        "vmc_ventilation": 0,
        "assainissement": 1
      },
      "revenus": {
        "revenu_median": null,
        "part_menages_imposes": null,
        "taux_pauvrete": null
      },
      "aides_etat": {
        "zone_climatique": "H2",
        "qpv": false,
        "action_coeur_de_ville": false,
        "petites_villes_de_demain": false
      }
    },
    {
      "code_insee": "2B009",
      "nom": "Aléria",
      "nom_a": null,
      "nom_de": null,
      "slug": "aleria",
      "code_postal": "20270",
      "population": 2211,
      "superficie_km2": 64.0,
      "latitude": 42.105999,
      "longitude": 9.4960003,
      "villes_proches": [
        {
          "code_insee": "2B123",
          "nom": "Ghisonaccia",
          "slug": "ghisonaccia",
          "code_postal": "20240",
          "population": 4248,
          "superficie_km2": 76.0,
          "latitude": 42.0439987,
          "longitude": 9.4230003,
          "distance_km": 9.16
        },
        {
          "code_insee": "2B143",
          "nom": "Linguizzetta",
          "slug": "linguizzetta",
          "code_postal": "20230",
          "population": 1103,
          "superficie_km2": 65.0,
          "latitude": 42.2179985,
          "longitude": 9.5100002,
          "distance_km": 12.51
        },
        {
          "code_insee": "2B251",
          "nom": "Prunelli-di-Fiumorbo",
          "slug": "prunelli-di-fiumorbo",
          "code_postal": "20243",
          "population": 3737,
          "superficie_km2": 38.0,
          "latitude": 42.007,
          "longitude": 9.368,
          "distance_km": 15.26
        },
        {
          "code_insee": "2B342",
          "nom": "Ventiseri",
          "slug": "ventiseri",
          "code_postal": "20240",
          "population": 2556,
          "superficie_km2": 47.0,
          "latitude": 41.9410019,
          "longitude": 9.3629999,
          "distance_km": 21.38
        },
        {
          "code_insee": "2B087",
          "nom": "Cervione",
          "slug": "cervione",
          "code_postal": "20221",
          "population": 2172,
          "superficie_km2": 11.0,
          "latitude": 42.3209992,
          "longitude": 9.5150003,
          "distance_km": 23.96
        },
        {
          "code_insee": "2B313",
          "nom": "San-Nicolao",
          "slug": "san-nicolao",
          "code_postal": "20230",
          "population": 2033,
          "superficie_km2": 8.0,
          "latitude": 42.368,
          "longitude": 9.5100002,
          "distance_km": 29.16
        },
        {
          "code_insee": "2B307",
          "nom": "Santa-Lucia-di-Moriani",
          "slug": "santa-lucia-di-moriani",
          "code_postal": "20230",
          "population": 1523,
          "superficie_km2": 6.0,
          "latitude": 42.3839989,
          "longitude": 9.5109997,
          "distance_km": 30.94
        },
        {
          "code_insee": "2A269",
          "nom": "Sari-Solenzara",
          "slug": "sari-solenzara",
          "code_postal": "20145",
          "population": 1429,
          "superficie_km2": 75.0,
          "latitude": 41.8129997,
          "longitude": 9.3520002,
          "distance_km": 34.69
        },
        {
          "code_insee": "2B096",
          "nom": "Corte",
          "slug": "corte",
          "code_postal": "20250",
          "population": 7654,
          "superficie_km2": 149.0,
          "latitude": 42.2700005,
          "longitude": 9.0830002,
          "distance_km": 38.61
        },
        {
          "code_insee": "2B207",
          "nom": "Penta-di-Casinca",
          "slug": "penta-di-casinca",
          "code_postal": "20213",
          "population": 3376,
          "superficie_km2": 19.0,
          "latitude": 42.4550018,
          "longitude": 9.4960003,
          "distance_km": 38.81
        },
        {
          "code_insee": "2A092",
          "nom": "Conca",
          "slug": "conca",
          "code_postal": "20135",
          "population": 1159,
          "superficie_km2": 78.0,
          "latitude": 41.7529984,
          "longitude": 9.3299999,
          "distance_km": 41.58
        },
        {
          "code_insee": "2B343",
          "nom": "Venzolasca",
          "slug": "venzolasca",
          "code_postal": "20215",
          "population": 1808,
          "superficie_km2": 17.0,
          "latitude": 42.5009995,
          "longitude": 9.493,
          "distance_km": 43.92
        },
        {
          "code_insee": "2B346",
          "nom": "Vescovato",
          "slug": "vescovato",
          "code_postal": "20215",
          "population": 3212,
          "superficie_km2": 18.0,
          "latitude": 42.5159988,
          "longitude": 9.4729996,
          "distance_km": 45.63
        },
        {
          "code_insee": "2A362",
          "nom": "Zonza",
          "slug": "zonza",
          "code_postal": "20144",
          "population": 2748,
          "superficie_km2": 135.0,
          "latitude": 41.7210007,
          "longitude": 9.2659998,
          "distance_km": 46.85
        },
        {
          "code_insee": "2B148",
          "nom": "Lucciana",
          "slug": "lucciana",
          "code_postal": "20290",
          "population": 6091,
          "superficie_km2": 29.0,
          "latitude": 42.5410004,
          "longitude": 9.4729996,
          "distance_km": 48.41
        },
        {
          "code_insee": "2A209",
          "nom": "Peri",
          "slug": "peri",
          "code_postal": "20167",
          "population": 2040,
          "superficie_km2": 24.0,
          "latitude": 42.0040016,
          "longitude": 8.9119997,
          "distance_km": 49.53
        },
        {
          "code_insee": "2A139",
          "nom": "Lecci",
          "slug": "lecci",
          "code_postal": "20137",
          "population": 1939,
          "superficie_km2": 27.0,
          "latitude": 41.6660004,
          "longitude": 9.3190002,
          "distance_km": 51.07
        },
        {
          "code_insee": "2A300",
          "nom": "San-Gavino-di-Carbini",
          "slug": "san-gavino-di-carbini",
          "code_postal": "20170",
          "population": 1120,
          "superficie_km2": 48.0,
          "latitude": 41.6809998,
          "longitude": 9.2329998,
          "distance_km": 52.03
        },
        {
          "code_insee": "2B042",
          "nom": "Borgo",
          "slug": "borgo",
          "code_postal": "20290",
          "population": 9678,
          "superficie_km2": 48.0,
          "latitude": 42.5740013,
          "longitude": 9.4569998,
          "distance_km": 52.14
        },
        {
          "code_insee": "2A103",
          "nom": "Cuttoli-Corticchiato",
          "slug": "cuttoli-corticchiato",
          "code_postal": "20167",
          "population": 2030,
          "superficie_km2": 31.0,
          "latitude": 41.9770012,
          "longitude": 8.8839998,
          "distance_km": 52.53
        }
      ],
      "zonage_abc": "B2",
      "reclassement_abc": "Non",
      "codes_postaux": [
        {
          "code_postal": "20270",
          "libelle_acheminement": "ALERIA"
        }
      ],
      "logement": {
        "logements_total": 1414,
        "residences_principales": 980,
        "logements_vacants": 58,
        "residences_secondaires": 375,
        "maisons": 860,
        "appartements": 546,
        "proprietaires": 463,
        "locataires": 445,
        "hlm": 69,
        "construits_avant_1919": 28,
        "construits_1919_1945": 15,
        "construits_1946_1970": 121,
        "construits_1971_1990": 338,
        "construits_1991_2005": 175,
        "construits_2006_2019": 240,
        "chauffage_electrique": 783,
        "chauffage_fioul": 9,
        "chauffage_gaz_ville": 5,
        "chauffage_gaz_bouteille": 20,
        "chauffage_autre": 160,
        "menages": 980,
        "logements_avant_1990": 502
      },
      "artisans": {
        "monte_escalier": 0,
        "chauffage_pac_clim": 11,
        "isolation": 1,
        "menuiserie": 6,
        "fenetres_velux": 6,
        "couverture_toiture": 0,
        "facade_peinture": 3,
        "portes_volets": 6,
        "piscine": 3,
        "vmc_ventilation": 5,
        "assainissement": 9
      },
      "revenus": {
        "revenu_median": 18450.0,
        "part_menages_imposes": null,
        "taux_pauvrete": null
      },
      "aides_etat": {
        "zone_climatique": "H2",
        "qpv": false,
        "action_coeur_de_ville": false,
        "petites_villes_de_demain": false
      }
    },
    {
      "code_insee": "2B015",
      "nom": "Ampriani",
      "nom_a": null,
      "nom_de": null,
      "slug": "ampriani",
      "code_postal": "20272",
      "population": 23,
      "superficie_km2": 230.61,
      "latitude": 42.2537,
      "longitude": 9.3566,
      "villes_proches": [
        {
          "code_insee": "2B364",
          "nom": "Zuani",
          "slug": "zuani",
          "code_postal": "20272",
          "population": 37,
          "superficie_km2": 517.92,
          "latitude": 42.2651,
          "longitude": 9.342,
          "distance_km": 1.75
        },
        {
          "code_insee": "2B226",
          "nom": "Pietraserena",
          "slug": "pietraserena",
          "code_postal": "20251",
          "population": 62,
          "superficie_km2": 675.38,
          "latitude": 42.2346,
          "longitude": 9.36,
          "distance_km": 2.14
        },
        {
          "code_insee": "2B356",
          "nom": "Zalana",
          "slug": "zalana",
          "code_postal": "20272",
          "population": 153,
          "superficie_km2": 1321.22,
          "latitude": 42.253,
          "longitude": 9.3837,
          "distance_km": 2.23
        },
        {
          "code_insee": "2B155",
          "nom": "Matra",
          "slug": "matra",
          "code_postal": "20270",
          "population": 54,
          "superficie_km2": 651.09,
          "latitude": 42.2823,
          "longitude": 9.3866,
          "distance_km": 4.03
        },
        {
          "code_insee": "2B218",
          "nom": "Piedicorte-di-Gaggio",
          "slug": "piedicorte-di-gaggio",
          "code_postal": "20251",
          "population": 114,
          "superficie_km2": 2735.68,
          "latitude": 42.2175,
          "longitude": 9.3223,
          "distance_km": 4.92
        },
        {
          "code_insee": "2B213",
          "nom": "Pianello",
          "slug": "pianello",
          "code_postal": "20272",
          "population": 53,
          "superficie_km2": 1695.91,
          "latitude": 42.3004,
          "longitude": 9.3577,
          "distance_km": 5.19
        },
        {
          "code_insee": "2B161",
          "nom": "Moïta",
          "slug": "moita",
          "code_postal": "20270",
          "population": 59,
          "superficie_km2": 570.07,
          "latitude": 42.2802,
          "longitude": 9.4136,
          "distance_km": 5.54
        },
        {
          "code_insee": "2B053",
          "nom": "Campi",
          "slug": "campi",
          "code_postal": "20270",
          "population": 19,
          "superficie_km2": 486.42,
          "latitude": 42.268,
          "longitude": 9.424,
          "distance_km": 5.77
        },
        {
          "code_insee": "2B116",
          "nom": "Focicchia",
          "slug": "focicchia",
          "code_postal": "20212",
          "population": 36,
          "superficie_km2": 723.34,
          "latitude": 42.2472,
          "longitude": 9.2856,
          "distance_km": 5.89
        },
        {
          "code_insee": "2B157",
          "nom": "Mazzola",
          "slug": "mazzola",
          "code_postal": "20212",
          "population": 22,
          "superficie_km2": 656.73,
          "latitude": 42.306,
          "longitude": 9.3251,
          "distance_km": 6.37
        },
        {
          "code_insee": "2B292",
          "nom": "Sant'Andréa-di-Bozio",
          "slug": "sant-andrea-di-bozio",
          "code_postal": "20212",
          "population": 55,
          "superficie_km2": 2404.5,
          "latitude": 42.2767,
          "longitude": 9.2792,
          "distance_km": 6.86
        },
        {
          "code_insee": "2B179",
          "nom": "Novale",
          "slug": "novale",
          "code_postal": "20234",
          "population": 57,
          "superficie_km2": 493.32,
          "latitude": 42.3034,
          "longitude": 9.411,
          "distance_km": 7.11
        },
        {
          "code_insee": "2B208",
          "nom": "Perelli",
          "slug": "perelli",
          "code_postal": "20234",
          "population": 109,
          "superficie_km2": 620.14,
          "latitude": 42.3145,
          "longitude": 9.3876,
          "distance_km": 7.23
        },
        {
          "code_insee": "2B013",
          "nom": "Alzi",
          "slug": "alzi",
          "code_postal": "20212",
          "population": 27,
          "superficie_km2": 269.7,
          "latitude": 42.3133,
          "longitude": 9.3175,
          "distance_km": 7.37
        },
        {
          "code_insee": "2B005",
          "nom": "Alando",
          "slug": "alando",
          "code_postal": "20212",
          "population": 30,
          "superficie_km2": 306.14,
          "latitude": 42.3083,
          "longitude": 9.2899,
          "distance_km": 8.18
        },
        {
          "code_insee": "2B216",
          "nom": "Piazzali",
          "slug": "piazzali",
          "code_postal": "20234",
          "population": 19,
          "superficie_km2": 82.86,
          "latitude": 42.3196,
          "longitude": 9.4046,
          "distance_km": 8.32
        },
        {
          "code_insee": "2B201",
          "nom": "Pancheraccia",
          "slug": "pancheraccia",
          "code_postal": "20251",
          "population": 198,
          "superficie_km2": 1449.7,
          "latitude": 42.1891,
          "longitude": 9.4093,
          "distance_km": 8.39
        },
        {
          "code_insee": "2B227",
          "nom": "Pietricaggio",
          "slug": "pietricaggio",
          "code_postal": "20234",
          "population": 32,
          "superficie_km2": 532.08,
          "latitude": 42.3283,
          "longitude": 9.378,
          "distance_km": 8.48
        },
        {
          "code_insee": "2B126",
          "nom": "Giuncaggio",
          "slug": "giuncaggio",
          "code_postal": "20251",
          "population": 91,
          "superficie_km2": 1604.92,
          "latitude": 42.1829,
          "longitude": 9.398,
          "distance_km": 8.58
        },
        {
          "code_insee": "2B045",
          "nom": "Bustanico",
          "slug": "bustanico",
          "code_postal": "20212",
          "population": 65,
          "superficie_km2": 1156.27,
          "latitude": 42.326,
          "longitude": 9.3112,
          "distance_km": 8.86
        }
      ],
      "zonage_abc": "B2",
      "reclassement_abc": "Non",
      "codes_postaux": [
        {
          "code_postal": "20272",
          "libelle_acheminement": "AMPRIANI"
        }
      ],
      "logement": {
        "logements_total": 21,
        "residences_principales": 11,
        "logements_vacants": 3,
        "residences_secondaires": 7,
        "maisons": 21,
        "appartements": 0,
        "proprietaires": 5,
        "locataires": 2,
        "hlm": 0,
        "construits_avant_1919": 6,
        "construits_1919_1945": 0,
        "construits_1946_1970": 0,
        "construits_1971_1990": 0,
        "construits_1991_2005": 3,
        "construits_2006_2019": 0,
        "chauffage_electrique": 1,
        "chauffage_fioul": 0,
        "chauffage_gaz_ville": 0,
        "chauffage_gaz_bouteille": 0,
        "chauffage_autre": 9,
        "menages": 11,
        "logements_avant_1990": 6
      },
      "artisans": {
        "monte_escalier": 0,
        "chauffage_pac_clim": 0,
        "isolation": 0,
        "menuiserie": 0,
        "fenetres_velux": 0,
        "couverture_toiture": 0,
        "facade_peinture": 0,
        "portes_volets": 0,
        "piscine": 0,
        "vmc_ventilation": 0,
        "assainissement": 0
      },
      "revenus": {
        "revenu_median": null,
        "part_menages_imposes": null,
        "taux_pauvrete": null
      },
      "aides_etat": {
        "zone_climatique": "H2",
        "qpv": false,
        "action_coeur_de_ville": false,
        "petites_villes_de_demain": false
      }
    },
    {
      "code_insee": "2B016",
      "nom": "Antisanti",
      "nom_a": null,
      "nom_de": null,
      "slug": "antisanti",
      "code_postal": "20270",
      "population": 591,
      "superficie_km2": 4813.03,
      "latitude": 42.157,
      "longitude": 9.3861,
      "villes_proches": [
        {
          "code_insee": "2B075",
          "nom": "Casevecchie",
          "slug": "casevecchie",
          "code_postal": "20270",
          "population": 69,
          "superficie_km2": 902.09,
          "latitude": 42.1368,
          "longitude": 9.3678,
          "distance_km": 2.71
        },
        {
          "code_insee": "2B126",
          "nom": "Giuncaggio",
          "slug": "giuncaggio",
          "code_postal": "20251",
          "population": 91,
          "superficie_km2": 1604.92,
          "latitude": 42.1829,
          "longitude": 9.398,
          "distance_km": 3.04
        },
        {
          "code_insee": "2B201",
          "nom": "Pancheraccia",
          "slug": "pancheraccia",
          "code_postal": "20251",
          "population": 198,
          "superficie_km2": 1449.7,
          "latitude": 42.1891,
          "longitude": 9.4093,
          "distance_km": 4.05
        },
        {
          "code_insee": "2B229",
          "nom": "Pietroso",
          "slug": "pietroso",
          "code_postal": "20242",
          "population": 334,
          "superficie_km2": 2590.41,
          "latitude": 42.1231,
          "longitude": 9.3123,
          "distance_km": 7.16
        },
        {
          "code_insee": "2B002",
          "nom": "Aghione",
          "slug": "aghione",
          "code_postal": "20270",
          "population": 258,
          "superficie_km2": 3387.15,
          "latitude": 42.0934,
          "longitude": 9.4064,
          "distance_km": 7.27
        },
        {
          "code_insee": "2B347",
          "nom": "Vezzani",
          "slug": "vezzani",
          "code_postal": "20242",
          "population": 269,
          "superficie_km2": 4626.25,
          "latitude": 42.1501,
          "longitude": 9.2936,
          "distance_km": 7.66
        },
        {
          "code_insee": "2B320",
          "nom": "Tallone",
          "slug": "tallone",
          "code_postal": "20270",
          "population": 288,
          "superficie_km2": 6996.06,
          "latitude": 42.1897,
          "longitude": 9.4697,
          "distance_km": 7.79
        },
        {
          "code_insee": "2B218",
          "nom": "Piedicorte-di-Gaggio",
          "slug": "piedicorte-di-gaggio",
          "code_postal": "20251",
          "population": 114,
          "superficie_km2": 2735.68,
          "latitude": 42.2175,
          "longitude": 9.3223,
          "distance_km": 8.54
        },
        {
          "code_insee": "2B226",
          "nom": "Pietraserena",
          "slug": "pietraserena",
          "code_postal": "20251",
          "population": 62,
          "superficie_km2": 675.38,
          "latitude": 42.2346,
          "longitude": 9.36,
          "distance_km": 8.89
        },
        {
          "code_insee": "2B356",
          "nom": "Zalana",
          "slug": "zalana",
          "code_postal": "20272",
          "population": 153,
          "superficie_km2": 1321.22,
          "latitude": 42.253,
          "longitude": 9.3837,
          "distance_km": 10.68
        },
        {
          "code_insee": "2B149",
          "nom": "Lugo-di-Nazza",
          "slug": "lugo-di-nazza",
          "code_postal": "20240",
          "population": 85,
          "superficie_km2": 2534.49,
          "latitude": 42.0722,
          "longitude": 9.3225,
          "distance_km": 10.79
        },
        {
          "code_insee": "2B328",
          "nom": "Tox",
          "slug": "tox",
          "code_postal": "20270",
          "population": 96,
          "superficie_km2": 1457.18,
          "latitude": 42.2454,
          "longitude": 9.4436,
          "distance_km": 10.91
        },
        {
          "code_insee": "2B015",
          "nom": "Ampriani",
          "slug": "ampriani",
          "code_postal": "20272",
          "population": 23,
          "superficie_km2": 230.61,
          "latitude": 42.2537,
          "longitude": 9.3566,
          "distance_km": 11.02
        },
        {
          "code_insee": "2B009",
          "nom": "Aléria",
          "slug": "aleria",
          "code_postal": "20270",
          "population": 2267,
          "superficie_km2": 6311.61,
          "latitude": 42.0993,
          "longitude": 9.4972,
          "distance_km": 11.19
        },
        {
          "code_insee": "2B012",
          "nom": "Altiani",
          "slug": "altiani",
          "code_postal": "20251",
          "population": 53,
          "superficie_km2": 1848.11,
          "latitude": 42.2198,
          "longitude": 9.2766,
          "distance_km": 11.41
        },
        {
          "code_insee": "2B364",
          "nom": "Zuani",
          "slug": "zuani",
          "code_postal": "20272",
          "population": 37,
          "superficie_km2": 517.92,
          "latitude": 42.2651,
          "longitude": 9.342,
          "distance_km": 12.56
        },
        {
          "code_insee": "2B123",
          "nom": "Ghisonaccia",
          "slug": "ghisonaccia",
          "code_postal": "20240",
          "population": 4405,
          "superficie_km2": 7605.57,
          "latitude": 42.0454,
          "longitude": 9.4192,
          "distance_km": 12.71
        },
        {
          "code_insee": "2B053",
          "nom": "Campi",
          "slug": "campi",
          "code_postal": "20270",
          "population": 19,
          "superficie_km2": 486.42,
          "latitude": 42.268,
          "longitude": 9.424,
          "distance_km": 12.73
        },
        {
          "code_insee": "2B161",
          "nom": "Moïta",
          "slug": "moita",
          "code_postal": "20270",
          "population": 59,
          "superficie_km2": 570.07,
          "latitude": 42.2802,
          "longitude": 9.4136,
          "distance_km": 13.89
        },
        {
          "code_insee": "2B155",
          "nom": "Matra",
          "slug": "matra",
          "code_postal": "20270",
          "population": 54,
          "superficie_km2": 651.09,
          "latitude": 42.2823,
          "longitude": 9.3866,
          "distance_km": 13.93
        }
      ],
      "zonage_abc": "B2",
      "reclassement_abc": "Non",
      "codes_postaux": [
        {
          "code_postal": "20270",
          "libelle_acheminement": "ANTISANTI"
        }
      ],
      "logement": {
        "logements_total": 343,
        "residences_principales": 241,
        "logements_vacants": 18,
        "residences_secondaires": 82,
        "maisons": 277,
        "appartements": 47,
        "proprietaires": 160,
        "locataires": 64,
        "hlm": 0,
        "construits_avant_1919": 34,
        "construits_1919_1945": 13,
        "construits_1946_1970": 43,
        "construits_1971_1990": 67,
        "construits_1991_2005": 39,
        "construits_2006_2019": 35,
        "chauffage_electrique": 147,
        "chauffage_fioul": 8,
        "chauffage_gaz_ville": 0,
        "chauffage_gaz_bouteille": 8,
        "chauffage_autre": 76,
        "menages": 241,
        "logements_avant_1990": 157
      },
      "artisans": {
        "monte_escalier": 0,
        "chauffage_pac_clim": 1,
        "isolation": 0,
        "menuiserie": 0,
        "fenetres_velux": 0,
        "couverture_toiture": 0,
        "facade_peinture": 1,
        "portes_volets": 0,
        "piscine": 2,
        "vmc_ventilation": 0,
        "assainissement": 1
      },
      "revenus": {
        "revenu_median": 22120.0,
        "part_menages_imposes": null,
        "taux_pauvrete": null
      },
      "aides_etat": {
        "zone_climatique": "H2",
        "qpv": false,
        "action_coeur_de_ville": false,
        "petites_villes_de_demain": false
      }
    },
    {
      "code_insee": "2B020",
      "nom": "Aregno",
      "nom_a": null,
      "nom_de": null,
      "slug": "aregno",
      "code_postal": "20220",
      "population": 588,
      "superficie_km2": 929.69,
      "latitude": 42.5943,
      "longitude": 8.8765,
      "villes_proches": [
        {
          "code_insee": "2B010",
          "nom": "Algajola",
          "slug": "algajola",
          "code_postal": "20220",
          "population": 363,
          "superficie_km2": 168.72,
          "latitude": 42.6051,
          "longitude": 8.8587,
          "distance_km": 1.89
        },
        {
          "code_insee": "2B231",
          "nom": "Pigna",
          "slug": "pigna",
          "code_postal": "20220",
          "population": 128,
          "superficie_km2": 221.12,
          "latitude": 42.6003,
          "longitude": 8.9,
          "distance_km": 2.04
        },
        {
          "code_insee": "2B138",
          "nom": "Lavatoggio",
          "slug": "lavatoggio",
          "code_postal": "20225",
          "population": 154,
          "superficie_km2": 684.5,
          "latitude": 42.5754,
          "longitude": 8.8624,
          "distance_km": 2.4
        },
        {
          "code_insee": "2B296",
          "nom": "Sant'Antonino",
          "slug": "sant-antonino",
          "code_postal": "20220",
          "population": 127,
          "superficie_km2": 411.83,
          "latitude": 42.5861,
          "longitude": 8.9095,
          "distance_km": 2.85
        },
        {
          "code_insee": "2B084",
          "nom": "Cateri",
          "slug": "cateri",
          "code_postal": "20225",
          "population": 247,
          "superficie_km2": 321.43,
          "latitude": 42.5678,
          "longitude": 8.897,
          "distance_km": 3.39
        },
        {
          "code_insee": "2B093",
          "nom": "Corbara",
          "slug": "corbara",
          "code_postal": "20220",
          "population": 962,
          "superficie_km2": 1012.32,
          "latitude": 42.6197,
          "longitude": 8.8995,
          "distance_km": 3.39
        },
        {
          "code_insee": "2B025",
          "nom": "Avapessa",
          "slug": "avapessa",
          "code_postal": "20225",
          "population": 80,
          "superficie_km2": 325.13,
          "latitude": 42.5592,
          "longitude": 8.8962,
          "distance_km": 4.22
        },
        {
          "code_insee": "2B150",
          "nom": "Lumio",
          "slug": "lumio",
          "code_postal": "20260",
          "population": 1224,
          "superficie_km2": 1947.07,
          "latitude": 42.5801,
          "longitude": 8.8262,
          "distance_km": 4.41
        },
        {
          "code_insee": "2B316",
          "nom": "Santa-Reparata-di-Balagna",
          "slug": "santa-reparata-di-balagna",
          "code_postal": "20220",
          "population": 1024,
          "superficie_km2": 1013.82,
          "latitude": 42.6038,
          "longitude": 8.9332,
          "distance_km": 4.76
        },
        {
          "code_insee": "2B167",
          "nom": "Montegrosso",
          "slug": "montegrosso",
          "code_postal": "20214",
          "population": 413,
          "superficie_km2": 2286.31,
          "latitude": 42.5445,
          "longitude": 8.8542,
          "distance_km": 5.83
        },
        {
          "code_insee": "2B173",
          "nom": "Muro",
          "slug": "muro",
          "code_postal": "20225",
          "population": 243,
          "superficie_km2": 792.92,
          "latitude": 42.5454,
          "longitude": 8.915,
          "distance_km": 6.29
        },
        {
          "code_insee": "2B134",
          "nom": "L'Île-Rousse",
          "slug": "l-ile-rousse",
          "code_postal": "20220",
          "population": 3231,
          "superficie_km2": 258.8,
          "latitude": 42.6344,
          "longitude": 8.9364,
          "distance_km": 6.63
        },
        {
          "code_insee": "2B112",
          "nom": "Feliceto",
          "slug": "feliceto",
          "code_postal": "20225",
          "population": 232,
          "superficie_km2": 1527.84,
          "latitude": 42.5515,
          "longitude": 8.9415,
          "distance_km": 7.14
        },
        {
          "code_insee": "2B168",
          "nom": "Monticello",
          "slug": "monticello",
          "code_postal": "20220",
          "population": 2065,
          "superficie_km2": 1065.72,
          "latitude": 42.6213,
          "longitude": 8.9613,
          "distance_km": 7.56
        },
        {
          "code_insee": "2B175",
          "nom": "Nessa",
          "slug": "nessa",
          "code_postal": "20225",
          "population": 122,
          "superficie_km2": 588.48,
          "latitude": 42.5517,
          "longitude": 8.9576,
          "distance_km": 8.16
        },
        {
          "code_insee": "2B290",
          "nom": "Speloncato",
          "slug": "speloncato",
          "code_postal": "20226",
          "population": 261,
          "superficie_km2": 1763.89,
          "latitude": 42.5757,
          "longitude": 8.9731,
          "distance_km": 8.17
        },
        {
          "code_insee": "2B361",
          "nom": "Zilia",
          "slug": "zilia",
          "code_postal": "20214",
          "population": 320,
          "superficie_km2": 1398.42,
          "latitude": 42.5181,
          "longitude": 8.8989,
          "distance_km": 8.67
        },
        {
          "code_insee": "2B352",
          "nom": "Ville-di-Paraso",
          "slug": "ville-di-paraso",
          "code_postal": "20279",
          "population": 205,
          "superficie_km2": 943.46,
          "latitude": 42.5845,
          "longitude": 8.9917,
          "distance_km": 9.49
        },
        {
          "code_insee": "2B235",
          "nom": "Pioggiola",
          "slug": "pioggiola",
          "code_postal": "20259",
          "population": 87,
          "superficie_km2": 1863.42,
          "latitude": 42.5251,
          "longitude": 8.9696,
          "distance_km": 10.83
        },
        {
          "code_insee": "2B165",
          "nom": "Moncale",
          "slug": "moncale",
          "code_postal": "20214",
          "population": 348,
          "superficie_km2": 723.87,
          "latitude": 42.5024,
          "longitude": 8.8212,
          "distance_km": 11.18
        }
      ],
      "zonage_abc": "B1",
      "reclassement_abc": "Non",
      "codes_postaux": [
        {
          "code_postal": "20220",
          "libelle_acheminement": "AREGNO"
        }
      ],
      "logement": {
        "logements_total": 643,
        "residences_principales": 309,
        "logements_vacants": 19,
        "residences_secondaires": 315,
        "maisons": 332,
        "appartements": 305,
        "proprietaires": 188,
        "locataires": 100,
        "hlm": 22,
        "construits_avant_1919": 46,
        "construits_1919_1945": 24,
        "construits_1946_1970": 30,
        "construits_1971_1990": 105,
        "construits_1991_2005": 61,
        "construits_2006_2019": 40,
        "chauffage_electrique": 238,
        "chauffage_fioul": 3,
        "chauffage_gaz_ville": 3,
        "chauffage_gaz_bouteille": 1,
        "chauffage_autre": 64,
        "menages": 309,
        "logements_avant_1990": 205
      },
      "artisans": {
        "monte_escalier": 0,
        "chauffage_pac_clim": 3,
        "isolation": 0,
        "menuiserie": 0,
        "fenetres_velux": 0,
        "couverture_toiture": 0,
        "facade_peinture": 0,
        "portes_volets": 0,
        "piscine": 0,
        "vmc_ventilation": 1,
        "assainissement": 3
      },
      "revenus": {
        "revenu_median": 20300.0,
        "part_menages_imposes": null,
        "taux_pauvrete": null
      },
      "aides_etat": {
        "zone_climatique": "H2",
        "qpv": false,
        "action_coeur_de_ville": false,
        "petites_villes_de_demain": false
      }
    },
    {
      "code_insee": "2B023",
      "nom": "Asco",
      "nom_a": null,
      "nom_de": null,
      "slug": "asco",
      "code_postal": "20276",
      "population": 116,
      "superficie_km2": 12385.08,
      "latitude": 42.4386,
      "longitude": 8.9924,
      "villes_proches": [
        {
          "code_insee": "2B156",
          "nom": "Mausoléo",
          "slug": "mausoleo",
          "code_postal": "20259",
          "population": 24,
          "superficie_km2": 1942.99,
          "latitude": 42.498,
          "longitude": 8.968,
          "distance_km": 6.9
        },
        {
          "code_insee": "2B147",
          "nom": "Lozzi",
          "slug": "lozzi",
          "code_postal": "20224",
          "population": 110,
          "superficie_km2": 3062.29,
          "latitude": 42.3624,
          "longitude": 8.9773,
          "distance_km": 8.56
        },
        {
          "code_insee": "2B095",
          "nom": "Corscia",
          "slug": "corscia",
          "code_postal": "20224",
          "population": 123,
          "superficie_km2": 5894.89,
          "latitude": 42.3627,
          "longitude": 9.0453,
          "distance_km": 9.49
        },
        {
          "code_insee": "2B190",
          "nom": "Olmi-Cappella",
          "slug": "olmi-cappella",
          "code_postal": "20259",
          "population": 190,
          "superficie_km2": 5116.35,
          "latitude": 42.5231,
          "longitude": 9.0107,
          "distance_km": 9.52
        },
        {
          "code_insee": "2B235",
          "nom": "Pioggiola",
          "slug": "pioggiola",
          "code_postal": "20259",
          "population": 87,
          "superficie_km2": 1863.42,
          "latitude": 42.5251,
          "longitude": 8.9696,
          "distance_km": 9.8
        },
        {
          "code_insee": "2B339",
          "nom": "Vallica",
          "slug": "vallica",
          "code_postal": "20259",
          "population": 29,
          "superficie_km2": 1210.25,
          "latitude": 42.5167,
          "longitude": 9.0582,
          "distance_km": 10.22
        },
        {
          "code_insee": "2B081",
          "nom": "Castiglione",
          "slug": "castiglione",
          "code_postal": "20218",
          "population": 40,
          "superficie_km2": 2315.46,
          "latitude": 42.4084,
          "longitude": 9.1129,
          "distance_km": 10.45
        },
        {
          "code_insee": "2B162",
          "nom": "Moltifao",
          "slug": "moltifao",
          "code_postal": "20218",
          "population": 735,
          "superficie_km2": 5552.73,
          "latitude": 42.469,
          "longitude": 9.1248,
          "distance_km": 11.38
        },
        {
          "code_insee": "2B244",
          "nom": "Popolasca",
          "slug": "popolasca",
          "code_postal": "20218",
          "population": 41,
          "superficie_km2": 1045.99,
          "latitude": 42.4379,
          "longitude": 9.1328,
          "distance_km": 11.52
        },
        {
          "code_insee": "2B361",
          "nom": "Zilia",
          "slug": "zilia",
          "code_postal": "20214",
          "population": 320,
          "superficie_km2": 1398.42,
          "latitude": 42.5181,
          "longitude": 8.8989,
          "distance_km": 11.7
        },
        {
          "code_insee": "2B175",
          "nom": "Nessa",
          "slug": "nessa",
          "code_postal": "20225",
          "population": 122,
          "superficie_km2": 588.48,
          "latitude": 42.5517,
          "longitude": 8.9576,
          "distance_km": 12.9
        },
        {
          "code_insee": "2B047",
          "nom": "Calacuccia",
          "slug": "calacuccia",
          "code_postal": "20224",
          "population": 272,
          "superficie_km2": 1820.87,
          "latitude": 42.3242,
          "longitude": 9.0345,
          "distance_km": 13.18
        },
        {
          "code_insee": "2B112",
          "nom": "Feliceto",
          "slug": "feliceto",
          "code_postal": "20225",
          "population": 232,
          "superficie_km2": 1527.84,
          "latitude": 42.5515,
          "longitude": 8.9415,
          "distance_km": 13.23
        },
        {
          "code_insee": "2B173",
          "nom": "Muro",
          "slug": "muro",
          "code_postal": "20225",
          "population": 243,
          "superficie_km2": 792.92,
          "latitude": 42.5454,
          "longitude": 8.915,
          "distance_km": 13.46
        },
        {
          "code_insee": "2B083",
          "nom": "Castirla",
          "slug": "castirla",
          "code_postal": "20236",
          "population": 166,
          "superficie_km2": 2449.01,
          "latitude": 42.3666,
          "longitude": 9.1246,
          "distance_km": 13.49
        },
        {
          "code_insee": "2B007",
          "nom": "Albertacce",
          "slug": "albertacce",
          "code_postal": "20224",
          "population": 196,
          "superficie_km2": 9694.91,
          "latitude": 42.3145,
          "longitude": 8.9277,
          "distance_km": 14.79
        },
        {
          "code_insee": "2B097",
          "nom": "Costa",
          "slug": "costa",
          "code_postal": "20226",
          "population": 49,
          "superficie_km2": 107.01,
          "latitude": 42.5764,
          "longitude": 8.9986,
          "distance_km": 15.33
        },
        {
          "code_insee": "2B290",
          "nom": "Speloncato",
          "slug": "speloncato",
          "code_postal": "20226",
          "population": 261,
          "superficie_km2": 1763.89,
          "latitude": 42.5757,
          "longitude": 8.9731,
          "distance_km": 15.33
        },
        {
          "code_insee": "2B025",
          "nom": "Avapessa",
          "slug": "avapessa",
          "code_postal": "20225",
          "population": 80,
          "superficie_km2": 325.13,
          "latitude": 42.5592,
          "longitude": 8.8962,
          "distance_km": 15.56
        },
        {
          "code_insee": "2B352",
          "nom": "Ville-di-Paraso",
          "slug": "ville-di-paraso",
          "code_postal": "20279",
          "population": 205,
          "superficie_km2": 943.46,
          "latitude": 42.5845,
          "longitude": 8.9917,
          "distance_km": 16.22
        }
      ],
      "zonage_abc": "B2",
      "reclassement_abc": "Non",
      "codes_postaux": [
        {
          "code_postal": "20276",
          "libelle_acheminement": "ASCO"
        }
      ],
      "logement": {
        "logements_total": 211,
        "residences_principales": 66,
        "logements_vacants": 1,
        "residences_secondaires": 144,
        "maisons": 196,
        "appartements": 15,
        "proprietaires": 51,
        "locataires": 5,
        "hlm": 0,
        "construits_avant_1919": 22,
        "construits_1919_1945": 22,
        "construits_1946_1970": 7,
        "construits_1971_1990": 9,
        "construits_1991_2005": 4,
        "construits_2006_2019": 2,
        "chauffage_electrique": 47,
        "chauffage_fioul": 4,
        "chauffage_gaz_ville": 0,
        "chauffage_gaz_bouteille": 0,
        "chauffage_autre": 15,
        "menages": 66,
        "logements_avant_1990": 60
      },
      "artisans": {
        "monte_escalier": 0,
        "chauffage_pac_clim": 1,
        "isolation": 0,
        "menuiserie": 0,
        "fenetres_velux": 0,
        "couverture_toiture": 0,
        "facade_peinture": 0,
        "portes_volets": 0,
        "piscine": 0,
        "vmc_ventilation": 1,
        "assainissement": 0
      },
      "revenus": {
        "revenu_median": null,
        "part_menages_imposes": null,
        "taux_pauvrete": null
      },
      "aides_etat": {
        "zone_climatique": "H2",
        "qpv": false,
        "action_coeur_de_ville": false,
        "petites_villes_de_demain": false
      }
    },
    {
      "code_insee": "2B025",
      "nom": "Avapessa",
      "nom_a": null,
      "nom_de": null,
      "slug": "avapessa",
      "code_postal": "20225",
      "population": 80,
      "superficie_km2": 325.13,
      "latitude": 42.5592,
      "longitude": 8.8962,
      "villes_proches": [
        {
          "code_insee": "2B084",
          "nom": "Cateri",
          "slug": "cateri",
          "code_postal": "20225",
          "population": 247,
          "superficie_km2": 321.43,
          "latitude": 42.5678,
          "longitude": 8.897,
          "distance_km": 0.96
        },
        {
          "code_insee": "2B173",
          "nom": "Muro",
          "slug": "muro",
          "code_postal": "20225",
          "population": 243,
          "superficie_km2": 792.92,
          "latitude": 42.5454,
          "longitude": 8.915,
          "distance_km": 2.17
        },
        {
          "code_insee": "2B296",
          "nom": "Sant'Antonino",
          "slug": "sant-antonino",
          "code_postal": "20220",
          "population": 127,
          "superficie_km2": 411.83,
          "latitude": 42.5861,
          "longitude": 8.9095,
          "distance_km": 3.18
        },
        {
          "code_insee": "2B138",
          "nom": "Lavatoggio",
          "slug": "lavatoggio",
          "code_postal": "20225",
          "population": 154,
          "superficie_km2": 684.5,
          "latitude": 42.5754,
          "longitude": 8.8624,
          "distance_km": 3.3
        },
        {
          "code_insee": "2B167",
          "nom": "Montegrosso",
          "slug": "montegrosso",
          "code_postal": "20214",
          "population": 413,
          "superficie_km2": 2286.31,
          "latitude": 42.5445,
          "longitude": 8.8542,
          "distance_km": 3.81
        },
        {
          "code_insee": "2B112",
          "nom": "Feliceto",
          "slug": "feliceto",
          "code_postal": "20225",
          "population": 232,
          "superficie_km2": 1527.84,
          "latitude": 42.5515,
          "longitude": 8.9415,
          "distance_km": 3.81
        },
        {
          "code_insee": "2B020",
          "nom": "Aregno",
          "slug": "aregno",
          "code_postal": "20220",
          "population": 588,
          "superficie_km2": 929.69,
          "latitude": 42.5943,
          "longitude": 8.8765,
          "distance_km": 4.22
        },
        {
          "code_insee": "2B361",
          "nom": "Zilia",
          "slug": "zilia",
          "code_postal": "20214",
          "population": 320,
          "superficie_km2": 1398.42,
          "latitude": 42.5181,
          "longitude": 8.8989,
          "distance_km": 4.58
        },
        {
          "code_insee": "2B231",
          "nom": "Pigna",
          "slug": "pigna",
          "code_postal": "20220",
          "population": 128,
          "superficie_km2": 221.12,
          "latitude": 42.6003,
          "longitude": 8.9,
          "distance_km": 4.58
        },
        {
          "code_insee": "2B175",
          "nom": "Nessa",
          "slug": "nessa",
          "code_postal": "20225",
          "population": 122,
          "superficie_km2": 588.48,
          "latitude": 42.5517,
          "longitude": 8.9576,
          "distance_km": 5.1
        },