{
  "departement": {
    "code": "36",
    "nom": "Indre",
    "slug": "indre",
    "population_totale": 216689
  },
  "region": {
    "id": 5,
    "code": "04",
    "nom": "Centre-Val de Loire",
    "slug": "centre-val-de-loire"
  },
  "voisins": [
    {
      "dep_code": "18",
      "dep_nom": "Cher",
      "dep_slug": "cher"
    },
    {
      "dep_code": "28",
      "dep_nom": "Eure-et-Loir",
      "dep_slug": "eure-et-loir"
    },
    {
      "dep_code": "37",
      "dep_nom": "Indre-et-Loire",
      "dep_slug": "indre-et-loire"
    },
    {
      "dep_code": "41",
      "dep_nom": "Loir-et-Cher",
      "dep_slug": "loir-et-cher"
    }
  ],
  "communes_count": 241,
  "communes": [
    {
      "code_insee": "36001",
      "nom": "Aigurande",
      "nom_a": null,
      "nom_de": null,
      "slug": "aigurande",
      "code_postal": "36140",
      "population": 1359,
      "superficie_km2": 28.0,
      "latitude": 46.4560013,
      "longitude": 1.84,
      "villes_proches": [
        {
          "code_insee": "36109",
          "nom": "Le Magny",
          "slug": "le-magny",
          "code_postal": "36400",
          "population": 1025,
          "superficie_km2": 18.0,
          "latitude": 46.5569992,
          "longitude": 1.959,
          "distance_km": 14.46
        },
        {
          "code_insee": "36141",
          "nom": "Neuvy-Saint-Sépulchre",
          "slug": "neuvy-saint-sepulchre",
          "code_postal": "36230",
          "population": 1648,
          "superficie_km2": 35.0,
          "latitude": 46.5919991,
          "longitude": 1.813,
          "distance_km": 15.26
        },
        {
          "code_insee": "23025",
          "nom": "Bonnat",
          "slug": "bonnat",
          "code_postal": "23220",
          "population": 1352,
          "superficie_km2": 46.0,
          "latitude": 46.3230019,
          "longitude": 1.914,
          "distance_km": 15.84
        },
        {
          "code_insee": "36046",
          "nom": "La Châtre",
          "slug": "la-chatre",
          "code_postal": "36400",
          "population": 4034,
          "superficie_km2": 6.0,
          "latitude": 46.5740013,
          "longitude": 1.9910001,
          "distance_km": 17.48
        },
        {
          "code_insee": "36127",
          "nom": "Montgivray",
          "slug": "montgivray",
          "code_postal": "36400",
          "population": 1556,
          "superficie_km2": 26.0,
          "latitude": 46.5960007,
          "longitude": 1.966,
          "distance_km": 18.31
        },
        {
          "code_insee": "36070",
          "nom": "Éguzon-Chantôme",
          "slug": "eguzon-chantome",
          "code_postal": "36270",
          "population": 1317,
          "superficie_km2": 36.0,
          "latitude": 46.4339981,
          "longitude": 1.569,
          "distance_km": 20.91
        },
        {
          "code_insee": "23075",
          "nom": "Dun-le-Palestel",
          "slug": "dun-le-palestel",
          "code_postal": "23800",
          "population": 1091,
          "superficie_km2": 10.0,
          "latitude": 46.3030014,
          "longitude": 1.6619999,
          "distance_km": 21.81
        },
        {
          "code_insee": "23036",
          "nom": "Bussière-Dunoise",
          "slug": "bussiere-dunoise",
          "code_postal": "23320",
          "population": 1040,
          "superficie_km2": 42.0,
          "latitude": 46.2560005,
          "longitude": 1.76,
          "distance_km": 23.07
        },
        {
          "code_insee": "36154",
          "nom": "Le Pêchereau",
          "slug": "le-pechereau",
          "code_postal": "36200",
          "population": 1817,
          "superficie_km2": 21.0,
          "latitude": 46.5849991,
          "longitude": 1.5700001,
          "distance_km": 25.15
        },
        {
          "code_insee": "23195",
          "nom": "Saint-Fiel",
          "slug": "saint-fiel",
          "code_postal": "23000",
          "population": 1061,
          "superficie_km2": 17.0,
          "latitude": 46.2130013,
          "longitude": 1.895,
          "distance_km": 27.35
        },
        {
          "code_insee": "36009",
          "nom": "Arthon",
          "slug": "arthon",
          "code_postal": "36330",
          "population": 1219,
          "superficie_km2": 48.0,
          "latitude": 46.6930008,
          "longitude": 1.711,
          "distance_km": 28.14
        },
        {
          "code_insee": "23245",
          "nom": "Saint-Sulpice-le-Guérétois",
          "slug": "saint-sulpice-le-gueretois",
          "code_postal": "23000",
          "population": 1911,
          "superficie_km2": 36.0,
          "latitude": 46.2019997,
          "longitude": 1.8279999,
          "distance_km": 28.26
        },
        {
          "code_insee": "23247",
          "nom": "Saint-Vaury",
          "slug": "saint-vaury",
          "code_postal": "23320",
          "population": 1732,
          "superficie_km2": 47.0,
          "latitude": 46.2000008,
          "longitude": 1.749,
          "distance_km": 29.31
        },
        {
          "code_insee": "36200",
          "nom": "Saint-Marcel",
          "slug": "saint-marcel",
          "code_postal": "36200",
          "population": 1509,
          "superficie_km2": 18.0,
          "latitude": 46.6080017,
          "longitude": 1.524,
          "distance_km": 29.5
        },
        {
          "code_insee": "23002",
          "nom": "Ajain",
          "slug": "ajain",
          "code_postal": "23380",
          "population": 1032,
          "superficie_km2": 33.0,
          "latitude": 46.2109985,
          "longitude": 1.9960001,
          "distance_km": 29.76
        },
        {
          "code_insee": "36006",
          "nom": "Argenton-sur-Creuse",
          "slug": "argenton-sur-creuse",
          "code_postal": "36200",
          "population": 4848,
          "superficie_km2": 29.0,
          "latitude": 46.5789986,
          "longitude": 1.493,
          "distance_km": 29.87
        },
        {
          "code_insee": "18057",
          "nom": "Châteaumeillant",
          "slug": "chateaumeillant",
          "code_postal": "18370",
          "population": 1703,
          "superficie_km2": 42.0,
          "latitude": 46.5550003,
          "longitude": 2.207,
          "distance_km": 30.17
        },
        {
          "code_insee": "36005",
          "nom": "Ardentes",
          "slug": "ardentes",
          "code_postal": "36120",
          "population": 3778,
          "superficie_km2": 63.0,
          "latitude": 46.7360001,
          "longitude": 1.824,
          "distance_km": 31.16
        },
        {
          "code_insee": "23031",
          "nom": "Boussac",
          "slug": "boussac",
          "code_postal": "23600",
          "population": 1242,
          "superficie_km2": 2.0,
          "latitude": 46.3479996,
          "longitude": 2.2230001,
          "distance_km": 31.73
        },
        {
          "code_insee": "23177",
          "nom": "Saint-Agnant-de-Versillat",
          "slug": "saint-agnant-de-versillat",
          "code_postal": "23300",
          "population": 1079,
          "superficie_km2": 51.0,
          "latitude": 46.2809982,
          "longitude": 1.506,
          "distance_km": 32.18
        }
      ],
      "zonage_abc": "C",
      "reclassement_abc": "Non",
      "codes_postaux": [
        {
          "code_postal": "36140",
          "libelle_acheminement": "AIGURANDE"
        }
      ],
      "logement": {
        "logements_total": 1059,
        "residences_principales": 726,
        "logements_vacants": 193,
        "residences_secondaires": 140,
        "maisons": 908,
        "appartements": 147,
        "proprietaires": 529,
        "locataires": 175,
        "hlm": 71,
        "construits_avant_1919": 184,
        "construits_1919_1945": 90,
        "construits_1946_1970": 143,
        "construits_1971_1990": 203,
        "construits_1991_2005": 72,
        "construits_2006_2019": 29,
        "chauffage_electrique": 172,
        "chauffage_fioul": 152,
        "chauffage_gaz_ville": 208,
        "chauffage_gaz_bouteille": 7,
        "chauffage_autre": 187,
        "menages": 726,
        "logements_avant_1990": 620
      },
      "artisans": {
        "monte_escalier": 0,
        "chauffage_pac_clim": 3,
        "isolation": 1,
        "menuiserie": 3,
        "fenetres_velux": 3,
        "couverture_toiture": 1,
        "facade_peinture": 1,
        "portes_volets": 3,
        "piscine": 2,
        "vmc_ventilation": 2,
        "assainissement": 2
      },
      "revenus": {
        "revenu_median": 19430.0,
        "part_menages_imposes": null,
        "taux_pauvrete": null
      },
      "aides_etat": {
        "zone_climatique": "H2",
        "qpv": false,
        "action_coeur_de_ville": false,
        "petites_villes_de_demain": true
      }
    },
    {
      "code_insee": "36002",
      "nom": "Aize",
      "nom_a": null,
      "nom_de": null,
      "slug": "aize",
      "code_postal": "36150",
      "population": 114,
      "superficie_km2": 1712.21,
      "latitude": 47.1048,
      "longitude": 1.7061,
      "villes_proches": [
        {
          "code_insee": "36029",
          "nom": "Buxeuil",
          "slug": "buxeuil",
          "code_postal": "36150",
          "population": 214,
          "superficie_km2": 1978.71,
          "latitude": 47.1273,
          "longitude": 1.6973,
          "distance_km": 2.59
        },
        {
          "code_insee": "36085",
          "nom": "Guilly",
          "slug": "guilly",
          "code_postal": "36150",
          "population": 234,
          "superficie_km2": 2087.95,
          "latitude": 47.0909,
          "longitude": 1.7346,
          "distance_km": 2.65
        },
        {
          "code_insee": "36175",
          "nom": "Rouvres-les-Bois",
          "slug": "rouvres-les-bois",
          "code_postal": "36110",
          "population": 281,
          "superficie_km2": 3101.67,
          "latitude": 47.0763,
          "longitude": 1.6596,
          "distance_km": 4.74
        },
        {
          "code_insee": "36191",
          "nom": "Saint-Florentin",
          "slug": "saint-florentin",
          "code_postal": "36150",
          "population": 497,
          "superficie_km2": 1633.33,
          "latitude": 47.1008,
          "longitude": 1.7802,
          "distance_km": 5.63
        },
        {
          "code_insee": "36162",
          "nom": "Poulaines",
          "slug": "poulaines",
          "code_postal": "36210",
          "population": 816,
          "superficie_km2": 4654.02,
          "latitude": 47.1445,
          "longitude": 1.6567,
          "distance_km": 5.78
        },
        {
          "code_insee": "36075",
          "nom": "Fontenay",
          "slug": "fontenay",
          "code_postal": "36150",
          "population": 71,
          "superficie_km2": 1245.16,
          "latitude": 47.0557,
          "longitude": 1.739,
          "distance_km": 6.0
        },
        {
          "code_insee": "36147",
          "nom": "Orville",
          "slug": "orville",
          "code_postal": "36210",
          "population": 137,
          "superficie_km2": 929.72,
          "latitude": 47.1457,
          "longitude": 1.7777,
          "distance_km": 7.07
        },
        {
          "code_insee": "36170",
          "nom": "Reboursin",
          "slug": "reboursin",
          "code_postal": "36150",
          "population": 102,
          "superficie_km2": 1288.74,
          "latitude": 47.108,
          "longitude": 1.8101,
          "distance_km": 7.88
        },
        {
          "code_insee": "36011",
          "nom": "Bagneux",
          "slug": "bagneux",
          "code_postal": "36210",
          "population": 172,
          "superficie_km2": 2529.15,
          "latitude": 47.1704,
          "longitude": 1.7588,
          "distance_km": 8.31
        },
        {
          "code_insee": "36041",
          "nom": "La Chapelle-Saint-Laurian",
          "slug": "la-chapelle-saint-laurian",
          "code_postal": "36150",
          "population": 135,
          "superficie_km2": 992.76,
          "latitude": 47.052,
          "longitude": 1.7853,
          "distance_km": 8.39
        },
        {
          "code_insee": "36023",
          "nom": "Bouges-le-Château",
          "slug": "bouges-le-chateau",
          "code_postal": "36110",
          "population": 261,
          "superficie_km2": 3490.32,
          "latitude": 47.032,
          "longitude": 1.6686,
          "distance_km": 8.58
        },
        {
          "code_insee": "18228",
          "nom": "Saint-Outrille",
          "slug": "saint-outrille",
          "code_postal": "18310",
          "population": 214,
          "superficie_km2": 1261.09,
          "latitude": 47.1414,
          "longitude": 1.8095,
          "distance_km": 8.82
        },
        {
          "code_insee": "36185",
          "nom": "Saint-Christophe-en-Bazelle",
          "slug": "saint-christophe-en-bazelle",
          "code_postal": "36210",
          "population": 355,
          "superficie_km2": 1393.87,
          "latitude": 47.1853,
          "longitude": 1.7164,
          "distance_km": 8.99
        },
        {
          "code_insee": "36230",
          "nom": "Vatan",
          "slug": "vatan",
          "code_postal": "36150",
          "population": 1994,
          "superficie_km2": 2997.51,
          "latitude": 47.0531,
          "longitude": 1.825,
          "distance_km": 10.68
        },
        {
          "code_insee": "36097",
          "nom": "Liniez",
          "slug": "liniez",
          "code_postal": "36150",
          "population": 328,
          "superficie_km2": 2705.72,
          "latitude": 47.0152,
          "longitude": 1.7591,
          "distance_km": 10.74
        },
        {
          "code_insee": "36024",
          "nom": "Bretagne",
          "slug": "bretagne",
          "code_postal": "36110",
          "population": 125,
          "superficie_km2": 1838.92,
          "latitude": 46.9995,
          "longitude": 1.6989,
          "distance_km": 11.72
        },
        {
          "code_insee": "36217",
          "nom": "Sembleçay",
          "slug": "semblecay",
          "code_postal": "36210",
          "population": 100,
          "superficie_km2": 816.82,
          "latitude": 47.2156,
          "longitude": 1.695,
          "distance_km": 12.35
        },
        {
          "code_insee": "36229",
          "nom": "Val-Fouzon",
          "slug": "val-fouzon",
          "code_postal": "36210",
          "population": 968,
          "superficie_km2": 4705.14,
          "latitude": 47.2063,
          "longitude": 1.6249,
          "distance_km": 12.85
        },
        {
          "code_insee": "36068",
          "nom": "Dun-le-Poëlier",
          "slug": "dun-le-poelier",
          "code_postal": "36210",
          "population": 445,
          "superficie_km2": 2258.14,
          "latitude": 47.2197,
          "longitude": 1.7479,
          "distance_km": 13.16
        },
        {
          "code_insee": "36115",
          "nom": "Menetou-sur-Nahon",
          "slug": "menetou-sur-nahon",
          "code_postal": "36210",
          "population": 132,
          "superficie_km2": 697.98,
          "latitude": 47.2265,
          "longitude": 1.6373,
          "distance_km": 14.5
        }
      ],
      "zonage_abc": "C",
      "reclassement_abc": "Non",
      "codes_postaux": [
        {
          "code_postal": "36150",
          "libelle_acheminement": "AIZE"
        }
      ],
      "logement": {
        "logements_total": 115,
        "residences_principales": 63,
        "logements_vacants": 19,
        "residences_secondaires": 31,
        "maisons": 114,
        "appartements": 0,
        "proprietaires": 58,
        "locataires": 2,
        "hlm": 0,
        "construits_avant_1919": 40,
        "construits_1919_1945": 8,
        "construits_1946_1970": 4,
        "construits_1971_1990": 4,
        "construits_1991_2005": 1,
        "construits_2006_2019": 2,
        "chauffage_electrique": 20,
        "chauffage_fioul": 4,
        "chauffage_gaz_ville": 0,
        "chauffage_gaz_bouteille": 1,
        "chauffage_autre": 36,
        "menages": 63,
        "logements_avant_1990": 56
      },
      "artisans": {
        "monte_escalier": 0,
        "chauffage_pac_clim": 0,
        "isolation": 0,
        "menuiserie": 0,
        "fenetres_velux": 0,
        "couverture_toiture": 0,
        "facade_peinture": 0,
        "portes_volets": 0,
        "piscine": 0,
        "vmc_ventilation": 0,
        "assainissement": 0
      },
      "revenus": {
        "revenu_median": 17560.0,
        "part_menages_imposes": null,
        "taux_pauvrete": null
      },
      "aides_etat": {
        "zone_climatique": "H2",
        "qpv": false,
        "action_coeur_de_ville": false,
        "petites_villes_de_demain": false
      }
    },
    {
      "code_insee": "36003",
      "nom": "Ambrault",
      "nom_a": null,
      "nom_de": null,
      "slug": "ambrault",
      "code_postal": "36120",
      "population": 884,
      "superficie_km2": 2556.37,
      "latitude": 46.786,
      "longitude": 1.9496,
      "villes_proches": [
        {
          "code_insee": "36019",
          "nom": "Bommiers",
          "slug": "bommiers",
          "code_postal": "36120",
          "population": 321,
          "superficie_km2": 2855.55,
          "latitude": 46.7765,
          "longitude": 2.0013,
          "distance_km": 4.08
        },
        {
          "code_insee": "36248",
          "nom": "Vouillon",
          "slug": "vouillon",
          "code_postal": "36100",
          "population": 220,
          "superficie_km2": 1507.93,
          "latitude": 46.8194,
          "longitude": 1.9124,
          "distance_km": 4.67
        },
        {
          "code_insee": "36211",
          "nom": "Sassierges-Saint-Germain",
          "slug": "sassierges-saint-germain",
          "code_postal": "36120",
          "population": 448,
          "superficie_km2": 3189.59,
          "latitude": 46.7466,
          "longitude": 1.8908,
          "distance_km": 6.27
        },
        {
          "code_insee": "36112",
          "nom": "Mâron",
          "slug": "maron",
          "code_postal": "36120",
          "population": 735,
          "superficie_km2": 2819.53,
          "latitude": 46.7992,
          "longitude": 1.8655,
          "distance_km": 6.57
        },
        {
          "code_insee": "36180",
          "nom": "Saint-Août",
          "slug": "saint-aout",
          "code_postal": "36120",
          "population": 811,
          "superficie_km2": 5422.57,
          "latitude": 46.7278,
          "longitude": 1.9669,
          "distance_km": 6.6
        },
        {
          "code_insee": "36121",
          "nom": "Meunet-Planches",
          "slug": "meunet-planches",
          "code_postal": "36100",
          "population": 166,
          "superficie_km2": 2691.85,
          "latitude": 46.8496,
          "longitude": 1.9816,
          "distance_km": 7.48
        },
        {
          "code_insee": "36027",
          "nom": "Brives",
          "slug": "brives",
          "code_postal": "36100",
          "population": 237,
          "superficie_km2": 1980.81,
          "latitude": 46.8564,
          "longitude": 1.92,
          "distance_km": 8.15
        },
        {
          "code_insee": "36169",
          "nom": "Pruniers",
          "slug": "pruniers",
          "code_postal": "36120",
          "population": 496,
          "superficie_km2": 4917.52,
          "latitude": 46.7824,
          "longitude": 2.0636,
          "distance_km": 8.69
        },
        {
          "code_insee": "36190",
          "nom": "Sainte-Fauste",
          "slug": "sainte-fauste",
          "code_postal": "36100",
          "population": 256,
          "superficie_km2": 2327.76,
          "latitude": 46.8587,
          "longitude": 1.8692,
          "distance_km": 10.14
        },
        {
          "code_insee": "36059",
          "nom": "Condé",
          "slug": "conde",
          "code_postal": "36100",
          "population": 226,
          "superficie_km2": 2406.53,
          "latitude": 46.8809,
          "longitude": 1.9817,
          "distance_km": 10.83
        },
        {
          "code_insee": "36181",
          "nom": "Saint-Aubin",
          "slug": "saint-aubin",
          "code_postal": "36100",
          "population": 148,
          "superficie_km2": 2860.14,
          "latitude": 46.8678,
          "longitude": 2.0356,
          "distance_km": 11.2
        },
        {
          "code_insee": "36005",
          "nom": "Ardentes",
          "slug": "ardentes",
          "code_postal": "36120",
          "population": 3715,
          "superficie_km2": 6268.36,
          "latitude": 46.7373,
          "longitude": 1.8151,
          "distance_km": 11.59
        },
        {
          "code_insee": "36017",
          "nom": "La Berthenoux",
          "slug": "la-berthenoux",
          "code_postal": "36400",
          "population": 361,
          "superficie_km2": 4010.54,
          "latitude": 46.7001,
          "longitude": 2.0531,
          "distance_km": 12.39
        },
        {
          "code_insee": "36222",
          "nom": "Thizay",
          "slug": "thizay",
          "code_postal": "36100",
          "population": 227,
          "superficie_km2": 1678.18,
          "latitude": 46.8999,
          "longitude": 1.9284,
          "distance_km": 12.77
        },
        {
          "code_insee": "36184",
          "nom": "Saint-Chartier",
          "slug": "saint-chartier",
          "code_postal": "36400",
          "population": 458,
          "superficie_km2": 2803.29,
          "latitude": 46.6722,
          "longitude": 1.98,
          "distance_km": 12.86
        },
        {
          "code_insee": "36120",
          "nom": "Mers-sur-Indre",
          "slug": "mers-sur-indre",
          "code_postal": "36230",
          "population": 659,
          "superficie_km2": 2582.06,
          "latitude": 46.6689,
          "longitude": 1.8693,
          "distance_km": 14.39
        },
        {
          "code_insee": "36140",
          "nom": "Neuvy-Pailloux",
          "slug": "neuvy-pailloux",
          "code_postal": "36100",
          "population": 1159,
          "superficie_km2": 4206.71,
          "latitude": 46.903,
          "longitude": 1.8668,
          "distance_km": 14.45
        },
        {
          "code_insee": "36129",
          "nom": "Montipouret",
          "slug": "montipouret",
          "code_postal": "36230",
          "population": 616,
          "superficie_km2": 2785.69,
          "latitude": 46.6578,
          "longitude": 1.9093,
          "distance_km": 14.58
        },
        {
          "code_insee": "36234",
          "nom": "Verneuil-sur-Igneraie",
          "slug": "verneuil-sur-igneraie",
          "code_postal": "36400",
          "population": 344,
          "superficie_km2": 994.14,
          "latitude": 46.6591,
          "longitude": 2.0137,
          "distance_km": 14.93
        },
        {
          "code_insee": "36143",
          "nom": "Nohant-Vic",
          "slug": "nohant-vic",
          "code_postal": "36400",
          "population": 450,
          "superficie_km2": 2148.2,
          "latitude": 46.6504,
          "longitude": 1.9617,
          "distance_km": 15.11
        }
      ],
      "zonage_abc": "C",
      "reclassement_abc": "Non",
      "codes_postaux": [
        {
          "code_postal": "36120",
          "libelle_acheminement": "AMBRAULT"
        }
      ],
      "logement": {
        "logements_total": 442,
        "residences_principales": 367,
        "logements_vacants": 27,
        "residences_secondaires": 47,
        "maisons": 425,
        "appartements": 14,
        "proprietaires": 310,
        "locataires": 54,
        "hlm": 19,
        "construits_avant_1919": 111,
        "construits_1919_1945": 48,
        "construits_1946_1970": 42,
        "construits_1971_1990": 69,
        "construits_1991_2005": 57,
        "construits_2006_2019": 39,
        "chauffage_electrique": 164,
        "chauffage_fioul": 59,
        "chauffage_gaz_ville": 3,
        "chauffage_gaz_bouteille": 20,
        "chauffage_autre": 121,
        "menages": 367,
        "logements_avant_1990": 270
      },
      "artisans": {
        "monte_escalier": 0,
        "chauffage_pac_clim": 2,
        "isolation": 0,
        "menuiserie": 1,
        "fenetres_velux": 1,
        "couverture_toiture": 0,
        "facade_peinture": 1,
        "portes_volets": 1,
        "piscine": 1,
        "vmc_ventilation": 2,
        "assainissement": 1
      },
      "revenus": {
        "revenu_median": 20940.0,
        "part_menages_imposes": null,
        "taux_pauvrete": null
      },
      "aides_etat": {
        "zone_climatique": "H2",
        "qpv": false,
        "action_coeur_de_ville": false,
        "petites_villes_de_demain": false
      }
    },
    {
      "code_insee": "36004",
      "nom": "Anjouin",
      "nom_a": null,
      "nom_de": null,
      "slug": "anjouin",
      "code_postal": "36210",
      "population": 313,
      "superficie_km2": 2883.76,
      "latitude": 47.202,
      "longitude": 1.8077,
      "villes_proches": [
        {
          "code_insee": "36068",
          "nom": "Dun-le-Poëlier",
          "slug": "dun-le-poelier",
          "code_postal": "36210",
          "population": 445,
          "superficie_km2": 2258.14,
          "latitude": 47.2197,
          "longitude": 1.7479,
          "distance_km": 4.93
        },
        {
          "code_insee": "36011",
          "nom": "Bagneux",
          "slug": "bagneux",
          "code_postal": "36210",
          "population": 172,
          "superficie_km2": 2529.15,
          "latitude": 47.1704,
          "longitude": 1.7588,
          "distance_km": 5.1
        },
        {
          "code_insee": "41122",
          "nom": "Maray",
          "slug": "maray",
          "code_postal": "41320",
          "population": 221,
          "superficie_km2": 2851.22,
          "latitude": 47.2352,
          "longitude": 1.8654,
          "distance_km": 5.71
        },
        {
          "code_insee": "41222",
          "nom": "Saint-Loup",
          "slug": "saint-loup",
          "code_postal": "41320",
          "population": 354,
          "superficie_km2": 1499.85,
          "latitude": 47.2538,
          "longitude": 1.8268,
          "distance_km": 5.94
        },
        {
          "code_insee": "18100",
          "nom": "Genouilly",
          "slug": "genouilly",
          "code_postal": "18310",
          "population": 657,
          "superficie_km2": 3460.74,
          "latitude": 47.1911,
          "longitude": 1.8857,
          "distance_km": 6.02
        },
        {
          "code_insee": "36147",
          "nom": "Orville",
          "slug": "orville",
          "code_postal": "36210",
          "population": 137,
          "superficie_km2": 929.72,
          "latitude": 47.1457,
          "longitude": 1.7777,
          "distance_km": 6.66
        },
        {
          "code_insee": "18228",
          "nom": "Saint-Outrille",
          "slug": "saint-outrille",
          "code_postal": "18310",
          "population": 214,
          "superficie_km2": 1261.09,
          "latitude": 47.1414,
          "longitude": 1.8095,
          "distance_km": 6.74
        },
        {
          "code_insee": "36185",
          "nom": "Saint-Christophe-en-Bazelle",
          "slug": "saint-christophe-en-bazelle",
          "code_postal": "36210",
          "population": 355,
          "superficie_km2": 1393.87,
          "latitude": 47.1853,
          "longitude": 1.7164,
          "distance_km": 7.14
        },
        {
          "code_insee": "41218",
          "nom": "Saint-Julien-sur-Cher",
          "slug": "saint-julien-sur-cher",
          "code_postal": "41320",
          "population": 742,
          "superficie_km2": 1632.65,
          "latitude": 47.2634,
          "longitude": 1.7794,
          "distance_km": 7.15
        },
        {
          "code_insee": "41038",
          "nom": "La Chapelle-Montmartin",
          "slug": "la-chapelle-montmartin",
          "code_postal": "41320",
          "population": 407,
          "superficie_km2": 1095.85,
          "latitude": 47.2572,
          "longitude": 1.7558,
          "distance_km": 7.28
        },
        {
          "code_insee": "18103",
          "nom": "Graçay",
          "slug": "gracay",
          "code_postal": "18310",
          "population": 1234,
          "superficie_km2": 3172.14,
          "latitude": 47.1392,
          "longitude": 1.8517,
          "distance_km": 7.73
        },
        {
          "code_insee": "36217",
          "nom": "Sembleçay",
          "slug": "semblecay",
          "code_postal": "36210",
          "population": 100,
          "superficie_km2": 816.82,
          "latitude": 47.2156,
          "longitude": 1.695,
          "distance_km": 8.65
        },
        {
          "code_insee": "36170",
          "nom": "Reboursin",
          "slug": "reboursin",
          "code_postal": "36150",
          "population": 102,
          "superficie_km2": 1288.74,
          "latitude": 47.108,
          "longitude": 1.8101,
          "distance_km": 10.45
        },
        {
          "code_insee": "18167",
          "nom": "Nohant-en-Graçay",
          "slug": "nohant-en-gracay",
          "code_postal": "18310",
          "population": 289,
          "superficie_km2": 2377.11,
          "latitude": 47.1338,
          "longitude": 1.9135,
          "distance_km": 11.02
        },
        {
          "code_insee": "36191",
          "nom": "Saint-Florentin",
          "slug": "saint-florentin",
          "code_postal": "36150",
          "population": 497,
          "superficie_km2": 1633.33,
          "latitude": 47.1008,
          "longitude": 1.7802,
          "distance_km": 11.44
        },
        {
          "code_insee": "41135",
          "nom": "Mennetou-sur-Cher",
          "slug": "mennetou-sur-cher",
          "code_postal": "41320",
          "population": 818,
          "superficie_km2": 1627.63,
          "latitude": 47.2974,
          "longitude": 1.8773,
          "distance_km": 11.84
        },
        {
          "code_insee": "41110",
          "nom": "Langon-sur-Cher",
          "slug": "langon-sur-cher",
          "code_postal": "41320",
          "population": 821,
          "superficie_km2": 3873.51,
          "latitude": 47.3099,
          "longitude": 1.845,
          "distance_km": 12.32
        },
        {
          "code_insee": "41280",
          "nom": "Villefranche-sur-Cher",
          "slug": "villefranche-sur-cher",
          "code_postal": "41200",
          "population": 2678,
          "superficie_km2": 2722.09,
          "latitude": 47.3093,
          "longitude": 1.757,
          "distance_km": 12.53
        },
        {
          "code_insee": "36122",
          "nom": "Meunet-sur-Vatan",
          "slug": "meunet-sur-vatan",
          "code_postal": "36150",
          "population": 198,
          "superficie_km2": 1256.52,
          "latitude": 47.0907,
          "longitude": 1.8579,
          "distance_km": 12.95
        },
        {
          "code_insee": "36085",
          "nom": "Guilly",
          "slug": "guilly",
          "code_postal": "36150",
          "population": 234,
          "superficie_km2": 2087.95,
          "latitude": 47.0909,
          "longitude": 1.7346,
          "distance_km": 13.53
        }
      ],
      "zonage_abc": "C",
      "reclassement_abc": "Non",
      "codes_postaux": [
        {
          "code_postal": "36210",
          "libelle_acheminement": "ANJOUIN"
        }
      ],
      "logement": {
        "logements_total": 213,
        "residences_principales": 155,
        "logements_vacants": 25,
        "residences_secondaires": 33,
        "maisons": 204,
        "appartements": 7,
        "proprietaires": 130,
        "locataires": 18,
        "hlm": 9,
        "construits_avant_1919": 83,
        "construits_1919_1945": 13,
        "construits_1946_1970": 11,
        "construits_1971_1990": 28,
        "construits_1991_2005": 14,
        "construits_2006_2019": 3,
        "chauffage_electrique": 44,
        "chauffage_fioul": 26,
        "chauffage_gaz_ville": 2,
        "chauffage_gaz_bouteille": 8,
        "chauffage_autre": 74,
        "menages": 155,
        "logements_avant_1990": 135
      },
      "artisans": {
        "monte_escalier": 0,
        "chauffage_pac_clim": 1,
        "isolation": 0,
        "menuiserie": 0,
        "fenetres_velux": 0,
        "couverture_toiture": 0,
        "facade_peinture": 0,
        "portes_volets": 0,
        "piscine": 0,
        "vmc_ventilation": 0,
        "assainissement": 1
      },
      "revenus": {
        "revenu_median": 19690.0,
        "part_menages_imposes": null,
        "taux_pauvrete": null
      },
      "aides_etat": {
        "zone_climatique": "H2",
        "qpv": false,
        "action_coeur_de_ville": false,
        "petites_villes_de_demain": false
      }
    },
    {
      "code_insee": "36005",
      "nom": "Ardentes",
      "nom_a": null,
      "nom_de": null,
      "slug": "ardentes",
      "code_postal": "36120",
      "population": 3778,
      "superficie_km2": 63.0,
      "latitude": 46.7360001,
      "longitude": 1.824,
      "villes_proches": [
        {
          "code_insee": "36071",
          "nom": "Étrechet",
          "slug": "etrechet",
          "code_postal": "36120",
          "population": 1009,
          "superficie_km2": 18.0,
          "latitude": 46.7929993,
          "longitude": 1.778,
          "distance_km": 7.24
        },
        {
          "code_insee": "36159",
          "nom": "Le Poinçonnet",
          "slug": "le-poinconnet",
          "code_postal": "36330",
          "population": 5840,
          "superficie_km2": 46.0,
          "latitude": 46.757,
          "longitude": 1.73,
          "distance_km": 7.53
        },
        {
          "code_insee": "36009",
          "nom": "Arthon",
          "slug": "arthon",
          "code_postal": "36330",
          "population": 1219,
          "superficie_km2": 48.0,
          "latitude": 46.6930008,
          "longitude": 1.711,
          "distance_km": 9.85
        },
        {
          "code_insee": "36044",
          "nom": "Châteauroux",
          "slug": "chateauroux",
          "code_postal": "36000",
          "population": 42968,
          "superficie_km2": 25.0,
          "latitude": 46.8030014,
          "longitude": 1.694,
          "distance_km": 12.39
        },
        {
          "code_insee": "36063",
          "nom": "Déols",
          "slug": "deols",
          "code_postal": "36130",
          "population": 7625,
          "superficie_km2": 32.0,
          "latitude": 46.8400002,
          "longitude": 1.702,
          "distance_km": 14.83
        },
        {
          "code_insee": "36128",
          "nom": "Montierchaume",
          "slug": "montierchaume",
          "code_postal": "36130",
          "population": 1651,
          "superficie_km2": 38.0,
          "latitude": 46.8660011,
          "longitude": 1.778,
          "distance_km": 14.87
        },
        {
          "code_insee": "36141",
          "nom": "Neuvy-Saint-Sépulchre",
          "slug": "neuvy-saint-sepulchre",
          "code_postal": "36230",
          "population": 1648,
          "superficie_km2": 35.0,
          "latitude": 46.5919991,
          "longitude": 1.813,
          "distance_km": 16.03
        },
        {
          "code_insee": "36202",
          "nom": "Saint-Maur",
          "slug": "saint-maur",
          "code_postal": "36250",
          "population": 3641,
          "superficie_km2": 71.0,
          "latitude": 46.7890015,
          "longitude": 1.623,
          "distance_km": 16.41
        },
        {
          "code_insee": "36140",
          "nom": "Neuvy-Pailloux",
          "slug": "neuvy-pailloux",
          "code_postal": "36100",
          "population": 1163,
          "superficie_km2": 42.0,
          "latitude": 46.9039993,
          "longitude": 1.859,
          "distance_km": 18.87
        },
        {
          "code_insee": "36127",
          "nom": "Montgivray",
          "slug": "montgivray",
          "code_postal": "36400",
          "population": 1556,
          "superficie_km2": 26.0,
          "latitude": 46.5960007,
          "longitude": 1.966,
          "distance_km": 18.97
        },
        {
          "code_insee": "36101",
          "nom": "Luant",
          "slug": "luant",
          "code_postal": "36350",
          "population": 1565,
          "superficie_km2": 31.0,
          "latitude": 46.7280006,
          "longitude": 1.562,
          "distance_km": 19.99
        },
        {
          "code_insee": "36142",
          "nom": "Niherne",
          "slug": "niherne",
          "code_postal": "36250",
          "population": 1493,
          "superficie_km2": 44.0,
          "latitude": 46.8019981,
          "longitude": 1.558,
          "distance_km": 21.55
        },
        {
          "code_insee": "36046",
          "nom": "La Châtre",
          "slug": "la-chatre",
          "code_postal": "36400",
          "population": 4034,
          "superficie_km2": 6.0,
          "latitude": 46.5740013,
          "longitude": 1.9910001,
          "distance_km": 22.07
        },
        {
          "code_insee": "36109",
          "nom": "Le Magny",
          "slug": "le-magny",
          "code_postal": "36400",
          "population": 1025,
          "superficie_km2": 18.0,
          "latitude": 46.5569992,
          "longitude": 1.959,
          "distance_km": 22.41
        },
        {
          "code_insee": "36247",
          "nom": "Vineuil",
          "slug": "vineuil",
          "code_postal": "36110",
          "population": 1239,
          "superficie_km2": 45.0,
          "latitude": 46.908001,
          "longitude": 1.654,
          "distance_km": 23.09
        },
        {
          "code_insee": "36154",
          "nom": "Le Pêchereau",
          "slug": "le-pechereau",
          "code_postal": "36200",
          "population": 1817,
          "superficie_km2": 21.0,
          "latitude": 46.5849991,
          "longitude": 1.5700001,
          "distance_km": 25.64
        },
        {
          "code_insee": "36241",
          "nom": "Villedieu-sur-Indre",
          "slug": "villedieu-sur-indre",
          "code_postal": "36320",
          "population": 2647,
          "superficie_km2": 58.0,
          "latitude": 46.8450012,
          "longitude": 1.516,
          "distance_km": 26.4
        },
        {
          "code_insee": "36200",
          "nom": "Saint-Marcel",
          "slug": "saint-marcel",
          "code_postal": "36200",
          "population": 1509,
          "superficie_km2": 18.0,
          "latitude": 46.6080017,
          "longitude": 1.524,
          "distance_km": 26.95
        },
        {
          "code_insee": "36088",
          "nom": "Issoudun",
          "slug": "issoudun",
          "code_postal": "36100",
          "population": 10992,
          "superficie_km2": 37.0,
          "latitude": 46.9490013,
          "longitude": 2.0,
          "distance_km": 27.21
        },
        {
          "code_insee": "18127",
          "nom": "Lignières",
          "slug": "lignieres",
          "code_postal": "18160",
          "population": 1341,
          "superficie_km2": 22.0,
          "latitude": 46.762001,
          "longitude": 2.2049999,
          "distance_km": 29.17
        }
      ],
      "zonage_abc": "C",
      "reclassement_abc": "Non",
      "codes_postaux": [
        {
          "code_postal": "36120",
          "libelle_acheminement": "ARDENTES"
        }
      ],
      "logement": {
        "logements_total": 2003,
        "residences_principales": 1743,
        "logements_vacants": 176,
        "residences_secondaires": 83,
        "maisons": 1861,
        "appartements": 135,
        "proprietaires": 1334,
        "locataires": 390,
        "hlm": 159,
        "construits_avant_1919": 184,
        "construits_1919_1945": 91,
        "construits_1946_1970": 312,
        "construits_1971_1990": 570,
        "construits_1991_2005": 242,
        "construits_2006_2019": 312,
        "chauffage_electrique": 672,
        "chauffage_fioul": 215,
        "chauffage_gaz_ville": 401,
        "chauffage_gaz_bouteille": 27,
        "chauffage_autre": 426,
        "menages": 1743,
        "logements_avant_1990": 1157
      },
      "artisans": {
        "monte_escalier": 2,
        "chauffage_pac_clim": 8,
        "isolation": 5,
        "menuiserie": 4,
        "fenetres_velux": 4,
        "couverture_toiture": 5,
        "facade_peinture": 6,
        "portes_volets": 4,
        "piscine": 0,
        "vmc_ventilation": 2,
        "assainissement": 6
      },
      "revenus": {
        "revenu_median": 22900.0,
        "part_menages_imposes": 51.0,
        "taux_pauvrete": 6.0
      },
      "aides_etat": {
        "zone_climatique": "H2",
        "qpv": false,
        "action_coeur_de_ville": false,
        "petites_villes_de_demain": true
      }
    },
    {
      "code_insee": "36006",
      "nom": "Argenton-sur-Creuse",
      "nom_a": null,
      "nom_de": null,
      "slug": "argenton-sur-creuse",
      "code_postal": "36200",
      "population": 4848,
      "superficie_km2": 29.0,
      "latitude": 46.5789986,
      "longitude": 1.493,
      "villes_proches": [
        {
          "code_insee": "36200",
          "nom": "Saint-Marcel",
          "slug": "saint-marcel",
          "code_postal": "36200",
          "population": 1509,
          "superficie_km2": 18.0,
          "latitude": 46.6080017,
          "longitude": 1.524,
          "distance_km": 4
        },
        {
          "code_insee": "36154",
          "nom": "Le Pêchereau",
          "slug": "le-pechereau",
          "code_postal": "36200",
          "population": 1817,
          "superficie_km2": 21.0,
          "latitude": 46.5849991,
          "longitude": 1.5700001,
          "distance_km": 5.92
        },
        {
          "code_insee": "36192",
          "nom": "Saint-Gaultier",
          "slug": "saint-gaultier",
          "code_postal": "36800",
          "population": 1722,
          "superficie_km2": 9.0,
          "latitude": 46.6479988,
          "longitude": 1.4299999,
          "distance_km": 9.06
        },
        {
          "code_insee": "36070",
          "nom": "Éguzon-Chantôme",
          "slug": "eguzon-chantome",
          "code_postal": "36270",
          "population": 1317,
          "superficie_km2": 36.0,
          "latitude": 46.4339981,
          "longitude": 1.569,
          "distance_km": 17.14
        },
        {
          "code_insee": "36101",
          "nom": "Luant",
          "slug": "luant",
          "code_postal": "36350",
          "population": 1565,
          "superficie_km2": 31.0,
          "latitude": 46.7280006,
          "longitude": 1.562,
          "distance_km": 17.39
        },
        {
          "code_insee": "36009",
          "nom": "Arthon",
          "slug": "arthon",
          "code_postal": "36330",
          "population": 1219,
          "superficie_km2": 48.0,
          "latitude": 46.6930008,
          "longitude": 1.711,
          "distance_km": 20.92
        },
        {
          "code_insee": "36035",
          "nom": "Chaillac",
          "slug": "chaillac",
          "code_postal": "36310",
          "population": 1049,
          "superficie_km2": 61.0,
          "latitude": 46.4259987,
          "longitude": 1.2920001,
          "distance_km": 22.94
        },
        {
          "code_insee": "36141",
          "nom": "Neuvy-Saint-Sépulchre",
          "slug": "neuvy-saint-sepulchre",
          "code_postal": "36230",
          "population": 1648,
          "superficie_km2": 35.0,
          "latitude": 46.5919991,
          "longitude": 1.813,
          "distance_km": 24.5
        },
        {
          "code_insee": "36142",
          "nom": "Niherne",
          "slug": "niherne",
          "code_postal": "36250",
          "population": 1493,
          "superficie_km2": 44.0,
          "latitude": 46.8019981,
          "longitude": 1.558,
          "distance_km": 25.29
        },
        {
          "code_insee": "36232",
          "nom": "Vendœuvres",
          "slug": "vendoeuvres",
          "code_postal": "36500",
          "population": 1080,
          "superficie_km2": 99.0,
          "latitude": 46.7879982,
          "longitude": 1.36,
          "distance_km": 25.36
        },
        {
          "code_insee": "36202",
          "nom": "Saint-Maur",
          "slug": "saint-maur",
          "code_postal": "36250",
          "population": 3641,
          "superficie_km2": 71.0,
          "latitude": 46.7890015,
          "longitude": 1.623,
          "distance_km": 25.37
        },
        {
          "code_insee": "36159",
          "nom": "Le Poinçonnet",
          "slug": "le-poinconnet",
          "code_postal": "36330",
          "population": 5840,
          "superficie_km2": 46.0,
          "latitude": 46.757,
          "longitude": 1.73,
          "distance_km": 26.81
        },
        {
          "code_insee": "36044",
          "nom": "Châteauroux",
          "slug": "chateauroux",
          "code_postal": "36000",
          "population": 42968,
          "superficie_km2": 25.0,
          "latitude": 46.8030014,
          "longitude": 1.694,
          "distance_km": 29.25
        },
        {
          "code_insee": "36241",
          "nom": "Villedieu-sur-Indre",
          "slug": "villedieu-sur-indre",
          "code_postal": "36320",
          "population": 2647,
          "superficie_km2": 58.0,
          "latitude": 46.8450012,
          "longitude": 1.516,
          "distance_km": 29.63
        },
        {
          "code_insee": "36001",
          "nom": "Aigurande",
          "slug": "aigurande",
          "code_postal": "36140",
          "population": 1359,
          "superficie_km2": 28.0,
          "latitude": 46.4560013,
          "longitude": 1.84,
          "distance_km": 29.87
        },
        {
          "code_insee": "87182",
          "nom": "Saint-Sulpice-les-Feuilles",
          "slug": "saint-sulpice-les-feuilles",
          "code_postal": "87160",
          "population": 1204,
          "superficie_km2": 36.0,
          "latitude": 46.3160019,
          "longitude": 1.392,
          "distance_km": 30.25
        },
        {
          "code_insee": "36018",
          "nom": "Le Blanc",
          "slug": "le-blanc",
          "code_postal": "36300",
          "population": 6204,
          "superficie_km2": 57.0,
          "latitude": 46.6349983,
          "longitude": 1.1,
          "distance_km": 30.66
        },
        {
          "code_insee": "36005",
          "nom": "Ardentes",
          "slug": "ardentes",
          "code_postal": "36120",
          "population": 3778,
          "superficie_km2": 63.0,
          "latitude": 46.7360001,
          "longitude": 1.824,
          "distance_km": 30.71
        },
        {
          "code_insee": "36071",
          "nom": "Étrechet",
          "slug": "etrechet",
          "code_postal": "36120",
          "population": 1009,
          "superficie_km2": 18.0,
          "latitude": 46.7929993,
          "longitude": 1.778,
          "distance_km": 32.23
        },
        {
          "code_insee": "36063",
          "nom": "Déols",
          "slug": "deols",
          "code_postal": "36130",
          "population": 7625,
          "superficie_km2": 32.0,
          "latitude": 46.8400002,
          "longitude": 1.702,
          "distance_km": 33.11
        }
      ],
      "zonage_abc": "C",
      "reclassement_abc": "Non",
      "codes_postaux": [
        {
          "code_postal": "36200",
          "libelle_acheminement": "ARGENTON SUR CREUSE"
        }
      ],
      "logement": {
        "logements_total": 3353,
        "residences_principales": 2630,
        "logements_vacants": 431,
        "residences_secondaires": 292,
        "maisons": 2323,
        "appartements": 1024,
        "proprietaires": 1443,
        "locataires": 1133,
        "hlm": 477,
        "construits_avant_1919": 478,
        "construits_1919_1945": 329,
        "construits_1946_1970": 648,
        "construits_1971_1990": 723,
        "construits_1991_2005": 252,
        "construits_2006_2019": 177,
        "chauffage_electrique": 731,
        "chauffage_fioul": 108,
        "chauffage_gaz_ville": 1368,
        "chauffage_gaz_bouteille": 17,
        "chauffage_autre": 405,
        "menages": 2630,
        "logements_avant_1990": 2178
      },
      "artisans": {
        "monte_escalier": 0,
        "chauffage_pac_clim": 7,
        "isolation": 2,
        "menuiserie": 12,
        "fenetres_velux": 12,
        "couverture_toiture": 1,
        "facade_peinture": 3,
        "portes_volets": 12,
        "piscine": 1,
        "vmc_ventilation": 3,
        "assainissement": 7
      },
      "revenus": {
        "revenu_median": 20130.0,
        "part_menages_imposes": 40.0,
        "taux_pauvrete": 18.0
      },
      "aides_etat": {
        "zone_climatique": "H2",
        "qpv": false,
        "action_coeur_de_ville": false,
        "petites_villes_de_demain": true
      }
    },
    {
      "code_insee": "36007",
      "nom": "Argy",
      "nom_a": null,
      "nom_de": null,
      "slug": "argy",
      "code_postal": "36500",
      "population": 559,
      "superficie_km2": 3922.47,
      "latitude": 46.9408,
      "longitude": 1.4632,
      "villes_proches": [
        {
          "code_insee": "36218",
          "nom": "Sougé",
          "slug": "souge",
          "code_postal": "36500",
          "population": 140,
          "superficie_km2": 1312.84,
          "latitude": 46.9669,
          "longitude": 1.4844,
          "distance_km": 3.32
        },
        {
          "code_insee": "36198",
          "nom": "Saint-Lactencin",
          "slug": "saint-lactencin",
          "code_postal": "36500",
          "population": 405,
          "superficie_km2": 3264.79,
          "latitude": 46.9,
          "longitude": 1.4929,
          "distance_km": 5.07
        },
        {
          "code_insee": "36155",
          "nom": "Pellevoisin",
          "slug": "pellevoisin",
          "code_postal": "36180",
          "population": 792,
          "superficie_km2": 2604.12,
          "latitude": 46.9891,
          "longitude": 1.4169,
          "distance_km": 6.42
        },
        {
          "code_insee": "36080",
          "nom": "Frédille",
          "slug": "fredille",
          "code_postal": "36180",
          "population": 77,
          "superficie_km2": 641.27,
          "latitude": 47.0025,
          "longitude": 1.476,
          "distance_km": 6.93
        },
        {
          "code_insee": "36031",
          "nom": "Buzançais",
          "slug": "buzancais",
          "code_postal": "36500",
          "population": 4356,
          "superficie_km2": 5858.96,
          "latitude": 46.8833,
          "longitude": 1.421,
          "distance_km": 7.15
        },
        {
          "code_insee": "36079",
          "nom": "Francillon",
          "slug": "francillon",
          "code_postal": "36110",
          "population": 75,
          "superficie_km2": 1028.67,
          "latitude": 46.9451,
          "longitude": 1.5581,
          "distance_km": 7.22
        },
        {
          "code_insee": "36216",
          "nom": "Selles-sur-Nahon",
          "slug": "selles-sur-nahon",
          "code_postal": "36180",
          "population": 61,
          "superficie_km2": 685.6,
          "latitude": 47.0184,
          "longitude": 1.4548,
          "distance_km": 8.65
        },
        {
          "code_insee": "36050",
          "nom": "Chezelles",
          "slug": "chezelles",
          "code_postal": "36500",
          "population": 452,
          "superficie_km2": 1774.45,
          "latitude": 46.8984,
          "longitude": 1.5665,
          "distance_km": 9.15
        },
        {
          "code_insee": "36243",
          "nom": "Villegouin",
          "slug": "villegouin",
          "code_postal": "36500",
          "population": 325,
          "superficie_km2": 2438.17,
          "latitude": 46.9737,
          "longitude": 1.3523,
          "distance_km": 9.18
        },
        {
          "code_insee": "36194",
          "nom": "Saint-Genou",
          "slug": "saint-genou",
          "code_postal": "36500",
          "population": 911,
          "superficie_km2": 2444.49,
          "latitude": 46.9142,
          "longitude": 1.3473,
          "distance_km": 9.28
        },
        {
          "code_insee": "36242",
          "nom": "Villegongis",
          "slug": "villegongis",
          "code_postal": "36110",
          "population": 101,
          "superficie_km2": 1827.39,
          "latitude": 46.9206,
          "longitude": 1.5923,
          "distance_km": 10.06
        },
        {
          "code_insee": "36093",
          "nom": "Levroux",
          "slug": "levroux",
          "code_postal": "36110",
          "population": 2797,
          "superficie_km2": 8258.74,
          "latitude": 46.9744,
          "longitude": 1.5919,
          "distance_km": 10.46
        },
        {
          "code_insee": "36135",
          "nom": "Moulins-sur-Céphons",
          "slug": "moulins-sur-cephons",
          "code_postal": "36110",
          "population": 277,
          "superficie_km2": 3229.75,
          "latitude": 47.0063,
          "longitude": 1.5634,
          "distance_km": 10.53
        },
        {
          "code_insee": "36082",
          "nom": "Gehée",
          "slug": "gehee",
          "code_postal": "36240",
          "population": 253,
          "superficie_km2": 2276.21,
          "latitude": 47.0381,
          "longitude": 1.495,
          "distance_km": 11.08
        },
        {
          "code_insee": "36086",
          "nom": "Heugnes",
          "slug": "heugnes",
          "code_postal": "36180",
          "population": 380,
          "superficie_km2": 4270.88,
          "latitude": 47.0283,
          "longitude": 1.3875,
          "distance_km": 11.3
        },
        {
          "code_insee": "36149",
          "nom": "Palluau-sur-Indre",
          "slug": "palluau-sur-indre",
          "code_postal": "36500",
          "population": 785,
          "superficie_km2": 4150.31,
          "latitude": 46.9512,
          "longitude": 1.3115,
          "distance_km": 11.57
        },
        {
          "code_insee": "36090",
          "nom": "Jeu-Maloches",
          "slug": "jeu-maloches",
          "code_postal": "36240",
          "population": 116,
          "superficie_km2": 1289.82,
          "latitude": 47.0465,
          "longitude": 1.4404,
          "distance_km": 11.88
        },
        {
          "code_insee": "36040",
          "nom": "La Chapelle-Orthemale",
          "slug": "la-chapelle-orthemale",
          "code_postal": "36500",
          "population": 100,
          "superficie_km2": 1689.35,
          "latitude": 46.8328,
          "longitude": 1.4506,
          "distance_km": 12.05
        },
        {
          "code_insee": "36241",
          "nom": "Villedieu-sur-Indre",
          "slug": "villedieu-sur-indre",
          "code_postal": "36320",
          "population": 2583,
          "superficie_km2": 5848.08,
          "latitude": 46.834,
          "longitude": 1.5177,
          "distance_km": 12.58
        },
        {
          "code_insee": "36092",
          "nom": "Langé",
          "slug": "lange",
          "code_postal": "36600",
          "population": 253,
          "superficie_km2": 2061.09,
          "latitude": 47.0747,
          "longitude": 1.5033,
          "distance_km": 15.2
        }
      ],
      "zonage_abc": "C",
      "reclassement_abc": "Non",
      "codes_postaux": [
        {
          "code_postal": "36500",
          "libelle_acheminement": "ARGY"
        }
      ],
      "logement": {
        "logements_total": 361,
        "residences_principales": 267,
        "logements_vacants": 65,
        "residences_secondaires": 28,
        "maisons": 355,
        "appartements": 5,
        "proprietaires": 209,
        "locataires": 50,
        "hlm": 12,
        "construits_avant_1919": 119,
        "construits_1919_1945": 46,
        "construits_1946_1970": 31,
        "construits_1971_1990": 36,
        "construits_1991_2005": 18,
        "construits_2006_2019": 14,
        "chauffage_electrique": 68,
        "chauffage_fioul": 64,
        "chauffage_gaz_ville": 0,
        "chauffage_gaz_bouteille": 13,
        "chauffage_autre": 120,
        "menages": 267,
        "logements_avant_1990": 232
      },
      "artisans": {
        "monte_escalier": 0,
        "chauffage_pac_clim": 0,
        "isolation": 0,
        "menuiserie": 0,
        "fenetres_velux": 0,
        "couverture_toiture": 0,
        "facade_peinture": 1,
        "portes_volets": 0,
        "piscine": 0,
        "vmc_ventilation": 0,
        "assainissement": 1
      },
      "revenus": {
        "revenu_median": 20590.0,
        "part_menages_imposes": null,
        "taux_pauvrete": null
      },
      "aides_etat": {
        "zone_climatique": "H2",
        "qpv": false,
        "action_coeur_de_ville": false,
        "petites_villes_de_demain": false
      }
    },
    {
      "code_insee": "36008",
      "nom": "Arpheuilles",
      "nom_a": null,
      "nom_de": null,
      "slug": "arpheuilles",
      "code_postal": "36700",
      "population": 240,
      "superficie_km2": 2238.88,
      "latitude": 46.9021,
      "longitude": 1.2754,
      "villes_proches": [
        {
          "code_insee": "36212",
          "nom": "Saulnay",
          "slug": "saulnay",
          "code_postal": "36290",
          "population": 164,
          "superficie_km2": 2247.32,
          "latitude": 46.8712,
          "longitude": 1.2555,
          "distance_km": 3.75
        },
        {
          "code_insee": "36055",
          "nom": "Clion",
          "slug": "clion",
          "code_postal": "36700",
          "population": 1015,
          "superficie_km2": 3365.32,
          "latitude": 46.9412,
          "longitude": 1.2293,
          "distance_km": 5.58
        },
        {
          "code_insee": "36194",
          "nom": "Saint-Genou",
          "slug": "saint-genou",
          "code_postal": "36500",
          "population": 911,
          "superficie_km2": 2444.49,
          "latitude": 46.9142,
          "longitude": 1.3473,
          "distance_km": 5.63
        },
        {
          "code_insee": "36246",
          "nom": "Villiers",
          "slug": "villiers",
          "code_postal": "36290",
          "population": 177,
          "superficie_km2": 2493.26,
          "latitude": 46.8823,
          "longitude": 1.2039,
          "distance_km": 5.86
        },
        {
          "code_insee": "36149",
          "nom": "Palluau-sur-Indre",
          "slug": "palluau-sur-indre",
          "code_postal": "36500",
          "population": 785,
          "superficie_km2": 4150.31,
          "latitude": 46.9512,
          "longitude": 1.3115,
          "distance_km": 6.11
        },
        {
          "code_insee": "36193",
          "nom": "Sainte-Gemme",
          "slug": "sainte-gemme",
          "code_postal": "36500",
          "population": 262,
          "superficie_km2": 3444.46,
          "latitude": 46.8586,
          "longitude": 1.3328,
          "distance_km": 6.51
        },
        {
          "code_insee": "36225",
          "nom": "Le Tranger",
          "slug": "le-tranger",
          "code_postal": "36700",
          "population": 166,
          "superficie_km2": 2232.82,
          "latitude": 46.9725,
          "longitude": 1.2422,
          "distance_km": 8.22
        },
        {
          "code_insee": "36136",
          "nom": "Murs",
          "slug": "murs",
          "code_postal": "36700",
          "population": 119,
          "superficie_km2": 2306.13,
          "latitude": 46.9236,
          "longitude": 1.1604,
          "distance_km": 9.06
        },
        {
          "code_insee": "36243",
          "nom": "Villegouin",
          "slug": "villegouin",
          "code_postal": "36500",
          "population": 325,
          "superficie_km2": 2438.17,
          "latitude": 46.9737,
          "longitude": 1.3523,
          "distance_km": 9.87
        },
        {
          "code_insee": "36153",
          "nom": "Paulnay",
          "slug": "paulnay",
          "code_postal": "36290",
          "population": 348,
          "superficie_km2": 4009.95,
          "latitude": 46.8663,
          "longitude": 1.1553,
          "distance_km": 9.96
        },
        {
          "code_insee": "36123",
          "nom": "Mézières-en-Brenne",
          "slug": "mezieres-en-brenne",
          "code_postal": "36290",
          "population": 941,
          "superficie_km2": 6724.35,
          "latitude": 46.808,
          "longitude": 1.257,
          "distance_km": 10.56
        },
        {
          "code_insee": "36031",
          "nom": "Buzançais",
          "slug": "buzancais",
          "code_postal": "36500",
          "population": 4356,
          "superficie_km2": 5858.96,
          "latitude": 46.8833,
          "longitude": 1.421,
          "distance_km": 11.26
        },
        {
          "code_insee": "36203",
          "nom": "Saint-Médard",
          "slug": "saint-medard",
          "code_postal": "36700",
          "population": 63,
          "superficie_km2": 1262.24,
          "latitude": 47.0054,
          "longitude": 1.2677,
          "distance_km": 11.5
        },
        {
          "code_insee": "36045",
          "nom": "Châtillon-sur-Indre",
          "slug": "chatillon-sur-indre",
          "code_postal": "36700",
          "population": 2293,
          "superficie_km2": 4530.83,
          "latitude": 46.993,
          "longitude": 1.1728,
          "distance_km": 12.76
        },
        {
          "code_insee": "36166",
          "nom": "Préaux",
          "slug": "preaux",
          "code_postal": "36240",
          "population": 172,
          "superficie_km2": 3294.5,
          "latitude": 47.0299,
          "longitude": 1.2968,
          "distance_km": 14.3
        },
        {
          "code_insee": "36232",
          "nom": "Vendœuvres",
          "slug": "vendoeuvres",
          "code_postal": "36500",
          "population": 1086,
          "superficie_km2": 9894.82,
          "latitude": 46.7881,
          "longitude": 1.3649,
          "distance_km": 14.39
        },
        {
          "code_insee": "36155",
          "nom": "Pellevoisin",
          "slug": "pellevoisin",
          "code_postal": "36180",
          "population": 792,
          "superficie_km2": 2604.12,
          "latitude": 46.9891,
          "longitude": 1.4169,
          "distance_km": 14.46
        },
        {
          "code_insee": "36204",
          "nom": "Saint-Michel-en-Brenne",
          "slug": "saint-michel-en-brenne",
          "code_postal": "36290",
          "population": 313,
          "superficie_km2": 5489.47,
          "latitude": 46.7858,
          "longitude": 1.1705,
          "distance_km": 15.2
        },
        {
          "code_insee": "36188",
          "nom": "Saint-Cyran-du-Jambot",
          "slug": "saint-cyran-du-jambot",
          "code_postal": "36700",
          "population": 171,
          "superficie_km2": 1421.29,
          "latitude": 47.0195,
          "longitude": 1.1542,
          "distance_km": 15.97
        },
        {
          "code_insee": "37275",
          "nom": "Villedômain",
          "slug": "villedomain",
          "code_postal": "37460",
          "population": 129,
          "superficie_km2": 1663.39,
          "latitude": 47.0459,
          "longitude": 1.2502,
          "distance_km": 16.1
        }
      ],
      "zonage_abc": "C",
      "reclassement_abc": "Non",
      "codes_postaux": [
        {
          "code_postal": "36700",
          "libelle_acheminement": "ARPHEUILLES"
        }
      ],
      "logement": {
        "logements_total": 170,
        "residences_principales": 114,
        "logements_vacants": 28,
        "residences_secondaires": 28,
        "maisons": 169,
        "appartements": 1,
        "proprietaires": 103,
        "locataires": 8,
        "hlm": 1,
        "construits_avant_1919": 49,
        "construits_1919_1945": 20,
        "construits_1946_1970": 22,
        "construits_1971_1990": 9,
        "construits_1991_2005": 7,
        "construits_2006_2019": 5,
        "chauffage_electrique": 34,
        "chauffage_fioul": 23,
        "chauffage_gaz_ville": 0,
        "chauffage_gaz_bouteille": 7,
        "chauffage_autre": 50,
        "menages": 114,
        "logements_avant_1990": 100
      },
      "artisans": {
        "monte_escalier": 0,
        "chauffage_pac_clim": 0,
        "isolation": 0,
        "menuiserie": 0,
        "fenetres_velux": 0,
        "couverture_toiture": 0,
        "facade_peinture": 0,
        "portes_volets": 0,
        "piscine": 0,
        "vmc_ventilation": 0,
        "assainissement": 0
      },
      "revenus": {
        "revenu_median": 18050.0,
        "part_menages_imposes": null,
        "taux_pauvrete": null
      },
      "aides_etat": {
        "zone_climatique": "H2",
        "qpv": false,
        "action_coeur_de_ville": false,
        "petites_villes_de_demain": false
      }
    },
    {
      "code_insee": "36009",
      "nom": "Arthon",
      "nom_a": null,
      "nom_de": null,
      "slug": "arthon",
      "code_postal": "36330",
      "population": 1219,
      "superficie_km2": 48.0,
      "latitude": 46.6930008,
      "longitude": 1.711,
      "villes_proches": [
        {
          "code_insee": "36159",
          "nom": "Le Poinçonnet",
          "slug": "le-poinconnet",
          "code_postal": "36330",
          "population": 5840,
          "superficie_km2": 46.0,
          "latitude": 46.757,
          "longitude": 1.73,
          "distance_km": 7.26
        },
        {
          "code_insee": "36005",
          "nom": "Ardentes",
          "slug": "ardentes",
          "code_postal": "36120",
          "population": 3778,
          "superficie_km2": 63.0,
          "latitude": 46.7360001,
          "longitude": 1.824,
          "distance_km": 9.85
        },
        {
          "code_insee": "36101",
          "nom": "Luant",
          "slug": "luant",
          "code_postal": "36350",
          "population": 1565,
          "superficie_km2": 31.0,
          "latitude": 46.7280006,
          "longitude": 1.562,
          "distance_km": 12.01
        },
        {
          "code_insee": "36071",
          "nom": "Étrechet",
          "slug": "etrechet",
          "code_postal": "36120",
          "population": 1009,
          "superficie_km2": 18.0,
          "latitude": 46.7929993,
          "longitude": 1.778,
          "distance_km": 12.24
        },
        {
          "code_insee": "36044",
          "nom": "Châteauroux",
          "slug": "chateauroux",
          "code_postal": "36000",
          "population": 42968,
          "superficie_km2": 25.0,
          "latitude": 46.8030014,
          "longitude": 1.694,
          "distance_km": 12.3
        },
        {
          "code_insee": "36202",
          "nom": "Saint-Maur",
          "slug": "saint-maur",
          "code_postal": "36250",
          "population": 3641,
          "superficie_km2": 71.0,
          "latitude": 46.7890015,
          "longitude": 1.623,
          "distance_km": 12.61
        },
        {
          "code_insee": "36141",
          "nom": "Neuvy-Saint-Sépulchre",
          "slug": "neuvy-saint-sepulchre",
          "code_postal": "36230",
          "population": 1648,
          "superficie_km2": 35.0,
          "latitude": 46.5919991,
          "longitude": 1.813,
          "distance_km": 13.67
        },
        {
          "code_insee": "36154",
          "nom": "Le Pêchereau",
          "slug": "le-pechereau",
          "code_postal": "36200",
          "population": 1817,
          "superficie_km2": 21.0,
          "latitude": 46.5849991,
          "longitude": 1.5700001,
          "distance_km": 16.13
        },
        {
          "code_insee": "36063",
          "nom": "Déols",
          "slug": "deols",
          "code_postal": "36130",
          "population": 7625,
          "superficie_km2": 32.0,
          "latitude": 46.8400002,
          "longitude": 1.702,
          "distance_km": 16.36
        },
        {
          "code_insee": "36142",
          "nom": "Niherne",
          "slug": "niherne",
          "code_postal": "36250",
          "population": 1493,
          "superficie_km2": 44.0,
          "latitude": 46.8019981,
          "longitude": 1.558,
          "distance_km": 16.82
        },
        {
          "code_insee": "36200",
          "nom": "Saint-Marcel",
          "slug": "saint-marcel",
          "code_postal": "36200",
          "population": 1509,
          "superficie_km2": 18.0,
          "latitude": 46.6080017,
          "longitude": 1.524,
          "distance_km": 17.12
        },
        {
          "code_insee": "36128",
          "nom": "Montierchaume",
          "slug": "montierchaume",
          "code_postal": "36130",
          "population": 1651,
          "superficie_km2": 38.0,
          "latitude": 46.8660011,
          "longitude": 1.778,
          "distance_km": 19.9
        },
        {
          "code_insee": "36006",
          "nom": "Argenton-sur-Creuse",
          "slug": "argenton-sur-creuse",
          "code_postal": "36200",
          "population": 4848,
          "superficie_km2": 29.0,
          "latitude": 46.5789986,
          "longitude": 1.493,
          "distance_km": 20.92
        },
        {
          "code_insee": "36192",
          "nom": "Saint-Gaultier",
          "slug": "saint-gaultier",
          "code_postal": "36800",
          "population": 1722,
          "superficie_km2": 9.0,
          "latitude": 46.6479988,
          "longitude": 1.4299999,
          "distance_km": 22.02
        },
        {
          "code_insee": "36127",
          "nom": "Montgivray",
          "slug": "montgivray",
          "code_postal": "36400",
          "population": 1556,
          "superficie_km2": 26.0,
          "latitude": 46.5960007,
          "longitude": 1.966,
          "distance_km": 22.25
        },
        {
          "code_insee": "36241",
          "nom": "Villedieu-sur-Indre",
          "slug": "villedieu-sur-indre",
          "code_postal": "36320",
          "population": 2647,
          "superficie_km2": 58.0,
          "latitude": 46.8450012,
          "longitude": 1.516,
          "distance_km": 22.5
        },
        {
          "code_insee": "36109",
          "nom": "Le Magny",
          "slug": "le-magny",
          "code_postal": "36400",
          "population": 1025,
          "superficie_km2": 18.0,
          "latitude": 46.5569992,
          "longitude": 1.959,
          "distance_km": 24.24
        },
        {
          "code_insee": "36247",
          "nom": "Vineuil",
          "slug": "vineuil",
          "code_postal": "36110",
          "population": 1239,
          "superficie_km2": 45.0,
          "latitude": 46.908001,
          "longitude": 1.654,
          "distance_km": 24.3
        },
        {
          "code_insee": "36046",
          "nom": "La Châtre",
          "slug": "la-chatre",
          "code_postal": "36400",
          "population": 4034,
          "superficie_km2": 6.0,
          "latitude": 46.5740013,
          "longitude": 1.9910001,
          "distance_km": 25.14
        },
        {
          "code_insee": "36140",
          "nom": "Neuvy-Pailloux",
          "slug": "neuvy-pailloux",
          "code_postal": "36100",
          "population": 1163,
          "superficie_km2": 42.0,
          "latitude": 46.9039993,
          "longitude": 1.859,
          "distance_km": 26.03
        }
      ],
      "zonage_abc": "C",
      "reclassement_abc": "Non",
      "codes_postaux": [
        {
          "code_postal": "36330",
          "libelle_acheminement": "ARTHON"
        }
      ],
      "logement": {
        "logements_total": 601,
        "residences_principales": 518,
        "logements_vacants": 30,
        "residences_secondaires": 53,
        "maisons": 590,
        "appartements": 3,
        "proprietaires": 430,
        "locataires": 74,
        "hlm": 23,
        "construits_avant_1919": 79,
        "construits_1919_1945": 24,
        "construits_1946_1970": 40,
        "construits_1971_1990": 193,
        "construits_1991_2005": 91,
        "construits_2006_2019": 88,
        "chauffage_electrique": 184,
        "chauffage_fioul": 65,
        "chauffage_gaz_ville": 81,
        "chauffage_gaz_bouteille": 10,
        "chauffage_autre": 176,
        "menages": 518,
        "logements_avant_1990": 336
      },
      "artisans": {
        "monte_escalier": 0,
        "chauffage_pac_clim": 2,
        "isolation": 0,
        "menuiserie": 0,
        "fenetres_velux": 0,
        "couverture_toiture": 0,
        "facade_peinture": 0,
        "portes_volets": 0,
        "piscine": 1,
        "vmc_ventilation": 1,
        "assainissement": 1
      },
      "revenus": {
        "revenu_median": 22170.0,
        "part_menages_imposes": null,
        "taux_pauvrete": null
      },
      "aides_etat": {
        "zone_climatique": "H2",
        "qpv": false,
        "action_coeur_de_ville": false,
        "petites_villes_de_demain": false
      }
    },
    {
      "code_insee": "36010",
      "nom": "Azay-le-Ferron",
      "nom_a": null,
      "nom_de": null,
      "slug": "azay-le-ferron",
      "code_postal": "36290",
      "population": 817,
      "superficie_km2": 6097.51,
      "latitude": 46.8485,
      "longitude": 1.0829,
      "villes_proches": [
        {
          "code_insee": "36113",
          "nom": "Martizay",
          "slug": "martizay",
          "code_postal": "36220",
          "population": 956,
          "superficie_km2": 4004.54,
          "latitude": 46.8072,
          "longitude": 1.0407,
          "distance_km": 5.6
        },
        {
          "code_insee": "36153",
          "nom": "Paulnay",
          "slug": "paulnay",
          "code_postal": "36290",
          "population": 348,
          "superficie_km2": 4009.95,
          "latitude": 46.8663,
          "longitude": 1.1553,
          "distance_km": 5.85
        },
        {
          "code_insee": "36145",
          "nom": "Obterre",
          "slug": "obterre",
          "code_postal": "36290",
          "population": 224,
          "superficie_km2": 2846.86,
          "latitude": 46.9119,
          "longitude": 1.0709,
          "distance_km": 7.11
        },
        {
          "code_insee": "37028",
          "nom": "Bossay-sur-Claise",
          "slug": "bossay-sur-claise",
          "code_postal": "37290",
          "population": 733,
          "superficie_km2": 6551.66,
          "latitude": 46.8181,
          "longitude": 0.9716,
          "distance_km": 9.12
        },
        {
          "code_insee": "36204",
          "nom": "Saint-Michel-en-Brenne",
          "slug": "saint-michel-en-brenne",
          "code_postal": "36290",
          "population": 313,
          "superficie_km2": 5489.47,
          "latitude": 46.7858,
          "longitude": 1.1705,
          "distance_km": 9.65
        },
        {
          "code_insee": "36246",
          "nom": "Villiers",
          "slug": "villiers",
          "code_postal": "36290",
          "population": 177,
          "superficie_km2": 2493.26,
          "latitude": 46.8823,
          "longitude": 1.2039,
          "distance_km": 9.94
        },
        {
          "code_insee": "36054",
          "nom": "Cléré-du-Bois",
          "slug": "clere-du-bois",
          "code_postal": "36700",
          "population": 239,
          "superficie_km2": 3615.81,
          "latitude": 46.9386,
          "longitude": 1.0981,
          "distance_km": 10.09
        },
        {
          "code_insee": "36136",
          "nom": "Murs",
          "slug": "murs",
          "code_postal": "36700",
          "population": 119,
          "superficie_km2": 2306.13,
          "latitude": 46.9236,
          "longitude": 1.1604,
          "distance_km": 10.22
        },
        {
          "code_insee": "36096",
          "nom": "Lingé",
          "slug": "linge",
          "code_postal": "36220",
          "population": 201,
          "superficie_km2": 3792.1,
          "latitude": 46.7584,
          "longitude": 1.1217,
          "distance_km": 10.44
        },
        {
          "code_insee": "37061",
          "nom": "Charnizay",
          "slug": "charnizay",
          "code_postal": "37290",
          "population": 461,
          "superficie_km2": 5330.84,
          "latitude": 46.9205,
          "longitude": 0.9889,
          "distance_km": 10.73
        },
        {
          "code_insee": "37189",
          "nom": "Preuilly-sur-Claise",
          "slug": "preuilly-sur-claise",
          "code_postal": "37290",
          "population": 1011,
          "superficie_km2": 1220.12,
          "latitude": 46.8504,
          "longitude": 0.9304,
          "distance_km": 11.6
        },
        {
          "code_insee": "36105",
          "nom": "Lureuil",
          "slug": "lureuil",
          "code_postal": "36220",
          "population": 274,
          "superficie_km2": 2217.84,
          "latitude": 46.745,
          "longitude": 1.0407,
          "distance_km": 11.95
        },
        {
          "code_insee": "37259",
          "nom": "Tournon-Saint-Pierre",
          "slug": "tournon-saint-pierre",
          "code_postal": "37290",
          "population": 426,
          "superficie_km2": 1498.24,
          "latitude": 46.7639,
          "longitude": 0.9452,
          "distance_km": 14.08
        },
        {
          "code_insee": "37218",
          "nom": "Saint-Flovier",
          "slug": "saint-flovier",
          "code_postal": "37600",
          "population": 576,
          "superficie_km2": 2952.38,
          "latitude": 46.9711,
          "longitude": 1.0099,
          "distance_km": 14.72
        },
        {
          "code_insee": "36224",
          "nom": "Tournon-Saint-Martin",
          "slug": "tournon-saint-martin",
          "code_postal": "36220",
          "population": 1112,
          "superficie_km2": 2586.45,
          "latitude": 46.7321,
          "longitude": 0.9814,
          "distance_km": 15.07
        },
        {
          "code_insee": "36055",
          "nom": "Clion",
          "slug": "clion",
          "code_postal": "36700",
          "population": 1015,
          "superficie_km2": 3365.32,
          "latitude": 46.9412,
          "longitude": 1.2293,
          "distance_km": 15.17
        },
        {
          "code_insee": "36066",
          "nom": "Douadic",
          "slug": "douadic",
          "code_postal": "36300",
          "population": 478,
          "superficie_km2": 4430.56,
          "latitude": 46.7014,
          "longitude": 1.1143,
          "distance_km": 16.53
        },
        {
          "code_insee": "36074",
          "nom": "Fléré-la-Rivière",
          "slug": "flere-la-riviere",
          "code_postal": "36700",
          "population": 560,
          "superficie_km2": 2524.2,
          "latitude": 46.9982,
          "longitude": 1.0933,
          "distance_km": 16.66
        },
        {
          "code_insee": "36045",
          "nom": "Châtillon-sur-Indre",
          "slug": "chatillon-sur-indre",
          "code_postal": "36700",
          "population": 2293,
          "superficie_km2": 4530.83,
          "latitude": 46.993,
          "longitude": 1.1728,
          "distance_km": 17.46
        },
        {
          "code_insee": "36165",
          "nom": "Pouligny-Saint-Pierre",
          "slug": "pouligny-saint-pierre",
          "code_postal": "36300",
          "population": 1023,
          "superficie_km2": 4739.27,
          "latitude": 46.6866,
          "longitude": 1.0529,
          "distance_km": 18.15
        }
      ],
      "zonage_abc": "C",
      "reclassement_abc": "Non",
      "codes_postaux": [
        {
          "code_postal": "36290",
          "libelle_acheminement": "AZAY LE FERRON"
        }
      ],
      "logement": {
        "logements_total": 642,
        "residences_principales": 430,
        "logements_vacants": 69,
        "residences_secondaires": 143,
        "maisons": 614,
        "appartements": 28,
        "proprietaires": 330,
        "locataires": 91,
        "hlm": 28,
        "construits_avant_1919": 146,
        "construits_1919_1945": 50,
        "construits_1946_1970": 70,
        "construits_1971_1990": 93,
        "construits_1991_2005": 37,
        "construits_2006_2019": 19,
        "chauffage_electrique": 172,
        "chauffage_fioul": 85,
        "chauffage_gaz_ville": 1,
        "chauffage_gaz_bouteille": 7,
        "chauffage_autre": 162,
        "menages": 430,
        "logements_avant_1990": 359
      },
      "artisans": {
        "monte_escalier": 0,
        "chauffage_pac_clim": 0,
        "isolation": 0,
        "menuiserie": 1,
        "fenetres_velux": 1,
        "couverture_toiture": 0,
        "facade_peinture": 1,
        "portes_volets": 1,
        "piscine": 0,
        "vmc_ventilation": 0,
        "assainissement": 1
      },
      "revenus": {
        "revenu_median": 18810.0,
        "part_menages_imposes": null,
        "taux_pauvrete": null
      },
      "aides_etat": {
        "zone_climatique": "H2",
        "qpv": false,
        "action_coeur_de_ville": false,
        "petites_villes_de_demain": false
      }
    },
    {
      "code_insee": "36158",
      "nom": "Badecon-le-Pin",
      "nom_a": null,
      "nom_de": null,
      "slug": "badecon-le-pin",
      "code_postal": "36200",
      "population": 748,
      "superficie_km2": 1005.44,
      "latitude": 46.5302,
      "longitude": 1.6023,
      "villes_proches": [
        {
          "code_insee": "36081",
          "nom": "Gargilesse-Dampierre",
          "slug": "gargilesse-dampierre",
          "code_postal": "36190",
          "population": 262,
          "superficie_km2": 1555.15,
          "latitude": 46.5053,
          "longitude": 1.619,
          "distance_km": 3.05
        },
        {
          "code_insee": "36032",
          "nom": "Ceaulmont",
          "slug": "ceaulmont",
          "code_postal": "36200",
          "population": 670,
          "superficie_km2": 1761.01,
          "latitude": 46.531,
          "longitude": 1.5592,
          "distance_km": 3.3
        },
        {
          "code_insee": "36117",
          "nom": "Le Menoux",
          "slug": "le-menoux",
          "code_postal": "36200",
          "population": 401,
          "superficie_km2": 553.4,
          "latitude": 46.5572,
          "longitude": 1.573,
          "distance_km": 3.75
        },
        {
          "code_insee": "36160",
          "nom": "Pommiers",
          "slug": "pommiers",
          "code_postal": "36190",
          "population": 237,
          "superficie_km2": 1236.37,
          "latitude": 46.5186,
          "longitude": 1.6498,
          "distance_km": 3.86
        },
        {
          "code_insee": "36048",
          "nom": "Chavin",
          "slug": "chavin",
          "code_postal": "36200",
          "population": 270,
          "superficie_km2": 1400.53,
          "latitude": 46.565,
          "longitude": 1.6109,
          "distance_km": 3.93
        },
        {
          "code_insee": "36012",
          "nom": "Baraize",
          "slug": "baraize",
          "code_postal": "36270",
          "population": 352,
          "superficie_km2": 1645.78,
          "latitude": 46.4857,
          "longitude": 1.5719,
          "distance_km": 5.47
        },
        {
          "code_insee": "36111",
          "nom": "Malicornay",
          "slug": "malicornay",
          "code_postal": "36340",
          "population": 187,
          "superficie_km2": 1657.92,
          "latitude": 46.5708,
          "longitude": 1.6462,
          "distance_km": 5.63
        },
        {
          "code_insee": "36154",
          "nom": "Le Pêchereau",
          "slug": "le-pechereau",
          "code_postal": "36200",
          "population": 1744,
          "superficie_km2": 2112.37,
          "latitude": 46.584,
          "longitude": 1.5704,
          "distance_km": 6.46
        },
        {
          "code_insee": "36033",
          "nom": "Celon",
          "slug": "celon",
          "code_postal": "36200",
          "population": 387,
          "superficie_km2": 1725.05,
          "latitude": 46.5315,
          "longitude": 1.5125,
          "distance_km": 6.87
        },
        {
          "code_insee": "36062",
          "nom": "Cuzion",
          "slug": "cuzion",
          "code_postal": "36190",
          "population": 476,
          "superficie_km2": 1883.8,
          "latitude": 46.4652,
          "longitude": 1.6121,
          "distance_km": 7.27
        },
        {
          "code_insee": "36014",
          "nom": "Bazaiges",
          "slug": "bazaiges",
          "code_postal": "36270",
          "population": 229,
          "superficie_km2": 1869.56,
          "latitude": 46.487,
          "longitude": 1.5264,
          "distance_km": 7.54
        },
        {
          "code_insee": "36110",
          "nom": "Maillet",
          "slug": "maillet",
          "code_postal": "36340",
          "population": 224,
          "superficie_km2": 2541.33,
          "latitude": 46.5797,
          "longitude": 1.6741,
          "distance_km": 7.77
        },
        {
          "code_insee": "36146",
          "nom": "Orsennes",
          "slug": "orsennes",
          "code_postal": "36190",
          "population": 696,
          "superficie_km2": 4948.28,
          "latitude": 46.4837,
          "longitude": 1.7029,
          "distance_km": 9.27
        },
        {
          "code_insee": "36006",
          "nom": "Argenton-sur-Creuse",
          "slug": "argenton-sur-creuse",
          "code_postal": "36200",
          "population": 4786,
          "superficie_km2": 2935.48,
          "latitude": 46.5752,
          "longitude": 1.494,
          "distance_km": 9.68
        },
        {
          "code_insee": "36131",
          "nom": "Mosnay",
          "slug": "mosnay",
          "code_postal": "36200",
          "population": 459,
          "superficie_km2": 2546.53,
          "latitude": 46.623,
          "longitude": 1.6256,
          "distance_km": 10.47
        },
        {
          "code_insee": "36200",
          "nom": "Saint-Marcel",
          "slug": "saint-marcel",
          "code_postal": "36200",
          "population": 1514,
          "superficie_km2": 1785.91,
          "latitude": 46.6112,
          "longitude": 1.5195,
          "distance_km": 11.01
        },
        {
          "code_insee": "36207",
          "nom": "Saint-Plantaire",
          "slug": "saint-plantaire",
          "code_postal": "36190",
          "population": 601,
          "superficie_km2": 3437.99,
          "latitude": 46.4336,
          "longitude": 1.6472,
          "distance_km": 11.28
        },
        {
          "code_insee": "36070",
          "nom": "Éguzon-Chantôme",
          "slug": "eguzon-chantome",
          "code_postal": "36270",
          "population": 1301,
          "superficie_km2": 3637.44,
          "latitude": 46.4286,
          "longitude": 1.5675,
          "distance_km": 11.61
        },
        {
          "code_insee": "36022",
          "nom": "Bouesse",
          "slug": "bouesse",
          "code_postal": "36200",
          "population": 381,
          "superficie_km2": 2438.0,
          "latitude": 46.6224,
          "longitude": 1.6886,
          "distance_km": 12.19
        },
        {
          "code_insee": "36219",
          "nom": "Tendu",
          "slug": "tendu",
          "code_postal": "36200",
          "population": 650,
          "superficie_km2": 4212.94,
          "latitude": 46.6527,
          "longitude": 1.5662,
          "distance_km": 13.9
        }
      ],
      "zonage_abc": "C",
      "reclassement_abc": "Non",
      "codes_postaux": [
        {
          "code_postal": "36200",
          "libelle_acheminement": "BADECON LE PIN"
        }
      ],
      "logement": {
        "logements_total": 511,
        "residences_principales": 334,
        "logements_vacants": 44,
        "residences_secondaires": 132,
        "maisons": 495,
        "appartements": 14,
        "proprietaires": 271,
        "locataires": 58,
        "hlm": 13,
        "construits_avant_1919": 61,
        "construits_1919_1945": 65,
        "construits_1946_1970": 52,
        "construits_1971_1990": 74,
        "construits_1991_2005": 24,
        "construits_2006_2019": 52,
        "chauffage_electrique": 141,
        "chauffage_fioul": 58,
        "chauffage_gaz_ville": 0,
        "chauffage_gaz_bouteille": 13,
        "chauffage_autre": 120,
        "menages": 334,
        "logements_avant_1990": 252
      },
      "artisans": {
        "monte_escalier": 0,
        "chauffage_pac_clim": 1,
        "isolation": 2,
        "menuiserie": 2,
        "fenetres_velux": 2,
        "couverture_toiture": 1,
        "facade_peinture": 2,
        "portes_volets": 2,
        "piscine": 0,
        "vmc_ventilation": 0,
        "assainissement": 3
      },
      "revenus": {
        "revenu_median": 19540.0,
        "part_menages_imposes": null,
        "taux_pauvrete": null
      },
      "aides_etat": {
        "zone_climatique": "H2",
        "qpv": false,
        "action_coeur_de_ville": false,
        "petites_villes_de_demain": false
      }
    },
    {
      "code_insee": "36011",
      "nom": "Bagneux",
      "nom_a": null,
      "nom_de": null,
      "slug": "bagneux",
      "code_postal": "36210",
      "population": 172,
      "superficie_km2": 2529.15,
      "latitude": 47.1704,
      "longitude": 1.7588,
      "villes_proches": [
        {
          "code_insee": "36147",
          "nom": "Orville",
          "slug": "orville",
          "code_postal": "36210",
          "population": 137,
          "superficie_km2": 929.72,
          "latitude": 47.1457,
          "longitude": 1.7777,
          "distance_km": 3.1
        },
        {
          "code_insee": "36185",
          "nom": "Saint-Christophe-en-Bazelle",
          "slug": "saint-christophe-en-bazelle",
          "code_postal": "36210",
          "population": 355,
          "superficie_km2": 1393.87,
          "latitude": 47.1853,
          "longitude": 1.7164,
          "distance_km": 3.61
        },
        {
          "code_insee": "18228",
          "nom": "Saint-Outrille",
          "slug": "saint-outrille",
          "code_postal": "18310",
          "population": 214,
          "superficie_km2": 1261.09,
          "latitude": 47.1414,
          "longitude": 1.8095,
          "distance_km": 5.01
        },
        {
          "code_insee": "36004",
          "nom": "Anjouin",
          "slug": "anjouin",
          "code_postal": "36210",
          "population": 313,
          "superficie_km2": 2883.76,
          "latitude": 47.202,
          "longitude": 1.8077,
          "distance_km": 5.1
        },
        {
          "code_insee": "36068",
          "nom": "Dun-le-Poëlier",
          "slug": "dun-le-poelier",
          "code_postal": "36210",
          "population": 445,
          "superficie_km2": 2258.14,
          "latitude": 47.2197,
          "longitude": 1.7479,
          "distance_km": 5.54
        },
        {
          "code_insee": "36029",
          "nom": "Buxeuil",
          "slug": "buxeuil",
          "code_postal": "36150",
          "population": 214,
          "superficie_km2": 1978.71,
          "latitude": 47.1273,
          "longitude": 1.6973,
          "distance_km": 6.68
        },
        {
          "code_insee": "36217",
          "nom": "Sembleçay",
          "slug": "semblecay",
          "code_postal": "36210",
          "population": 100,
          "superficie_km2": 816.82,
          "latitude": 47.2156,
          "longitude": 1.695,
          "distance_km": 6.96
        },
        {
          "code_insee": "18103",
          "nom": "Graçay",
          "slug": "gracay",
          "code_postal": "18310",
          "population": 1234,
          "superficie_km2": 3172.14,
          "latitude": 47.1392,
          "longitude": 1.8517,
          "distance_km": 7.83
        },
        {
          "code_insee": "36191",
          "nom": "Saint-Florentin",
          "slug": "saint-florentin",
          "code_postal": "36150",
          "population": 497,
          "superficie_km2": 1633.33,
          "latitude": 47.1008,
          "longitude": 1.7802,
          "distance_km": 7.91
        },
        {
          "code_insee": "36170",
          "nom": "Reboursin",
          "slug": "reboursin",
          "code_postal": "36150",
          "population": 102,
          "superficie_km2": 1288.74,
          "latitude": 47.108,
          "longitude": 1.8101,
          "distance_km": 7.95
        },
        {
          "code_insee": "36162",
          "nom": "Poulaines",
          "slug": "poulaines",
          "code_postal": "36210",
          "population": 816,
          "superficie_km2": 4654.02,
          "latitude": 47.1445,
          "longitude": 1.6567,
          "distance_km": 8.24
        },
        {
          "code_insee": "36002",
          "nom": "Aize",
          "slug": "aize",
          "code_postal": "36150",
          "population": 114,
          "superficie_km2": 1712.21,
          "latitude": 47.1048,
          "longitude": 1.7061,
          "distance_km": 8.31
        },
        {
          "code_insee": "36085",
          "nom": "Guilly",
          "slug": "guilly",
          "code_postal": "36150",
          "population": 234,
          "superficie_km2": 2087.95,
          "latitude": 47.0909,
          "longitude": 1.7346,
          "distance_km": 9.03
        },
        {
          "code_insee": "41038",
          "nom": "La Chapelle-Montmartin",
          "slug": "la-chapelle-montmartin",
          "code_postal": "41320",
          "population": 407,
          "superficie_km2": 1095.85,
          "latitude": 47.2572,
          "longitude": 1.7558,
          "distance_km": 9.65
        },
        {
          "code_insee": "41218",
          "nom": "Saint-Julien-sur-Cher",
          "slug": "saint-julien-sur-cher",
          "code_postal": "41320",
          "population": 742,
          "superficie_km2": 1632.65,
          "latitude": 47.2634,
          "longitude": 1.7794,
          "distance_km": 10.46
        },
        {
          "code_insee": "41222",
          "nom": "Saint-Loup",
          "slug": "saint-loup",
          "code_postal": "41320",
          "population": 354,
          "superficie_km2": 1499.85,
          "latitude": 47.2538,
          "longitude": 1.8268,
          "distance_km": 10.6
        },
        {
          "code_insee": "41122",
          "nom": "Maray",
          "slug": "maray",
          "code_postal": "41320",
          "population": 221,
          "superficie_km2": 2851.22,
          "latitude": 47.2352,
          "longitude": 1.8654,
          "distance_km": 10.81
        },
        {
          "code_insee": "36034",
          "nom": "Chabris",
          "slug": "chabris",
          "code_postal": "36210",
          "population": 2740,
          "superficie_km2": 4126.88,
          "latitude": 47.253,
          "longitude": 1.6672,
          "distance_km": 11.5
        },
        {
          "code_insee": "36075",
          "nom": "Fontenay",
          "slug": "fontenay",
          "code_postal": "36150",
          "population": 71,
          "superficie_km2": 1245.16,
          "latitude": 47.0557,
          "longitude": 1.739,
          "distance_km": 12.84
        },
        {
          "code_insee": "36041",
          "nom": "La Chapelle-Saint-Laurian",
          "slug": "la-chapelle-saint-laurian",
          "code_postal": "36150",
          "population": 135,
          "superficie_km2": 992.76,
          "latitude": 47.052,
          "longitude": 1.7853,
          "distance_km": 13.32
        }
      ],
      "zonage_abc": "C",
      "reclassement_abc": "Non",
      "codes_postaux": [
        {
          "code_postal": "36210",
          "libelle_acheminement": "BAGNEUX"
        }
      ],
      "logement": {
        "logements_total": 141,
        "residences_principales": 80,
        "logements_vacants": 15,
        "residences_secondaires": 45,
        "maisons": 139,
        "appartements": 1,
        "proprietaires": 63,
        "locataires": 13,
        "hlm": 2,
        "construits_avant_1919": 36,
        "construits_1919_1945": 13,
        "construits_1946_1970": 12,
        "construits_1971_1990": 10,
        "construits_1991_2005": 5,
        "construits_2006_2019": 4,
        "chauffage_electrique": 30,
        "chauffage_fioul": 16,
        "chauffage_gaz_ville": 0,
        "chauffage_gaz_bouteille": 3,
        "chauffage_autre": 31,
        "menages": 80,
        "logements_avant_1990": 71
      },
      "artisans": {
        "monte_escalier": 0,
        "chauffage_pac_clim": 0,
        "isolation": 1,
        "menuiserie": 1,
        "fenetres_velux": 1,
        "couverture_toiture": 1,
        "facade_peinture": 0,
        "portes_volets": 1,
        "piscine": 0,
        "vmc_ventilation": 0,
        "assainissement": 0
      },
      "revenus": {
        "revenu_median": 21220.0,
        "part_menages_imposes": null,
        "taux_pauvrete": null
      },
      "aides_etat": {
        "zone_climatique": "H2",
        "qpv": false,
        "action_coeur_de_ville": false,
        "petites_villes_de_demain": false
      }
    },
    {
      "code_insee": "36012",
      "nom": "Baraize",
      "nom_a": null,
      "nom_de": null,
      "slug": "baraize",
      "code_postal": "36270",
      "population": 352,
      "superficie_km2": 1645.78,
      "latitude": 46.4857,
      "longitude": 1.5719,
      "villes_proches": [
        {
          "code_insee": "36014",
          "nom": "Bazaiges",
          "slug": "bazaiges",
          "code_postal": "36270",
          "population": 229,
          "superficie_km2": 1869.56,
          "latitude": 46.487,
          "longitude": 1.5264,
          "distance_km": 3.49
        },
        {
          "code_insee": "36062",
          "nom": "Cuzion",
          "slug": "cuzion",
          "code_postal": "36190",
          "population": 476,
          "superficie_km2": 1883.8,
          "latitude": 46.4652,
          "longitude": 1.6121,
          "distance_km": 3.83
        },
        {
          "code_insee": "36081",
          "nom": "Gargilesse-Dampierre",
          "slug": "gargilesse-dampierre",
          "code_postal": "36190",
          "population": 262,
          "superficie_km2": 1555.15,
          "latitude": 46.5053,
          "longitude": 1.619,
          "distance_km": 4.21
        },
        {
          "code_insee": "36032",
          "nom": "Ceaulmont",
          "slug": "ceaulmont",
          "code_postal": "36200",
          "population": 670,
          "superficie_km2": 1761.01,
          "latitude": 46.531,
          "longitude": 1.5592,
          "distance_km": 5.13
        },