{
  "departement": {
    "code": "42",
    "nom": "Loire",
    "slug": "loire",
    "population_totale": 770130
  },
  "region": {
    "id": 2,
    "code": "01",
    "nom": "Auvergne-Rhône-Alpes",
    "slug": "auvergne-rhone-alpes"
  },
  "voisins": [
    {
      "dep_code": "01",
      "dep_nom": "Ain",
      "dep_slug": "ain"
    },
    {
      "dep_code": "03",
      "dep_nom": "Allier",
      "dep_slug": "allier"
    },
    {
      "dep_code": "07",
      "dep_nom": "Ardèche",
      "dep_slug": "ardeche"
    },
    {
      "dep_code": "15",
      "dep_nom": "Cantal",
      "dep_slug": "cantal"
    }
  ],
  "communes_count": 320,
  "communes": [
    {
      "code_insee": "42001",
      "nom": "Aboën",
      "nom_a": null,
      "nom_de": null,
      "slug": "aboen",
      "code_postal": "42380",
      "population": 481,
      "superficie_km2": 897.0,
      "latitude": 45.4097,
      "longitude": 4.127,
      "villes_proches": [
        {
          "code_insee": "42312",
          "nom": "La Tourette",
          "slug": "la-tourette",
          "code_postal": "42380",
          "population": 642,
          "superficie_km2": 569.42,
          "latitude": 45.4225,
          "longitude": 4.0846,
          "distance_km": 3.6
        },
        {
          "code_insee": "42266",
          "nom": "Saint-Nizier-de-Fornas",
          "slug": "saint-nizier-de-fornas",
          "code_postal": "42380",
          "population": 655,
          "superficie_km2": 1596.66,
          "latitude": 45.4066,
          "longitude": 4.081,
          "distance_km": 3.61
        },
        {
          "code_insee": "42262",
          "nom": "Saint-Maurice-en-Gourgois",
          "slug": "saint-maurice-en-gourgois",
          "code_postal": "42240",
          "population": 1827,
          "superficie_km2": 3162.46,
          "latitude": 45.4114,
          "longitude": 4.1736,
          "distance_km": 3.64
        },
        {
          "code_insee": "42192",
          "nom": "Rozier-Côtes-d'Aurec",
          "slug": "rozier-cotes-d-aurec",
          "code_postal": "42380",
          "population": 437,
          "superficie_km2": 1381.57,
          "latitude": 45.3761,
          "longitude": 4.1164,
          "distance_km": 3.83
        },
        {
          "code_insee": "42169",
          "nom": "Périgneux",
          "slug": "perigneux",
          "code_postal": "42380",
          "population": 1621,
          "superficie_km2": 3188.93,
          "latitude": 45.4496,
          "longitude": 4.1489,
          "distance_km": 4.75
        },
        {
          "code_insee": "42204",
          "nom": "Saint-Bonnet-le-Château",
          "slug": "saint-bonnet-le-chateau",
          "code_postal": "42380",
          "population": 1459,
          "superficie_km2": 187.61,
          "latitude": 45.4252,
          "longitude": 4.0646,
          "distance_km": 5.17
        },
        {
          "code_insee": "43127",
          "nom": "Malvalette",
          "slug": "malvalette",
          "code_postal": "43210",
          "population": 887,
          "superficie_km2": 2099.38,
          "latitude": 45.3592,
          "longitude": 4.1521,
          "distance_km": 5.95
        },
        {
          "code_insee": "42126",
          "nom": "Luriecq",
          "slug": "luriecq",
          "code_postal": "42380",
          "population": 1238,
          "superficie_km2": 2035.62,
          "latitude": 45.4546,
          "longitude": 4.0724,
          "distance_km": 6.56
        },
        {
          "code_insee": "42235",
          "nom": "Saint-Hilaire-Cusson-la-Valmitte",
          "slug": "saint-hilaire-cusson-la-valmitte",
          "code_postal": "42380",
          "population": 340,
          "superficie_km2": 1864.29,
          "latitude": 45.3684,
          "longitude": 4.0628,
          "distance_km": 6.8
        },
        {
          "code_insee": "43012",
          "nom": "Aurec-sur-Loire",
          "slug": "aurec-sur-loire",
          "code_postal": "43110",
          "population": 6164,
          "superficie_km2": 2297.81,
          "latitude": 45.3668,
          "longitude": 4.2034,
          "distance_km": 7.64
        },
        {
          "code_insee": "42031",
          "nom": "Caloire",
          "slug": "caloire",
          "code_postal": "42240",
          "population": 330,
          "superficie_km2": 471.27,
          "latitude": 45.4139,
          "longitude": 4.2347,
          "distance_km": 8.42
        },
        {
          "code_insee": "42270",
          "nom": "Saint-Paul-en-Cornillon",
          "slug": "saint-paul-en-cornillon",
          "code_postal": "42240",
          "population": 1352,
          "superficie_km2": 368.72,
          "latitude": 45.3967,
          "longitude": 4.239,
          "distance_km": 8.86
        },
        {
          "code_insee": "42042",
          "nom": "Chambles",
          "slug": "chambles",
          "code_postal": "42170",
          "population": 1075,
          "superficie_km2": 1915.86,
          "latitude": 45.4528,
          "longitude": 4.2229,
          "distance_km": 8.89
        },
        {
          "code_insee": "42060",
          "nom": "Chenereilles",
          "slug": "chenereilles",
          "code_postal": "42560",
          "population": 560,
          "superficie_km2": 918.23,
          "latitude": 45.4857,
          "longitude": 4.09,
          "distance_km": 8.93
        },
        {
          "code_insee": "42142",
          "nom": "Merle-Leignec",
          "slug": "merle-leignec",
          "code_postal": "42380",
          "population": 324,
          "superficie_km2": 1646.72,
          "latitude": 45.3678,
          "longitude": 4.028,
          "distance_km": 9.03
        },
        {
          "code_insee": "42256",
          "nom": "Saint-Marcellin-en-Forez",
          "slug": "saint-marcellin-en-forez",
          "code_postal": "42680",
          "population": 5116,
          "superficie_km2": 3139.54,
          "latitude": 45.4883,
          "longitude": 4.1672,
          "distance_km": 9.29
        },
        {
          "code_insee": "42140",
          "nom": "Marols",
          "slug": "marols",
          "code_postal": "42560",
          "population": 462,
          "superficie_km2": 1494.0,
          "latitude": 45.4726,
          "longitude": 4.0372,
          "distance_km": 9.9
        },
        {
          "code_insee": "43058",
          "nom": "La Chapelle-d'Aurec",
          "slug": "la-chapelle-d-aurec",
          "code_postal": "43120",
          "population": 1115,
          "superficie_km2": 1168.01,
          "latitude": 45.3295,
          "longitude": 4.1954,
          "distance_km": 10.4
        },
        {
          "code_insee": "43020",
          "nom": "Bas-en-Basset",
          "slug": "bas-en-basset",
          "code_postal": "43210",
          "population": 4638,
          "superficie_km2": 4699.42,
          "latitude": 45.3168,
          "longitude": 4.1076,
          "distance_km": 10.44
        },
        {
          "code_insee": "42021",
          "nom": "Boisset-Saint-Priest",
          "slug": "boisset-saint-priest",
          "code_postal": "42560",
          "population": 1298,
          "superficie_km2": 1827.32,
          "latitude": 45.5124,
          "longitude": 4.1192,
          "distance_km": 11.44
        }
      ],
      "zonage_abc": "C",
      "reclassement_abc": "Non",
      "codes_postaux": [
        {
          "code_postal": "42380",
          "libelle_acheminement": "ABOEN"
        }
      ],
      "logement": {
        "logements_total": 251,
        "residences_principales": 203,
        "logements_vacants": 18,
        "residences_secondaires": 30,
        "maisons": 236,
        "appartements": 14,
        "proprietaires": 170,
        "locataires": 31,
        "hlm": 0,
        "construits_avant_1919": 41,
        "construits_1919_1945": 29,
        "construits_1946_1970": 24,
        "construits_1971_1990": 33,
        "construits_1991_2005": 34,
        "construits_2006_2019": 35,
        "chauffage_electrique": 54,
        "chauffage_fioul": 44,
        "chauffage_gaz_ville": 3,
        "chauffage_gaz_bouteille": 6,
        "chauffage_autre": 96,
        "menages": 203,
        "logements_avant_1990": 127
      },
      "artisans": {
        "monte_escalier": 0,
        "chauffage_pac_clim": 0,
        "isolation": 1,
        "menuiserie": 1,
        "fenetres_velux": 1,
        "couverture_toiture": 0,
        "facade_peinture": 1,
        "portes_volets": 1,
        "piscine": 0,
        "vmc_ventilation": 0,
        "assainissement": 1
      },
      "revenus": {
        "revenu_median": 22550.0,
        "part_menages_imposes": null,
        "taux_pauvrete": null
      },
      "aides_etat": {
        "zone_climatique": "H1",
        "qpv": false,
        "action_coeur_de_ville": false,
        "petites_villes_de_demain": false
      }
    },
    {
      "code_insee": "42002",
      "nom": "Ailleux",
      "nom_a": null,
      "nom_de": null,
      "slug": "ailleux",
      "code_postal": "42130",
      "population": 175,
      "superficie_km2": 932.59,
      "latitude": 45.7981,
      "longitude": 3.9363,
      "villes_proches": [
        {
          "code_insee": "42035",
          "nom": "Cezay",
          "slug": "cezay",
          "code_postal": "42130",
          "population": 211,
          "superficie_km2": 1050.53,
          "latitude": 45.8048,
          "longitude": 3.9667,
          "distance_km": 2.47
        },
        {
          "code_insee": "42084",
          "nom": "Solore-en-Forez",
          "slug": "solore-en-forez",
          "code_postal": "42130",
          "population": 507,
          "superficie_km2": 2023.03,
          "latitude": 45.7775,
          "longitude": 3.9186,
          "distance_km": 2.67
        },
        {
          "code_insee": "42288",
          "nom": "Saint-Sixte",
          "slug": "saint-sixte",
          "code_postal": "42130",
          "population": 669,
          "superficie_km2": 1548.44,
          "latitude": 45.7728,
          "longitude": 3.9695,
          "distance_km": 3.81
        },
        {
          "code_insee": "42260",
          "nom": "Saint-Martin-la-Sauveté",
          "slug": "saint-martin-la-sauvete",
          "code_postal": "42260",
          "population": 889,
          "superficie_km2": 2971.93,
          "latitude": 45.8352,
          "longitude": 3.918,
          "distance_km": 4.36
        },
        {
          "code_insee": "42160",
          "nom": "Nollieux",
          "slug": "nollieux",
          "code_postal": "42260",
          "population": 184,
          "superficie_km2": 702.51,
          "latitude": 45.8187,
          "longitude": 3.9899,
          "distance_km": 4.74
        },
        {
          "code_insee": "42164",
          "nom": "Palogneux",
          "slug": "palogneux",
          "code_postal": "42990",
          "population": 69,
          "superficie_km2": 710.36,
          "latitude": 45.7442,
          "longitude": 3.9257,
          "distance_km": 6.05
        },
        {
          "code_insee": "42230",
          "nom": "Saint-Germain-Laval",
          "slug": "saint-germain-laval",
          "code_postal": "42260",
          "population": 1608,
          "superficie_km2": 1709.07,
          "latitude": 45.833,
          "longitude": 4.0089,
          "distance_km": 6.83
        },
        {
          "code_insee": "42217",
          "nom": "La Côte-Saint-Didier",
          "slug": "la-cote-saint-didier",
          "code_postal": "42111",
          "population": 520,
          "superficie_km2": 3184.27,
          "latitude": 45.7873,
          "longitude": 3.8481,
          "distance_km": 6.94
        },
        {
          "code_insee": "42195",
          "nom": "Sail-sous-Couzan",
          "slug": "sail-sous-couzan",
          "code_postal": "42890",
          "population": 997,
          "superficie_km2": 755.71,
          "latitude": 45.7367,
          "longitude": 3.9601,
          "distance_km": 7.07
        },
        {
          "code_insee": "42119",
          "nom": "Leigneux",
          "slug": "leigneux",
          "code_postal": "42130",
          "population": 359,
          "superficie_km2": 447.68,
          "latitude": 45.7444,
          "longitude": 3.9868,
          "distance_km": 7.14
        },
        {
          "code_insee": "42106",
          "nom": "Grézolles",
          "slug": "grezolles",
          "code_postal": "42260",
          "population": 235,
          "superficie_km2": 558.96,
          "latitude": 45.8632,
          "longitude": 3.9477,
          "distance_km": 7.29
        },
        {
          "code_insee": "42243",
          "nom": "Saint-Julien-d'Oddes",
          "slug": "saint-julien-d-oddes",
          "code_postal": "42260",
          "population": 300,
          "superficie_km2": 1032.8,
          "latitude": 45.851,
          "longitude": 3.9922,
          "distance_km": 7.3
        },
        {
          "code_insee": "42245",
          "nom": "Vêtre-sur-Anzon",
          "slug": "vetre-sur-anzon",
          "code_postal": "42111",
          "population": 564,
          "superficie_km2": 2036.7,
          "latitude": 45.8187,
          "longitude": 3.8448,
          "distance_km": 7.45
        },
        {
          "code_insee": "42030",
          "nom": "Bussy-Albieux",
          "slug": "bussy-albieux",
          "code_postal": "42260",
          "population": 547,
          "superficie_km2": 1961.32,
          "latitude": 45.7955,
          "longitude": 4.0341,
          "distance_km": 7.59
        },
        {
          "code_insee": "42019",
          "nom": "Boën-sur-Lignon",
          "slug": "boen-sur-lignon",
          "code_postal": "42130",
          "population": 3001,
          "superficie_km2": 596.87,
          "latitude": 45.7496,
          "longitude": 4.0074,
          "distance_km": 7.71
        },
        {
          "code_insee": "42247",
          "nom": "Saint-Just-en-Bas",
          "slug": "saint-just-en-bas",
          "code_postal": "42990",
          "population": 281,
          "superficie_km2": 2079.39,
          "latitude": 45.729,
          "longitude": 3.8743,
          "distance_km": 9.06
        },
        {
          "code_insee": "42255",
          "nom": "Saint-Marcel-d'Urfé",
          "slug": "saint-marcel-d-urfe",
          "code_postal": "42430",
          "population": 268,
          "superficie_km2": 1403.59,
          "latitude": 45.8713,
          "longitude": 3.8813,
          "distance_km": 9.19
        },
        {
          "code_insee": "42125",
          "nom": "Luré",
          "slug": "lure",
          "code_postal": "42260",
          "population": 136,
          "superficie_km2": 622.83,
          "latitude": 45.8846,
          "longitude": 3.9314,
          "distance_km": 9.63
        },
        {
          "code_insee": "42227",
          "nom": "Saint-Georges-en-Couzan",
          "slug": "saint-georges-en-couzan",
          "code_postal": "42990",
          "population": 430,
          "superficie_km2": 2366.17,
          "latitude": 45.7083,
          "longitude": 3.929,
          "distance_km": 10.0
        },
        {
          "code_insee": "42303",
          "nom": "Souternon",
          "slug": "souternon",
          "code_postal": "42260",
          "population": 293,
          "superficie_km2": 1712.52,
          "latitude": 45.8831,
          "longitude": 3.9887,
          "distance_km": 10.29
        }
      ],
      "zonage_abc": "C",
      "reclassement_abc": "Non",
      "codes_postaux": [
        {
          "code_postal": "42130",
          "libelle_acheminement": "AILLEUX"
        }
      ],
      "logement": {
        "logements_total": 106,
        "residences_principales": 82,
        "logements_vacants": 3,
        "residences_secondaires": 20,
        "maisons": 101,
        "appartements": 3,
        "proprietaires": 75,
        "locataires": 5,
        "hlm": 0,
        "construits_avant_1919": 24,
        "construits_1919_1945": 10,
        "construits_1946_1970": 4,
        "construits_1971_1990": 15,
        "construits_1991_2005": 9,
        "construits_2006_2019": 12,
        "chauffage_electrique": 20,
        "chauffage_fioul": 9,
        "chauffage_gaz_ville": 0,
        "chauffage_gaz_bouteille": 0,
        "chauffage_autre": 52,
        "menages": 82,
        "logements_avant_1990": 53
      },
      "artisans": {
        "monte_escalier": 0,
        "chauffage_pac_clim": 0,
        "isolation": 0,
        "menuiserie": 1,
        "fenetres_velux": 1,
        "couverture_toiture": 2,
        "facade_peinture": 0,
        "portes_volets": 1,
        "piscine": 0,
        "vmc_ventilation": 0,
        "assainissement": 0
      },
      "revenus": {
        "revenu_median": 20310.0,
        "part_menages_imposes": null,
        "taux_pauvrete": null
      },
      "aides_etat": {
        "zone_climatique": "H1",
        "qpv": false,
        "action_coeur_de_ville": false,
        "petites_villes_de_demain": false
      }
    },
    {
      "code_insee": "42003",
      "nom": "Ambierle",
      "nom_a": null,
      "nom_de": null,
      "slug": "ambierle",
      "code_postal": "42820",
      "population": 1884,
      "superficie_km2": 31.0,
      "latitude": 46.105999,
      "longitude": 3.892,
      "villes_proches": [
        {
          "code_insee": "42231",
          "nom": "Saint-Germain-Lespinasse",
          "slug": "saint-germain-lespinasse",
          "code_postal": "42640",
          "population": 1219,
          "superficie_km2": 15.0,
          "latitude": 46.1090012,
          "longitude": 3.964,
          "distance_km": 5.56
        },
        {
          "code_insee": "42182",
          "nom": "Renaison",
          "slug": "renaison",
          "code_postal": "42370",
          "population": 3200,
          "superficie_km2": 23.0,
          "latitude": 46.0480003,
          "longitude": 3.9089999,
          "distance_km": 6.58
        },
        {
          "code_insee": "42284",
          "nom": "Saint-Romain-la-Motte",
          "slug": "saint-romain-la-motte",
          "code_postal": "42640",
          "population": 1411,
          "superficie_km2": 28.0,
          "latitude": 46.0820007,
          "longitude": 3.9949999,
          "distance_km": 8.38
        },
        {
          "code_insee": "42163",
          "nom": "La Pacaudière",
          "slug": "la-pacaudiere",
          "code_postal": "42310",
          "population": 1050,
          "superficie_km2": 21.0,
          "latitude": 46.1850014,
          "longitude": 3.8800001,
          "distance_km": 8.83
        },
        {
          "code_insee": "42199",
          "nom": "Saint-André-d'Apchon",
          "slug": "saint-andre-d-apchon",
          "code_postal": "42370",
          "population": 1912,
          "superficie_km2": 14.0,
          "latitude": 46.0270004,
          "longitude": 3.9349999,
          "distance_km": 9.39
        },
        {
          "code_insee": "42176",
          "nom": "Pouilly-les-Nonains",
          "slug": "pouilly-les-nonains",
          "code_postal": "42155",
          "population": 2209,
          "superficie_km2": 10.0,
          "latitude": 46.0449982,
          "longitude": 3.9779999,
          "distance_km": 9.49
        },
        {
          "code_insee": "42253",
          "nom": "Saint-Léger-sur-Roanne",
          "slug": "saint-leger-sur-roanne",
          "code_postal": "42155",
          "population": 1162,
          "superficie_km2": 5.0,
          "latitude": 46.0419998,
          "longitude": 4.0009999,
          "distance_km": 11.02
        },
        {
          "code_insee": "42184",
          "nom": "Riorges",
          "slug": "riorges",
          "code_postal": "42153",
          "population": 11045,
          "superficie_km2": 16.0,
          "latitude": 46.0429993,
          "longitude": 4.0339999,
          "distance_km": 13
        },
        {
          "code_insee": "42162",
          "nom": "Ouches",
          "slug": "ouches",
          "code_postal": "42155",
          "population": 1147,
          "superficie_km2": 10.0,
          "latitude": 46.0130005,
          "longitude": 3.9960001,
          "distance_km": 13.09
        },
        {
          "code_insee": "42127",
          "nom": "Mably",
          "slug": "mably",
          "code_postal": "42300",
          "population": 7382,
          "superficie_km2": 33.0,
          "latitude": 46.0919991,
          "longitude": 4.0630002,
          "distance_km": 13.28
        },
        {
          "code_insee": "42331",
          "nom": "Villemontais",
          "slug": "villemontais",
          "code_postal": "42155",
          "population": 1031,
          "superficie_km2": 13.0,
          "latitude": 45.9819984,
          "longitude": 3.9360001,
          "distance_km": 14.2
        },
        {
          "code_insee": "42120",
          "nom": "Lentigny",
          "slug": "lentigny",
          "code_postal": "42155",
          "population": 1794,
          "superficie_km2": 11.0,
          "latitude": 45.9920006,
          "longitude": 3.9749999,
          "distance_km": 14.2
        },
        {
          "code_insee": "42026",
          "nom": "Briennon",
          "slug": "briennon",
          "code_postal": "42720",
          "population": 1724,
          "superficie_km2": 22.0,
          "latitude": 46.1469994,
          "longitude": 4.0770001,
          "distance_km": 14.97
        },
        {
          "code_insee": "42332",
          "nom": "Villerest",
          "slug": "villerest",
          "code_postal": "42300",
          "population": 5170,
          "superficie_km2": 14.0,
          "latitude": 45.9980011,
          "longitude": 4.0279999,
          "distance_km": 15.95
        },
        {
          "code_insee": "42187",
          "nom": "Roanne",
          "slug": "roanne",
          "code_postal": "42300",
          "population": 34762,
          "superficie_km2": 16.0,
          "latitude": 46.0449982,
          "longitude": 4.0799999,
          "distance_km": 16.01
        },
        {
          "code_insee": "42069",
          "nom": "Commelle-Vernay",
          "slug": "commelle-vernay",
          "code_postal": "42120",
          "population": 3029,
          "superficie_km2": 13.0,
          "latitude": 45.9949989,
          "longitude": 4.0599999,
          "distance_km": 17.9
        },
        {
          "code_insee": "42338",
          "nom": "Vougy",
          "slug": "vougy",
          "code_postal": "42720",
          "population": 1506,
          "superficie_km2": 21.0,
          "latitude": 46.0929985,
          "longitude": 4.1240001,
          "distance_km": 17.95
        },
        {
          "code_insee": "42239",
          "nom": "Saint-Jean-Saint-Maurice-sur-Loire",
          "slug": "saint-jean-saint-maurice-sur-loire",
          "code_postal": "42155",
          "population": 1155,
          "superficie_km2": 24.0,
          "latitude": 45.9580002,
          "longitude": 3.9860001,
          "distance_km": 17.99
        },
        {
          "code_insee": "42071",
          "nom": "Le Coteau",
          "slug": "le-coteau",
          "code_postal": "42120",
          "population": 6889,
          "superficie_km2": 5.0,
          "latitude": 46.0169983,
          "longitude": 4.0910001,
          "distance_km": 18.27
        },
        {
          "code_insee": "42177",
          "nom": "Pouilly-sous-Charlieu",
          "slug": "pouilly-sous-charlieu",
          "code_postal": "42720",
          "population": 2576,
          "superficie_km2": 16.0,
          "latitude": 46.1349983,
          "longitude": 4.132,
          "distance_km": 18.78
        }
      ],
      "zonage_abc": "C",
      "reclassement_abc": "Non",
      "codes_postaux": [
        {
          "code_postal": "42820",
          "libelle_acheminement": "AMBIERLE"
        }
      ],
      "logement": {
        "logements_total": 966,
        "residences_principales": 813,
        "logements_vacants": 82,
        "residences_secondaires": 69,
        "maisons": 907,
        "appartements": 56,
        "proprietaires": 679,
        "locataires": 122,
        "hlm": 26,
        "construits_avant_1919": 240,
        "construits_1919_1945": 83,
        "construits_1946_1970": 73,
        "construits_1971_1990": 237,
        "construits_1991_2005": 98,
        "construits_2006_2019": 77,
        "chauffage_electrique": 199,
        "chauffage_fioul": 171,
        "chauffage_gaz_ville": 115,
        "chauffage_gaz_bouteille": 34,
        "chauffage_autre": 294,
        "menages": 813,
        "logements_avant_1990": 633
      },
      "artisans": {
        "monte_escalier": 1,
        "chauffage_pac_clim": 5,
        "isolation": 5,
        "menuiserie": 4,
        "fenetres_velux": 4,
        "couverture_toiture": 4,
        "facade_peinture": 1,
        "portes_volets": 4,
        "piscine": 0,
        "vmc_ventilation": 4,
        "assainissement": 1
      },
      "revenus": {
        "revenu_median": 22260.0,
        "part_menages_imposes": null,
        "taux_pauvrete": null
      },
      "aides_etat": {
        "zone_climatique": "H1",
        "qpv": false,
        "action_coeur_de_ville": false,
        "petites_villes_de_demain": false
      }
    },
    {
      "code_insee": "42005",
      "nom": "Andrézieux-Bouthéon",
      "nom_a": null,
      "nom_de": null,
      "slug": "andrezieux-boutheon",
      "code_postal": "42160",
      "population": 10187,
      "superficie_km2": 16.0,
      "latitude": 45.5349999,
      "longitude": 4.276,
      "villes_proches": [
        {
          "code_insee": "42323",
          "nom": "Veauche",
          "slug": "veauche",
          "code_postal": "42340",
          "population": 8992,
          "superficie_km2": 11.0,
          "latitude": 45.5620003,
          "longitude": 4.29,
          "distance_km": 3.19
        },
        {
          "code_insee": "42324",
          "nom": "Veauchette",
          "slug": "veauchette",
          "code_postal": "42340",
          "population": 1202,
          "superficie_km2": 8.0,
          "latitude": 45.5620003,
          "longitude": 4.2509999,
          "distance_km": 3.58
        },
        {
          "code_insee": "42211",
          "nom": "Saint-Cyprien",
          "slug": "saint-cyprien",
          "code_postal": "42160",
          "population": 2431,
          "superficie_km2": 7.0,
          "latitude": 45.5400009,
          "longitude": 4.23,
          "distance_km": 3.63
        },
        {
          "code_insee": "42206",
          "nom": "Saint-Bonnet-les-Oules",
          "slug": "saint-bonnet-les-oules",
          "code_postal": "42330",
          "population": 1768,
          "superficie_km2": 12.0,
          "latitude": 45.5410004,
          "longitude": 4.3319998,
          "distance_km": 4.41
        },
        {
          "code_insee": "42022",
          "nom": "Bonson",
          "slug": "bonson",
          "code_postal": "42160",
          "population": 4363,
          "superficie_km2": 5.0,
          "latitude": 45.5219994,
          "longitude": 4.2220001,
          "distance_km": 4.45
        },
        {
          "code_insee": "42097",
          "nom": "La Fouillouse",
          "slug": "la-fouillouse",
          "code_postal": "42480",
          "population": 4655,
          "superficie_km2": 21.0,
          "latitude": 45.5009995,
          "longitude": 4.3189998,
          "distance_km": 5.05
        },
        {
          "code_insee": "42279",
          "nom": "Saint-Just-Saint-Rambert",
          "slug": "saint-just-saint-rambert",
          "code_postal": "42170",
          "population": 15419,
          "superficie_km2": 41.0,
          "latitude": 45.4900017,
          "longitude": 4.25,
          "distance_km": 5.4
        },
        {
          "code_insee": "42043",
          "nom": "Chambœuf",
          "slug": "chamboeuf",
          "code_postal": "42330",
          "population": 1797,
          "superficie_km2": 11.0,
          "latitude": 45.5740013,
          "longitude": 4.322,
          "distance_km": 5.62
        },
        {
          "code_insee": "42075",
          "nom": "Craintilleux",
          "slug": "craintilleux",
          "code_postal": "42210",
          "population": 1349,
          "superficie_km2": 8.0,
          "latitude": 45.5740013,
          "longitude": 4.2259998,
          "distance_km": 5.83
        },
        {
          "code_insee": "42304",
          "nom": "Sury-le-Comtal",
          "slug": "sury-le-comtal",
          "code_postal": "42450",
          "population": 6681,
          "superficie_km2": 24.0,
          "latitude": 45.5419998,
          "longitude": 4.1820002,
          "distance_km": 7.36
        },
        {
          "code_insee": "42081",
          "nom": "Cuzieu",
          "slug": "cuzieu",
          "code_postal": "42330",
          "population": 1523,
          "superficie_km2": 12.0,
          "latitude": 45.605999,
          "longitude": 4.2659998,
          "distance_km": 7.93
        },
        {
          "code_insee": "42222",
          "nom": "Saint-Galmier",
          "slug": "saint-galmier",
          "code_postal": "42330",
          "population": 5842,
          "superficie_km2": 20.0,
          "latitude": 45.6030006,
          "longitude": 4.3140001,
          "distance_km": 8.12
        },
        {
          "code_insee": "42234",
          "nom": "Saint-Héand",
          "slug": "saint-heand",
          "code_postal": "42570",
          "population": 3686,
          "superficie_km2": 31.0,
          "latitude": 45.5299988,
          "longitude": 4.382,
          "distance_km": 8.28
        },
        {
          "code_insee": "42092",
          "nom": "L'Étrat",
          "slug": "l-etrat",
          "code_postal": "42580",
          "population": 2778,
          "superficie_km2": 9.0,
          "latitude": 45.4939995,
          "longitude": 4.3720002,
          "distance_km": 8.76
        },
        {
          "code_insee": "42108",
          "nom": "L'Hôpital-le-Grand",
          "slug": "l-hopital-le-grand",
          "code_postal": "42210",
          "population": 1092,
          "superficie_km2": 13.0,
          "latitude": 45.5919991,
          "longitude": 4.197,
          "distance_km": 8.83
        },
        {
          "code_insee": "42010",
          "nom": "Aveizieux",
          "slug": "aveizieux",
          "code_postal": "42330",
          "population": 1686,
          "superficie_km2": 9.0,
          "latitude": 45.5690002,
          "longitude": 4.3790002,
          "distance_km": 8.87
        },
        {
          "code_insee": "42330",
          "nom": "Villars",
          "slug": "villars",
          "code_postal": "42390",
          "population": 7783,
          "superficie_km2": 6.0,
          "latitude": 45.4690018,
          "longitude": 4.3520002,
          "distance_km": 9.43
        },
        {
          "code_insee": "42223",
          "nom": "Saint-Genest-Lerpt",
          "slug": "saint-genest-lerpt",
          "code_postal": "42530",
          "population": 6183,
          "superficie_km2": 13.0,
          "latitude": 45.4560013,
          "longitude": 4.3309999,
          "distance_km": 9.77
        },
        {
          "code_insee": "42256",
          "nom": "Saint-Marcellin-en-Forez",
          "slug": "saint-marcellin-en-forez",
          "code_postal": "42680",
          "population": 5060,
          "superficie_km2": 31.0,
          "latitude": 45.4889984,
          "longitude": 4.1680002,
          "distance_km": 9.85
        },
        {
          "code_insee": "42042",
          "nom": "Chambles",
          "slug": "chambles",
          "code_postal": "42170",
          "population": 1068,
          "superficie_km2": 19.0,
          "latitude": 45.4519997,
          "longitude": 4.2259998,
          "distance_km": 10.02
        }
      ],
      "zonage_abc": "B2",
      "reclassement_abc": "Non",
      "codes_postaux": [
        {
          "code_postal": "42160",
          "libelle_acheminement": "ANDREZIEUX BOUTHEON"
        }
      ],
      "logement": {
        "logements_total": 4828,
        "residences_principales": 4347,
        "logements_vacants": 424,
        "residences_secondaires": 57,
        "maisons": 2215,
        "appartements": 2601,
        "proprietaires": 2364,
        "locataires": 1903,
        "hlm": 866,
        "construits_avant_1919": 194,
        "construits_1919_1945": 216,
        "construits_1946_1970": 678,
        "construits_1971_1990": 1634,
        "construits_1991_2005": 545,
        "construits_2006_2019": 775,
        "chauffage_electrique": 901,
        "chauffage_fioul": 193,
        "chauffage_gaz_ville": 2479,
        "chauffage_gaz_bouteille": 21,
        "chauffage_autre": 750,
        "menages": 4347,
        "logements_avant_1990": 2722
      },
      "artisans": {
        "monte_escalier": 2,
        "chauffage_pac_clim": 27,
        "isolation": 42,
        "menuiserie": 16,
        "fenetres_velux": 16,
        "couverture_toiture": 13,
        "facade_peinture": 14,
        "portes_volets": 16,
        "piscine": 6,
        "vmc_ventilation": 14,
        "assainissement": 14
      },
      "revenus": {
        "revenu_median": 21500.0,
        "part_menages_imposes": 48.0,
        "taux_pauvrete": 15.0
      },
      "aides_etat": {
        "zone_climatique": "H1",
        "qpv": true,
        "action_coeur_de_ville": false,
        "petites_villes_de_demain": false
      }
    },
    {
      "code_insee": "42006",
      "nom": "Apinac",
      "nom_a": null,
      "nom_de": null,
      "slug": "apinac",
      "code_postal": "42550",
      "population": 437,
      "superficie_km2": 1553.21,
      "latitude": 45.3935,
      "longitude": 3.9939,
      "villes_proches": [
        {
          "code_insee": "42142",
          "nom": "Merle-Leignec",
          "slug": "merle-leignec",
          "code_postal": "42380",
          "population": 324,
          "superficie_km2": 1646.72,
          "latitude": 45.3678,
          "longitude": 4.028,
          "distance_km": 3.91
        },
        {
          "code_insee": "42318",
          "nom": "Usson-en-Forez",
          "slug": "usson-en-forez",
          "code_postal": "42550",
          "population": 1455,
          "superficie_km2": 4731.68,
          "latitude": 45.3847,
          "longitude": 3.937,
          "distance_km": 4.55
        },
        {
          "code_insee": "42091",
          "nom": "Estivareilles",
          "slug": "estivareilles",
          "code_postal": "42380",
          "population": 721,
          "superficie_km2": 2274.04,
          "latitude": 45.4345,
          "longitude": 4.0068,
          "distance_km": 4.67
        },
        {
          "code_insee": "43212",
          "nom": "Saint-Pal-de-Chalencon",
          "slug": "saint-pal-de-chalencon",
          "code_postal": "43500",
          "population": 1038,
          "superficie_km2": 2909.36,
          "latitude": 45.3464,
          "longitude": 3.9642,
          "distance_km": 5.73
        },
        {
          "code_insee": "42235",
          "nom": "Saint-Hilaire-Cusson-la-Valmitte",
          "slug": "saint-hilaire-cusson-la-valmitte",
          "code_postal": "42380",
          "population": 340,
          "superficie_km2": 1864.29,
          "latitude": 45.3684,
          "longitude": 4.0628,
          "distance_km": 6.06
        },
        {
          "code_insee": "42204",
          "nom": "Saint-Bonnet-le-Château",
          "slug": "saint-bonnet-le-chateau",
          "code_postal": "42380",
          "population": 1459,
          "superficie_km2": 187.61,
          "latitude": 45.4252,
          "longitude": 4.0646,
          "distance_km": 6.55
        },
        {
          "code_insee": "42266",
          "nom": "Saint-Nizier-de-Fornas",
          "slug": "saint-nizier-de-fornas",
          "code_postal": "42380",
          "population": 655,
          "superficie_km2": 1596.66,
          "latitude": 45.4066,
          "longitude": 4.081,
          "distance_km": 6.95
        },
        {
          "code_insee": "42146",
          "nom": "Montarcher",
          "slug": "montarcher",
          "code_postal": "42380",
          "population": 63,
          "superficie_km2": 587.38,
          "latitude": 45.4593,
          "longitude": 3.9901,
          "distance_km": 7.32
        },
        {
          "code_insee": "42050",
          "nom": "La Chapelle-en-Lafaye",
          "slug": "la-chapelle-en-lafaye",
          "code_postal": "42380",
          "population": 138,
          "superficie_km2": 916.34,
          "latitude": 45.4609,
          "longitude": 3.9859,
          "distance_km": 7.52
        },
        {
          "code_insee": "42312",
          "nom": "La Tourette",
          "slug": "la-tourette",
          "code_postal": "42380",
          "population": 642,
          "superficie_km2": 569.42,
          "latitude": 45.4225,
          "longitude": 4.0846,
          "distance_km": 7.78
        },
        {
          "code_insee": "63309",
          "nom": "Saillant",
          "slug": "saillant",
          "code_postal": "63840",
          "population": 315,
          "superficie_km2": 1743.26,
          "latitude": 45.4488,
          "longitude": 3.9299,
          "distance_km": 7.92
        },
        {
          "code_insee": "43034",
          "nom": "Boisset",
          "slug": "boisset",
          "code_postal": "43500",
          "population": 394,
          "superficie_km2": 1419.17,
          "latitude": 45.3117,
          "longitude": 3.9817,
          "distance_km": 9.15
        },
        {
          "code_insee": "42126",
          "nom": "Luriecq",
          "slug": "luriecq",
          "code_postal": "42380",
          "population": 1238,
          "superficie_km2": 2035.62,
          "latitude": 45.4546,
          "longitude": 4.0724,
          "distance_km": 9.15
        },
        {
          "code_insee": "63104",
          "nom": "La Chaulme",
          "slug": "la-chaulme",
          "code_postal": "63660",
          "population": 118,
          "superficie_km2": 1354.65,
          "latitude": 45.472,
          "longitude": 3.9556,
          "distance_km": 9.23
        },
        {
          "code_insee": "43249",
          "nom": "Valprivas",
          "slug": "valprivas",
          "code_postal": "43210",
          "population": 553,
          "superficie_km2": 2239.24,
          "latitude": 45.3209,
          "longitude": 4.0511,
          "distance_km": 9.23
        },
        {
          "code_insee": "42140",
          "nom": "Marols",
          "slug": "marols",
          "code_postal": "42560",
          "population": 462,
          "superficie_km2": 1494.0,
          "latitude": 45.4726,
          "longitude": 4.0372,
          "distance_km": 9.42
        },
        {
          "code_insee": "63465",
          "nom": "Viverols",
          "slug": "viverols",
          "code_postal": "63840",
          "population": 442,
          "superficie_km2": 1256.2,
          "latitude": 45.431,
          "longitude": 3.8793,
          "distance_km": 9.87
        },
        {
          "code_insee": "43201",
          "nom": "Saint-Julien-d'Ance",
          "slug": "saint-julien-d-ance",
          "code_postal": "43500",
          "population": 245,
          "superficie_km2": 1801.46,
          "latitude": 45.306,
          "longitude": 3.9302,
          "distance_km": 10.93
        },
        {
          "code_insee": "43246",
          "nom": "Tiranges",
          "slug": "tiranges",
          "code_postal": "43530",
          "population": 453,
          "superficie_km2": 2699.43,
          "latitude": 45.2875,
          "longitude": 4.0154,
          "distance_km": 11.91
        },
        {
          "code_insee": "42240",
          "nom": "Saint-Jean-Soleymieux",
          "slug": "saint-jean-soleymieux",
          "code_postal": "42560",
          "population": 840,
          "superficie_km2": 1656.86,
          "latitude": 45.5061,
          "longitude": 4.0098,
          "distance_km": 12.58
        }
      ],
      "zonage_abc": "C",
      "reclassement_abc": "Non",
      "codes_postaux": [
        {
          "code_postal": "42550",
          "libelle_acheminement": "APINAC"
        }
      ],
      "logement": {
        "logements_total": 359,
        "residences_principales": 215,
        "logements_vacants": 43,
        "residences_secondaires": 100,
        "maisons": 328,
        "appartements": 23,
        "proprietaires": 169,
        "locataires": 37,
        "hlm": 3,
        "construits_avant_1919": 76,
        "construits_1919_1945": 22,
        "construits_1946_1970": 25,
        "construits_1971_1990": 41,
        "construits_1991_2005": 27,
        "construits_2006_2019": 18,
        "chauffage_electrique": 40,
        "chauffage_fioul": 60,
        "chauffage_gaz_ville": 0,
        "chauffage_gaz_bouteille": 5,
        "chauffage_autre": 108,
        "menages": 215,
        "logements_avant_1990": 164
      },
      "artisans": {
        "monte_escalier": 0,
        "chauffage_pac_clim": 0,
        "isolation": 1,
        "menuiserie": 4,
        "fenetres_velux": 4,
        "couverture_toiture": 2,
        "facade_peinture": 0,
        "portes_volets": 4,
        "piscine": 0,
        "vmc_ventilation": 0,
        "assainissement": 1
      },
      "revenus": {
        "revenu_median": 19820.0,
        "part_menages_imposes": null,
        "taux_pauvrete": null
      },
      "aides_etat": {
        "zone_climatique": "H1",
        "qpv": false,
        "action_coeur_de_ville": false,
        "petites_villes_de_demain": false
      }
    },
    {
      "code_insee": "42007",
      "nom": "Arcinges",
      "nom_a": null,
      "nom_de": null,
      "slug": "arcinges",
      "code_postal": "42460",
      "population": 216,
      "superficie_km2": 343.66,
      "latitude": 46.1351,
      "longitude": 4.2877,
      "villes_proches": [
        {
          "code_insee": "42033",
          "nom": "Le Cergne",
          "slug": "le-cergne",
          "code_postal": "42460",
          "population": 622,
          "superficie_km2": 591.43,
          "latitude": 46.12,
          "longitude": 4.3015,
          "distance_km": 1.99
        },
        {
          "code_insee": "42079",
          "nom": "Cuinzier",
          "slug": "cuinzier",
          "code_postal": "42460",
          "population": 707,
          "superficie_km2": 562.11,
          "latitude": 46.124,
          "longitude": 4.2649,
          "distance_km": 2.15
        },
        {
          "code_insee": "42086",
          "nom": "Écoche",
          "slug": "ecoche",
          "code_postal": "42670",
          "population": 525,
          "superficie_km2": 1111.83,
          "latitude": 46.1524,
          "longitude": 4.3077,
          "distance_km": 2.46
        },
        {
          "code_insee": "42141",
          "nom": "Mars",
          "slug": "mars",
          "code_postal": "42750",
          "population": 555,
          "superficie_km2": 1216.17,
          "latitude": 46.1498,
          "longitude": 4.2526,
          "distance_km": 3.16
        },
        {
          "code_insee": "42300",
          "nom": "Sevelinges",
          "slug": "sevelinges",
          "code_postal": "42460",
          "population": 646,
          "superficie_km2": 817.01,
          "latitude": 46.0979,
          "longitude": 4.2839,
          "distance_km": 4.15
        },
        {
          "code_insee": "71148",
          "nom": "Coublanc",
          "slug": "coublanc",
          "code_postal": "71170",
          "population": 838,
          "superficie_km2": 879.33,
          "latitude": 46.1719,
          "longitude": 4.2759,
          "distance_km": 4.19
        },
        {
          "code_insee": "42333",
          "nom": "Villers",
          "slug": "villers",
          "code_postal": "42460",
          "population": 602,
          "superficie_km2": 583.15,
          "latitude": 46.1247,
          "longitude": 4.2254,
          "distance_km": 4.94
        },
        {
          "code_insee": "42112",
          "nom": "Jarnosse",
          "slug": "jarnosse",
          "code_postal": "42460",
          "population": 410,
          "superficie_km2": 1203.38,
          "latitude": 46.0984,
          "longitude": 4.2418,
          "distance_km": 5.4
        },
        {
          "code_insee": "42015",
          "nom": "Belmont-de-la-Loire",
          "slug": "belmont-de-la-loire",
          "code_postal": "42670",
          "population": 1410,
          "superficie_km2": 2383.64,
          "latitude": 46.1612,
          "longitude": 4.3493,
          "distance_km": 5.56
        },
        {
          "code_insee": "42131",
          "nom": "Maizilly",
          "slug": "maizilly",
          "code_postal": "42750",
          "population": 317,
          "superficie_km2": 515.14,
          "latitude": 46.177,
          "longitude": 4.2428,
          "distance_km": 5.8
        },
        {
          "code_insee": "71428",
          "nom": "Saint-Igny-de-Roche",
          "slug": "saint-igny-de-roche",
          "code_postal": "71170",
          "population": 789,
          "superficie_km2": 798.03,
          "latitude": 46.1878,
          "longitude": 4.303,
          "distance_km": 5.98
        },
        {
          "code_insee": "69066",
          "nom": "Cours",
          "slug": "cours",
          "code_postal": "69470",
          "population": 4306,
          "superficie_km2": 3380.36,
          "latitude": 46.0968,
          "longitude": 4.3445,
          "distance_km": 6.11
        },
        {
          "code_insee": "42104",
          "nom": "La Gresle",
          "slug": "la-gresle",
          "code_postal": "42460",
          "population": 857,
          "superficie_km2": 1479.49,
          "latitude": 46.0752,
          "longitude": 4.2727,
          "distance_km": 6.76
        },
        {
          "code_insee": "42048",
          "nom": "Chandon",
          "slug": "chandon",
          "code_postal": "42190",
          "population": 1423,
          "superficie_km2": 1262.39,
          "latitude": 46.1484,
          "longitude": 4.1998,
          "distance_km": 6.93
        },
        {
          "code_insee": "42025",
          "nom": "Boyer",
          "slug": "boyer",
          "code_postal": "42460",
          "population": 195,
          "superficie_km2": 523.35,
          "latitude": 46.0979,
          "longitude": 4.2154,
          "distance_km": 6.94
        },
        {
          "code_insee": "71533",
          "nom": "Tancon",
          "slug": "tancon",
          "code_postal": "71740",
          "population": 570,
          "superficie_km2": 949.28,
          "latitude": 46.2014,
          "longitude": 4.2616,
          "distance_km": 7.64
        },
        {
          "code_insee": "71451",
          "nom": "Saint-Martin-de-Lixy",
          "slug": "saint-martin-de-lixy",
          "code_postal": "71740",
          "population": 91,
          "superficie_km2": 423.75,
          "latitude": 46.1956,
          "longitude": 4.2379,
          "distance_km": 7.74
        },
        {
          "code_insee": "71113",
          "nom": "Châteauneuf",
          "slug": "chateauneuf",
          "code_postal": "71740",
          "population": 88,
          "superficie_km2": 133.21,
          "latitude": 46.2104,
          "longitude": 4.2607,
          "distance_km": 8.63
        },
        {
          "code_insee": "71120",
          "nom": "Chauffailles",
          "slug": "chauffailles",
          "code_postal": "71170",
          "population": 3638,
          "superficie_km2": 2276.15,
          "latitude": 46.2055,
          "longitude": 4.3418,
          "distance_km": 8.87
        },
        {
          "code_insee": "69248",
          "nom": "Thizy-les-Bourgs",
          "slug": "thizy-les-bourgs",
          "code_postal": "69240",
          "population": 5771,
          "superficie_km2": 4453.8,
          "latitude": 46.0505,
          "longitude": 4.3109,
          "distance_km": 9.58
        }
      ],
      "zonage_abc": "C",
      "reclassement_abc": "Non",
      "codes_postaux": [
        {
          "code_postal": "42460",
          "libelle_acheminement": "ARCINGES"
        }
      ],
      "logement": {
        "logements_total": 124,
        "residences_principales": 88,
        "logements_vacants": 4,
        "residences_secondaires": 32,
        "maisons": 122,
        "appartements": 2,
        "proprietaires": 75,
        "locataires": 11,
        "hlm": 1,
        "construits_avant_1919": 40,
        "construits_1919_1945": 10,
        "construits_1946_1970": 8,
        "construits_1971_1990": 5,
        "construits_1991_2005": 9,
        "construits_2006_2019": 16,
        "chauffage_electrique": 18,
        "chauffage_fioul": 15,
        "chauffage_gaz_ville": 0,
        "chauffage_gaz_bouteille": 5,
        "chauffage_autre": 50,
        "menages": 88,
        "logements_avant_1990": 63
      },
      "artisans": {
        "monte_escalier": 0,
        "chauffage_pac_clim": 0,
        "isolation": 0,
        "menuiserie": 1,
        "fenetres_velux": 1,
        "couverture_toiture": 0,
        "facade_peinture": 0,
        "portes_volets": 1,
        "piscine": 0,
        "vmc_ventilation": 0,
        "assainissement": 0
      },
      "revenus": {
        "revenu_median": 21740.0,
        "part_menages_imposes": null,
        "taux_pauvrete": null
      },
      "aides_etat": {
        "zone_climatique": "H1",
        "qpv": false,
        "action_coeur_de_ville": false,
        "petites_villes_de_demain": false
      }
    },
    {
      "code_insee": "42008",
      "nom": "Arcon",
      "nom_a": null,
      "nom_de": null,
      "slug": "arcon",
      "code_postal": "42370",
      "population": 106,
      "superficie_km2": 1918.63,
      "latitude": 46.0091,
      "longitude": 3.8669,
      "villes_proches": [
        {
          "code_insee": "42158",
          "nom": "Les Noës",
          "slug": "les-noes",
          "code_postal": "42370",
          "population": 209,
          "superficie_km2": 1564.63,
          "latitude": 46.0304,
          "longitude": 3.8368,
          "distance_km": 3.32
        },
        {
          "code_insee": "42061",
          "nom": "Cherier",
          "slug": "cherier",
          "code_postal": "42430",
          "population": 523,
          "superficie_km2": 2879.48,
          "latitude": 45.9686,
          "longitude": 3.8858,
          "distance_km": 4.73
        },
        {
          "code_insee": "42198",
          "nom": "Saint-Alban-les-Eaux",
          "slug": "saint-alban-les-eaux",
          "code_postal": "42370",
          "population": 912,
          "superficie_km2": 786.74,
          "latitude": 46.0056,
          "longitude": 3.9309,
          "distance_km": 4.96
        },
        {
          "code_insee": "42182",
          "nom": "Renaison",
          "slug": "renaison",
          "code_postal": "42370",
          "population": 3231,
          "superficie_km2": 2337.46,
          "latitude": 46.0454,
          "longitude": 3.911,
          "distance_km": 5.28
        },
        {
          "code_insee": "42199",
          "nom": "Saint-André-d'Apchon",
          "slug": "saint-andre-d-apchon",
          "code_postal": "42370",
          "population": 1966,
          "superficie_km2": 1355.72,
          "latitude": 46.0275,
          "longitude": 3.9325,
          "distance_km": 5.46
        },
        {
          "code_insee": "42331",
          "nom": "Villemontais",
          "slug": "villemontais",
          "code_postal": "42155",
          "population": 1042,
          "superficie_km2": 1320.24,
          "latitude": 45.9812,
          "longitude": 3.932,
          "distance_km": 5.91
        },
        {
          "code_insee": "42314",
          "nom": "La Tuilière",
          "slug": "la-tuiliere",
          "code_postal": "42830",
          "population": 273,
          "superficie_km2": 3161.68,
          "latitude": 45.9589,
          "longitude": 3.8129,
          "distance_km": 6.97
        },
        {
          "code_insee": "42232",
          "nom": "Saint-Haon-le-Châtel",
          "slug": "saint-haon-le-chatel",
          "code_postal": "42370",
          "population": 625,
          "superficie_km2": 87.53,
          "latitude": 46.0662,
          "longitude": 3.9172,
          "distance_km": 7.44
        },
        {
          "code_insee": "42281",
          "nom": "Saint-Rirand",
          "slug": "saint-rirand",
          "code_postal": "42370",
          "population": 132,
          "superficie_km2": 1655.32,
          "latitude": 46.0737,
          "longitude": 3.8372,
          "distance_km": 7.54
        },
        {
          "code_insee": "42233",
          "nom": "Saint-Haon-le-Vieux",
          "slug": "saint-haon-le-vieux",
          "code_postal": "42370",
          "population": 953,
          "superficie_km2": 1646.81,
          "latitude": 46.0733,
          "longitude": 3.9019,
          "distance_km": 7.63
        },
        {
          "code_insee": "03139",
          "nom": "Laprugne",
          "slug": "laprugne",
          "code_postal": "03250",
          "population": 308,
          "superficie_km2": 3466.02,
          "latitude": 45.9941,
          "longitude": 3.768,
          "distance_km": 7.82
        },
        {
          "code_insee": "03248",
          "nom": "Saint-Nicolas-des-Biefs",
          "slug": "saint-nicolas-des-biefs",
          "code_postal": "03250",
          "population": 146,
          "superficie_km2": 2908.36,
          "latitude": 46.0569,
          "longitude": 3.7909,
          "distance_km": 7.92
        },
        {
          "code_insee": "42120",
          "nom": "Lentigny",
          "slug": "lentigny",
          "code_postal": "42155",
          "population": 1794,
          "superficie_km2": 1150.24,
          "latitude": 45.993,
          "longitude": 3.9756,
          "distance_km": 8.58
        },
        {
          "code_insee": "03050",
          "nom": "La Chabanne",
          "slug": "la-chabanne",
          "code_postal": "03250",
          "population": 169,
          "superficie_km2": 2015.37,
          "latitude": 46.0268,
          "longitude": 3.7526,
          "distance_km": 9.04
        },
        {
          "code_insee": "42176",
          "nom": "Pouilly-les-Nonains",
          "slug": "pouilly-les-nonains",
          "code_postal": "42155",
          "population": 2120,
          "superficie_km2": 1042.59,
          "latitude": 46.0435,
          "longitude": 3.9794,
          "distance_km": 9.49
        },
        {
          "code_insee": "42248",
          "nom": "Saint-Just-en-Chevalet",
          "slug": "saint-just-en-chevalet",
          "code_postal": "42430",
          "population": 1169,
          "superficie_km2": 2920.05,
          "latitude": 45.9255,
          "longitude": 3.834,
          "distance_km": 9.64
        },
        {
          "code_insee": "42003",
          "nom": "Ambierle",
          "slug": "ambierle",
          "code_postal": "42820",
          "population": 1865,
          "superficie_km2": 3081.45,
          "latitude": 46.1068,
          "longitude": 3.8953,
          "distance_km": 11.08
        },
        {
          "code_insee": "42076",
          "nom": "Cremeaux",
          "slug": "cremeaux",
          "code_postal": "42260",
          "population": 914,
          "superficie_km2": 3336.69,
          "latitude": 45.9144,
          "longitude": 3.9234,
          "distance_km": 11.4
        },
        {
          "code_insee": "42116",
          "nom": "Juré",
          "slug": "jure",
          "code_postal": "42430",
          "population": 242,
          "superficie_km2": 1214.43,
          "latitude": 45.8912,
          "longitude": 3.8988,
          "distance_km": 13.34
        },
        {
          "code_insee": "42203",
          "nom": "Saint-Bonnet-des-Quarts",
          "slug": "saint-bonnet-des-quarts",
          "code_postal": "42310",
          "population": 340,
          "superficie_km2": 3290.67,
          "latitude": 46.1272,
          "longitude": 3.8304,
          "distance_km": 13.43
        }
      ],
      "zonage_abc": "C",
      "reclassement_abc": "Non",
      "codes_postaux": [
        {
          "code_postal": "42370",
          "libelle_acheminement": "ARCON"
        }
      ],
      "logement": {
        "logements_total": 96,
        "residences_principales": 56,
        "logements_vacants": 15,
        "residences_secondaires": 25,
        "maisons": 90,
        "appartements": 6,
        "proprietaires": 42,
        "locataires": 11,
        "hlm": 0,
        "construits_avant_1919": 34,
        "construits_1919_1945": 4,
        "construits_1946_1970": 5,
        "construits_1971_1990": 3,
        "construits_1991_2005": 5,
        "construits_2006_2019": 2,
        "chauffage_electrique": 6,
        "chauffage_fioul": 9,
        "chauffage_gaz_ville": 0,
        "chauffage_gaz_bouteille": 2,
        "chauffage_autre": 37,
        "menages": 56,
        "logements_avant_1990": 46
      },
      "artisans": {
        "monte_escalier": 0,
        "chauffage_pac_clim": 0,
        "isolation": 0,
        "menuiserie": 0,
        "fenetres_velux": 0,
        "couverture_toiture": 0,
        "facade_peinture": 0,
        "portes_volets": 0,
        "piscine": 0,
        "vmc_ventilation": 0,
        "assainissement": 0
      },
      "revenus": {
        "revenu_median": 19340.0,
        "part_menages_imposes": null,
        "taux_pauvrete": null
      },
      "aides_etat": {
        "zone_climatique": "H1",
        "qpv": false,
        "action_coeur_de_ville": false,
        "petites_villes_de_demain": false
      }
    },
    {
      "code_insee": "42009",
      "nom": "Arthun",
      "nom_a": null,
      "nom_de": null,
      "slug": "arthun",
      "code_postal": "42130",
      "population": 532,
      "superficie_km2": 1393.84,
      "latitude": 45.7653,
      "longitude": 4.0369,
      "villes_proches": [
        {
          "code_insee": "42197",
          "nom": "Sainte-Agathe-la-Bouteresse",
          "slug": "sainte-agathe-la-bouteresse",
          "code_postal": "42130",
          "population": 1065,
          "superficie_km2": 1165.44,
          "latitude": 45.7456,
          "longitude": 4.0478,
          "distance_km": 2.35
        },
        {
          "code_insee": "42019",
          "nom": "Boën-sur-Lignon",
          "slug": "boen-sur-lignon",
          "code_postal": "42130",
          "population": 3001,
          "superficie_km2": 596.87,
          "latitude": 45.7496,
          "longitude": 4.0074,
          "distance_km": 2.88
        },
        {
          "code_insee": "42030",
          "nom": "Bussy-Albieux",
          "slug": "bussy-albieux",
          "code_postal": "42260",
          "population": 547,
          "superficie_km2": 1961.32,
          "latitude": 45.7955,
          "longitude": 4.0341,
          "distance_km": 3.37
        },
        {
          "code_insee": "42119",
          "nom": "Leigneux",
          "slug": "leigneux",
          "code_postal": "42130",
          "population": 359,
          "superficie_km2": 447.68,
          "latitude": 45.7444,
          "longitude": 3.9868,
          "distance_km": 4.53
        },
        {
          "code_insee": "42313",
          "nom": "Trelins",
          "slug": "trelins",
          "code_postal": "42130",
          "population": 682,
          "superficie_km2": 825.91,
          "latitude": 45.7243,
          "longitude": 4.004,
          "distance_km": 5.23
        },
        {
          "code_insee": "42288",
          "nom": "Saint-Sixte",
          "slug": "saint-sixte",
          "code_postal": "42130",
          "population": 669,
          "superficie_km2": 1548.44,
          "latitude": 45.7728,
          "longitude": 3.9695,
          "distance_km": 5.29
        },
        {
          "code_insee": "42219",
          "nom": "Saint-Étienne-le-Molard",
          "slug": "saint-etienne-le-molard",
          "code_postal": "42130",
          "population": 1033,
          "superficie_km2": 1660.9,
          "latitude": 45.743,
          "longitude": 4.0997,
          "distance_km": 5.47
        },
        {
          "code_insee": "42221",
          "nom": "Sainte-Foy-Saint-Sulpice",
          "slug": "sainte-foy-saint-sulpice",
          "code_postal": "42110",
          "population": 568,
          "superficie_km2": 2936.2,
          "latitude": 45.7759,
          "longitude": 4.1086,
          "distance_km": 5.68
        },
        {
          "code_insee": "42195",
          "nom": "Sail-sous-Couzan",
          "slug": "sail-sous-couzan",
          "code_postal": "42890",
          "population": 997,
          "superficie_km2": 755.71,
          "latitude": 45.7367,
          "longitude": 3.9601,
          "distance_km": 6.75
        },
        {
          "code_insee": "42160",
          "nom": "Nollieux",
          "slug": "nollieux",
          "code_postal": "42260",
          "population": 184,
          "superficie_km2": 702.51,
          "latitude": 45.8187,
          "longitude": 3.9899,
          "distance_km": 6.97
        },
        {
          "code_insee": "42035",
          "nom": "Cezay",
          "slug": "cezay",
          "code_postal": "42130",
          "population": 211,
          "superficie_km2": 1050.53,
          "latitude": 45.8048,
          "longitude": 3.9667,
          "distance_km": 6.99
        },
        {
          "code_insee": "42150",
          "nom": "Montverdun",
          "slug": "montverdun",
          "code_postal": "42130",
          "population": 1283,
          "superficie_km2": 1662.7,
          "latitude": 45.7088,
          "longitude": 4.0785,
          "distance_km": 7.06
        },
        {
          "code_insee": "42136",
          "nom": "Marcoux",
          "slug": "marcoux",
          "code_postal": "42130",
          "population": 781,
          "superficie_km2": 1546.55,
          "latitude": 45.7037,
          "longitude": 3.9959,
          "distance_km": 7.55
        },
        {
          "code_insee": "42230",
          "nom": "Saint-Germain-Laval",
          "slug": "saint-germain-laval",
          "code_postal": "42260",
          "population": 1608,
          "superficie_km2": 1709.07,
          "latitude": 45.833,
          "longitude": 4.0089,
          "distance_km": 7.83
        },
        {
          "code_insee": "42173",
          "nom": "Pommiers-en-Forez",
          "slug": "pommiers-en-forez",
          "code_postal": "42260",
          "population": 378,
          "superficie_km2": 2420.84,
          "latitude": 45.8327,
          "longitude": 4.0785,
          "distance_km": 8.16
        },
        {
          "code_insee": "42134",
          "nom": "Marcilly-le-Châtel",
          "slug": "marcilly-le-chatel",
          "code_postal": "42130",
          "population": 1401,
          "superficie_km2": 1648.02,
          "latitude": 45.6888,
          "longitude": 4.0269,
          "distance_km": 8.54
        },
        {
          "code_insee": "42002",
          "nom": "Ailleux",
          "slug": "ailleux",
          "code_postal": "42130",
          "population": 175,
          "superficie_km2": 932.59,
          "latitude": 45.7981,
          "longitude": 3.9363,
          "distance_km": 8.61
        },
        {
          "code_insee": "42243",
          "nom": "Saint-Julien-d'Oddes",
          "slug": "saint-julien-d-oddes",
          "code_postal": "42260",
          "population": 300,
          "superficie_km2": 1032.8,
          "latitude": 45.851,
          "longitude": 3.9922,
          "distance_km": 10.14
        },
        {
          "code_insee": "42037",
          "nom": "Chalain-d'Uzore",
          "slug": "chalain-d-uzore",
          "code_postal": "42600",
          "population": 696,
          "superficie_km2": 806.9,
          "latitude": 45.6734,
          "longitude": 4.0599,
          "distance_km": 10.37
        },
        {
          "code_insee": "42179",
          "nom": "Pralong",
          "slug": "pralong",
          "code_postal": "42600",
          "population": 842,
          "superficie_km2": 808.14,
          "latitude": 45.661,
          "longitude": 4.0169,
          "distance_km": 11.7
        }
      ],
      "zonage_abc": "C",
      "reclassement_abc": "Non",
      "codes_postaux": [
        {
          "code_postal": "42130",
          "libelle_acheminement": "ARTHUN"
        }
      ],
      "logement": {
        "logements_total": 272,
        "residences_principales": 236,
        "logements_vacants": 12,
        "residences_secondaires": 23,
        "maisons": 268,
        "appartements": 3,
        "proprietaires": 199,
        "locataires": 32,
        "hlm": 0,
        "construits_avant_1919": 62,
        "construits_1919_1945": 17,
        "construits_1946_1970": 25,
        "construits_1971_1990": 53,
        "construits_1991_2005": 22,
        "construits_2006_2019": 48,
        "chauffage_electrique": 77,
        "chauffage_fioul": 41,
        "chauffage_gaz_ville": 1,
        "chauffage_gaz_bouteille": 5,
        "chauffage_autre": 110,
        "menages": 236,
        "logements_avant_1990": 157
      },
      "artisans": {
        "monte_escalier": 0,
        "chauffage_pac_clim": 2,
        "isolation": 1,
        "menuiserie": 2,
        "fenetres_velux": 2,
        "couverture_toiture": 1,
        "facade_peinture": 0,
        "portes_volets": 2,
        "piscine": 0,
        "vmc_ventilation": 0,
        "assainissement": 2
      },
      "revenus": {
        "revenu_median": 22140.0,
        "part_menages_imposes": null,
        "taux_pauvrete": null
      },
      "aides_etat": {
        "zone_climatique": "H1",
        "qpv": false,
        "action_coeur_de_ville": false,
        "petites_villes_de_demain": false
      }
    },
    {
      "code_insee": "42010",
      "nom": "Aveizieux",
      "nom_a": null,
      "nom_de": null,
      "slug": "aveizieux",
      "code_postal": "42330",
      "population": 1686,
      "superficie_km2": 9.0,
      "latitude": 45.5690002,
      "longitude": 4.3790002,
      "villes_proches": [
        {
          "code_insee": "42062",
          "nom": "Chevrières",
          "slug": "chevrieres",
          "code_postal": "42140",
          "population": 1160,
          "superficie_km2": 15.0,
          "latitude": 45.5900002,
          "longitude": 4.408,
          "distance_km": 3.25
        },
        {
          "code_insee": "42234",
          "nom": "Saint-Héand",
          "slug": "saint-heand",
          "code_postal": "42570",
          "population": 3686,
          "superficie_km2": 31.0,
          "latitude": 45.5299988,
          "longitude": 4.382,
          "distance_km": 4.34
        },
        {
          "code_insee": "42043",
          "nom": "Chambœuf",
          "slug": "chamboeuf",
          "code_postal": "42330",
          "population": 1797,
          "superficie_km2": 11.0,
          "latitude": 45.5740013,
          "longitude": 4.322,
          "distance_km": 4.47
        },
        {
          "code_insee": "42206",
          "nom": "Saint-Bonnet-les-Oules",
          "slug": "saint-bonnet-les-oules",
          "code_postal": "42330",
          "population": 1768,
          "superficie_km2": 12.0,
          "latitude": 45.5410004,
          "longitude": 4.3319998,
          "distance_km": 4.8
        },
        {
          "code_insee": "42222",
          "nom": "Saint-Galmier",
          "slug": "saint-galmier",
          "code_postal": "42330",
          "population": 5842,
          "superficie_km2": 20.0,
          "latitude": 45.6030006,
          "longitude": 4.3140001,
          "distance_km": 6.31
        },
        {
          "code_insee": "42059",
          "nom": "Chazelles-sur-Lyon",
          "slug": "chazelles-sur-lyon",
          "code_postal": "42140",
          "population": 5472,
          "superficie_km2": 21.0,
          "latitude": 45.6290016,
          "longitude": 4.3740001,
          "distance_km": 6.68
        },
        {
          "code_insee": "42323",
          "nom": "Veauche",
          "slug": "veauche",
          "code_postal": "42340",
          "population": 8992,
          "superficie_km2": 11.0,
          "latitude": 45.5620003,
          "longitude": 4.29,
          "distance_km": 6.97
        },
        {
          "code_insee": "42208",
          "nom": "Saint-Christo-en-Jarez",
          "slug": "saint-christo-en-jarez",
          "code_postal": "42320",
          "population": 1896,
          "superficie_km2": 22.0,
          "latitude": 45.5359993,
          "longitude": 4.467,
          "distance_km": 7.77
        },
        {
          "code_insee": "42092",
          "nom": "L'Étrat",
          "slug": "l-etrat",
          "code_postal": "42580",
          "population": 2778,
          "superficie_km2": 9.0,
          "latitude": 45.4939995,
          "longitude": 4.3720002,
          "distance_km": 8.36
        },
        {
          "code_insee": "69238",
          "nom": "Saint-Symphorien-sur-Coise",
          "slug": "saint-symphorien-sur-coise",
          "code_postal": "69590",
          "population": 3712,
          "superficie_km2": 4.0,
          "latitude": 45.6310005,
          "longitude": 4.4499998,
          "distance_km": 8.83
        },
        {
          "code_insee": "42005",
          "nom": "Andrézieux-Bouthéon",
          "slug": "andrezieux-boutheon",
          "code_postal": "42160",
          "population": 10187,
          "superficie_km2": 16.0,
          "latitude": 45.5349999,
          "longitude": 4.276,
          "distance_km": 8.87
        },
        {
          "code_insee": "42097",
          "nom": "La Fouillouse",
          "slug": "la-fouillouse",
          "code_postal": "42480",
          "population": 4655,
          "superficie_km2": 21.0,
          "latitude": 45.5009995,
          "longitude": 4.3189998,
          "distance_km": 8.89
        },
        {
          "code_insee": "42302",
          "nom": "Sorbiers",
          "slug": "sorbiers",
          "code_postal": "42290",
          "population": 8042,
          "superficie_km2": 12.0,
          "latitude": 45.5,
          "longitude": 4.4369998,
          "distance_km": 8.9
        },
        {
          "code_insee": "42311",
          "nom": "La Tour-en-Jarez",
          "slug": "la-tour-en-jarez",
          "code_postal": "42580",
          "population": 1473,
          "superficie_km2": 5.0,
          "latitude": 45.487999,
          "longitude": 4.3979998,
          "distance_km": 9.13
        },
        {
          "code_insee": "42013",
          "nom": "Bellegarde-en-Forez",
          "slug": "bellegarde-en-forez",
          "code_postal": "42210",
          "population": 1991,
          "superficie_km2": 19.0,
          "latitude": 45.6409988,
          "longitude": 4.309,
          "distance_km": 9.68
        },
        {
          "code_insee": "42081",
          "nom": "Cuzieu",
          "slug": "cuzieu",
          "code_postal": "42330",
          "population": 1523,
          "superficie_km2": 12.0,
          "latitude": 45.605999,
          "longitude": 4.2659998,
          "distance_km": 9.71
        },
        {
          "code_insee": "42324",
          "nom": "Veauchette",
          "slug": "veauchette",
          "code_postal": "42340",
          "population": 1202,
          "superficie_km2": 8.0,
          "latitude": 45.5620003,
          "longitude": 4.2509999,
          "distance_km": 9.99
        },
        {
          "code_insee": "69155",
          "nom": "Pomeys",
          "slug": "pomeys",
          "code_postal": "69590",
          "population": 1132,
          "superficie_km2": 13.0,
          "latitude": 45.6459999,
          "longitude": 4.4460001,
          "distance_km": 10.02
        },
        {
          "code_insee": "42275",
          "nom": "Saint-Priest-en-Jarez",
          "slug": "saint-priest-en-jarez",
          "code_postal": "42270",
          "population": 6164,
          "superficie_km2": 3.0,
          "latitude": 45.4749985,
          "longitude": 4.3730001,
          "distance_km": 10.46
        },
        {
          "code_insee": "42305",
          "nom": "La Talaudière",
          "slug": "la-talaudiere",
          "code_postal": "42350",
          "population": 7073,
          "superficie_km2": 8.0,
          "latitude": 45.4780006,
          "longitude": 4.4239998,
          "distance_km": 10.71
        }
      ],
      "zonage_abc": "C",
      "reclassement_abc": "Non",
      "codes_postaux": [
        {
          "code_postal": "42330",
          "libelle_acheminement": "AVEIZIEUX"
        }
      ],
      "logement": {
        "logements_total": 755,
        "residences_principales": 686,
        "logements_vacants": 43,
        "residences_secondaires": 25,
        "maisons": 685,
        "appartements": 67,
        "proprietaires": 577,
        "locataires": 101,
        "hlm": 11,
        "construits_avant_1919": 115,
        "construits_1919_1945": 58,
        "construits_1946_1970": 61,
        "construits_1971_1990": 182,
        "construits_1991_2005": 84,
        "construits_2006_2019": 165,
        "chauffage_electrique": 236,
        "chauffage_fioul": 134,
        "chauffage_gaz_ville": 112,
        "chauffage_gaz_bouteille": 13,
        "chauffage_autre": 189,
        "menages": 686,
        "logements_avant_1990": 416
      },
      "artisans": {
        "monte_escalier": 0,
        "chauffage_pac_clim": 3,
        "isolation": 3,
        "menuiserie": 6,
        "fenetres_velux": 6,
        "couverture_toiture": 1,
        "facade_peinture": 2,
        "portes_volets": 6,
        "piscine": 0,
        "vmc_ventilation": 2,
        "assainissement": 1
      },
      "revenus": {
        "revenu_median": 25150.0,
        "part_menages_imposes": null,
        "taux_pauvrete": null
      },
      "aides_etat": {
        "zone_climatique": "H1",
        "qpv": false,
        "action_coeur_de_ville": false,
        "petites_villes_de_demain": false
      }
    },
    {
      "code_insee": "42011",
      "nom": "Balbigny",
      "nom_a": null,
      "nom_de": null,
      "slug": "balbigny",
      "code_postal": "42510",
      "population": 2848,
      "superficie_km2": 17.0,
      "latitude": 45.8300018,
      "longitude": 4.1830001,
      "villes_proches": [
        {
          "code_insee": "42155",
          "nom": "Nervieux",
          "slug": "nervieux",
          "code_postal": "42510",
          "population": 1016,
          "superficie_km2": 20.0,
          "latitude": 45.8120003,
          "longitude": 4.1420002,
          "distance_km": 3.76
        },
        {
          "code_insee": "42175",
          "nom": "Pouilly-lès-Feurs",
          "slug": "pouilly-les-feurs",
          "code_postal": "42110",
          "population": 1206,
          "superficie_km2": 13.0,
          "latitude": 45.8009987,
          "longitude": 4.2329998,
          "distance_km": 5.04
        },
        {
          "code_insee": "42029",
          "nom": "Bussières",
          "slug": "bussieres",
          "code_postal": "42510",
          "population": 1521,
          "superficie_km2": 17.0,
          "latitude": 45.8400002,
          "longitude": 4.2639999,
          "distance_km": 6.37
        },
        {
          "code_insee": "42193",
          "nom": "Rozier-en-Donzy",
          "slug": "rozier-en-donzy",
          "code_postal": "42810",
          "population": 1422,
          "superficie_km2": 10.0,
          "latitude": 45.8040009,
          "longitude": 4.2729998,
          "distance_km": 7.55
        },
        {
          "code_insee": "42156",
          "nom": "Neulise",
          "slug": "neulise",
          "code_postal": "42590",
          "population": 1367,
          "superficie_km2": 23.0,
          "latitude": 45.9000015,
          "longitude": 4.1680002,
          "distance_km": 7.87
        },
        {
          "code_insee": "42249",
          "nom": "Saint-Just-la-Pendue",
          "slug": "saint-just-la-pendue",
          "code_postal": "42540",
          "population": 1652,
          "superficie_km2": 20.0,
          "latitude": 45.8880005,
          "longitude": 4.2420001,
          "distance_km": 7.9
        },
        {
          "code_insee": "42065",
          "nom": "Civens",
          "slug": "civens",
          "code_postal": "42110",
          "population": 1432,
          "superficie_km2": 13.0,
          "latitude": 45.7680016,
          "longitude": 4.2340002,
          "distance_km": 7.95
        },
        {
          "code_insee": "42094",
          "nom": "Feurs",
          "slug": "feurs",
          "code_postal": "42110",
          "population": 8338,
          "superficie_km2": 24.0,
          "latitude": 45.7319984,
          "longitude": 4.2230001,
          "distance_km": 11.33
        },
        {
          "code_insee": "42174",
          "nom": "Poncins",
          "slug": "poncins",
          "code_postal": "42110",
          "population": 1218,
          "superficie_km2": 21.0,
          "latitude": 45.7270012,
          "longitude": 4.151,
          "distance_km": 11.72
        },
        {
          "code_insee": "42219",
          "nom": "Saint-Étienne-le-Molard",
          "slug": "saint-etienne-le-molard",
          "code_postal": "42130",
          "population": 1032,
          "superficie_km2": 17.0,
          "latitude": 45.7400017,
          "longitude": 4.0970001,
          "distance_km": 12.03
        },
        {
          "code_insee": "42230",
          "nom": "Saint-Germain-Laval",
          "slug": "saint-germain-laval",
          "code_postal": "42260",
          "population": 1604,
          "superficie_km2": 17.0,
          "latitude": 45.8310013,
          "longitude": 4.02,
          "distance_km": 12.63
        },
        {
          "code_insee": "42289",
          "nom": "Saint-Symphorien-de-Lay",
          "slug": "saint-symphorien-de-lay",
          "code_postal": "42470",
          "population": 1949,
          "superficie_km2": 33.0,
          "latitude": 45.9440002,
          "longitude": 4.217,
          "distance_km": 12.95
        },
        {
          "code_insee": "42334",
          "nom": "Violay",
          "slug": "violay",
          "code_postal": "42780",
          "population": 1215,
          "superficie_km2": 27.0,
          "latitude": 45.8520012,
          "longitude": 4.349,
          "distance_km": 13.09
        },
        {
          "code_insee": "42165",
          "nom": "Panissières",
          "slug": "panissieres",
          "code_postal": "42360",
          "population": 2862,
          "superficie_km2": 26.0,
          "latitude": 45.7939987,
          "longitude": 4.3439999,
          "distance_km": 13.1
        },
        {
          "code_insee": "42197",
          "nom": "Sainte-Agathe-la-Bouteresse",
          "slug": "sainte-agathe-la-bouteresse",
          "code_postal": "42130",
          "population": 1045,
          "superficie_km2": 12.0,
          "latitude": 45.7439995,
          "longitude": 4.0510001,
          "distance_km": 14.01
        },
        {
          "code_insee": "42150",
          "nom": "Montverdun",
          "slug": "montverdun",
          "code_postal": "42130",
          "population": 1322,
          "superficie_km2": 17.0,
          "latitude": 45.7120018,
          "longitude": 4.0770001,
          "distance_km": 15.48
        },
        {
          "code_insee": "42212",
          "nom": "Saint-Cyr-de-Favières",
          "slug": "saint-cyr-de-favieres",
          "code_postal": "42123",
          "population": 1019,
          "superficie_km2": 14.0,
          "latitude": 45.9620018,
          "longitude": 4.105,
          "distance_km": 15.87
        },
        {
          "code_insee": "42019",
          "nom": "Boën-sur-Lignon",
          "slug": "boen-sur-lignon",
          "code_postal": "42130",
          "population": 3029,
          "superficie_km2": 6.0,
          "latitude": 45.7509995,
          "longitude": 4.0089998,
          "distance_km": 16.1
        },
        {
          "code_insee": "69006",
          "nom": "Amplepuis",
          "slug": "amplepuis",
          "code_postal": "69550",
          "population": 4840,
          "superficie_km2": 39.0,
          "latitude": 45.9650002,
          "longitude": 4.3270001,
          "distance_km": 18.7
        },
        {
          "code_insee": "42181",
          "nom": "Régny",
          "slug": "regny",
          "code_postal": "42630",
          "population": 1469,
          "superficie_km2": 14.0,
          "latitude": 45.9970017,
          "longitude": 4.2140002,
          "distance_km": 18.72
        }
      ],
      "zonage_abc": "C",
      "reclassement_abc": "Non",
      "codes_postaux": [
        {
          "code_postal": "42510",
          "libelle_acheminement": "BALBIGNY"
        }
      ],
      "logement": {
        "logements_total": 1432,
        "residences_principales": 1188,
        "logements_vacants": 192,
        "residences_secondaires": 50,
        "maisons": 1105,
        "appartements": 323,
        "proprietaires": 755,
        "locataires": 405,
        "hlm": 93,
        "construits_avant_1919": 134,
        "construits_1919_1945": 101,
        "construits_1946_1970": 213,
        "construits_1971_1990": 287,
        "construits_1991_2005": 213,
        "construits_2006_2019": 239,
        "chauffage_electrique": 325,
        "chauffage_fioul": 159,
        "chauffage_gaz_ville": 467,
        "chauffage_gaz_bouteille": 17,
        "chauffage_autre": 218,
        "menages": 1188,
        "logements_avant_1990": 735
      },
      "artisans": {
        "monte_escalier": 0,
        "chauffage_pac_clim": 3,
        "isolation": 16,
        "menuiserie": 7,
        "fenetres_velux": 7,
        "couverture_toiture": 2,
        "facade_peinture": 5,
        "portes_volets": 7,
        "piscine": 0,
        "vmc_ventilation": 1,
        "assainissement": 2
      },
      "revenus": {
        "revenu_median": 20060.0,
        "part_menages_imposes": 36.0,
        "taux_pauvrete": 14.0
      },
      "aides_etat": {
        "zone_climatique": "H1",
        "qpv": false,
        "action_coeur_de_ville": false,
        "petites_villes_de_demain": true
      }
    },
    {
      "code_insee": "42012",
      "nom": "Bard",
      "nom_a": null,
      "nom_de": null,
      "slug": "bard",
      "code_postal": "42600",
      "population": 700,
      "superficie_km2": 1343.13,
      "latitude": 45.5903,
      "longitude": 3.989,
      "villes_proches": [
        {
          "code_insee": "42328",
          "nom": "Verrières-en-Forez",
          "slug": "verrieres-en-forez",
          "code_postal": "42600",
          "population": 731,
          "superficie_km2": 2115.47,
          "latitude": 45.5672,
          "longitude": 3.9903,
          "distance_km": 2.57
        },
        {
          "code_insee": "42121",
          "nom": "Lérigneux",
          "slug": "lerigneux",
          "code_postal": "42600",
          "population": 173,
          "superficie_km2": 976.35,
          "latitude": 45.5947,
          "longitude": 3.9458,
          "distance_km": 3.4
        },
        {
          "code_insee": "42089",
          "nom": "Essertines-en-Châtelneuf",
          "slug": "essertines-en-chatelneuf",
          "code_postal": "42600",
          "population": 667,
          "superficie_km2": 1513.72,
          "latitude": 45.6205,
          "longitude": 3.9969,
          "distance_km": 3.41
        },
        {
          "code_insee": "42087",
          "nom": "Écotay-l'Olme",
          "slug": "ecotay-l-olme",
          "code_postal": "42600",
          "population": 1334,
          "superficie_km2": 642.82,
          "latitude": 45.5878,
          "longitude": 4.0452,
          "distance_km": 4.38
        },
        {
          "code_insee": "42054",
          "nom": "Châtelneuf",
          "slug": "chatelneuf",
          "code_postal": "42940",
          "population": 354,
          "superficie_km2": 845.66,
          "latitude": 45.6387,
          "longitude": 3.9777,
          "distance_km": 5.45
        },
        {
          "code_insee": "42058",
          "nom": "Chazelles-sur-Lavieu",
          "slug": "chazelles-sur-lavieu",
          "code_postal": "42560",
          "population": 261,
          "superficie_km2": 972.55,
          "latitude": 45.5405,
          "longitude": 3.9988,
          "distance_km": 5.59
        },
        {
          "code_insee": "42188",
          "nom": "Roche-en-Forez",
          "slug": "roche-en-forez",
          "code_postal": "42600",
          "population": 251,
          "superficie_km2": 2304.85,
          "latitude": 45.6176,
          "longitude": 3.9205,
          "distance_km": 6.13
        },
        {
          "code_insee": "42122",
          "nom": "Lézigneux",
          "slug": "lezigneux",
          "code_postal": "42600",
          "population": 1739,
          "superficie_km2": 1482.08,
          "latitude": 45.5601,
          "longitude": 4.0555,
          "distance_km": 6.17
        },
        {
          "code_insee": "42147",
          "nom": "Montbrison",
          "slug": "montbrison",
          "code_postal": "42600",
          "population": 16123,
          "superficie_km2": 1627.45,
          "latitude": 45.6016,
          "longitude": 4.0719,
          "distance_km": 6.57
        },
        {
          "code_insee": "42107",
          "nom": "Gumières",
          "slug": "gumieres",
          "code_postal": "42560",
          "population": 325,
          "superficie_km2": 1610.95,
          "latitude": 45.5294,
          "longitude": 3.9831,
          "distance_km": 6.79
        },
        {
          "code_insee": "42117",
          "nom": "Lavieu",
          "slug": "lavieu",
          "code_postal": "42560",
          "population": 117,
          "superficie_km2": 450.24,
          "latitude": 45.5396,
          "longitude": 4.0413,
          "distance_km": 6.95
        },
        {
          "code_insee": "42046",
          "nom": "Champdieu",
          "slug": "champdieu",
          "code_postal": "42600",
          "population": 2064,
          "superficie_km2": 1807.41,
          "latitude": 45.6394,
          "longitude": 4.0484,
          "distance_km": 7.15
        },
        {
          "code_insee": "63319",
          "nom": "Saint-Anthème",
          "slug": "saint-antheme",
          "code_postal": "63660",
          "population": 716,
          "superficie_km2": 6915.53,
          "latitude": 45.5637,
          "longitude": 3.9014,
          "distance_km": 7.43
        },
        {
          "code_insee": "42290",
          "nom": "Saint-Thomas-la-Garde",
          "slug": "saint-thomas-la-garde",
          "code_postal": "42600",
          "population": 592,
          "superficie_km2": 348.26,
          "latitude": 45.5728,
          "longitude": 4.0847,
          "distance_km": 7.7
        },
        {
          "code_insee": "42179",
          "nom": "Pralong",
          "slug": "pralong",
          "code_postal": "42600",
          "population": 842,
          "superficie_km2": 808.14,
          "latitude": 45.661,
          "longitude": 4.0169,
          "distance_km": 8.16
        },
        {
          "code_insee": "42137",
          "nom": "Margerie-Chantagret",
          "slug": "margerie-chantagret",
          "code_postal": "42560",
          "population": 860,
          "superficie_km2": 784.0,
          "latitude": 45.5265,
          "longitude": 4.0488,
          "distance_km": 8.49
        },
        {
          "code_insee": "42205",
          "nom": "Saint-Bonnet-le-Courreau",
          "slug": "saint-bonnet-le-courreau",
          "code_postal": "42940",
          "population": 677,
          "superficie_km2": 5043.02,
          "latitude": 45.6542,
          "longitude": 3.9131,
          "distance_km": 9.24
        },
        {
          "code_insee": "42240",
          "nom": "Saint-Jean-Soleymieux",
          "slug": "saint-jean-soleymieux",
          "code_postal": "42560",
          "population": 840,
          "superficie_km2": 1656.86,
          "latitude": 45.5061,
          "longitude": 4.0098,
          "distance_km": 9.5
        },
        {
          "code_insee": "63331",
          "nom": "Saint-Clément-de-Valorgue",
          "slug": "saint-clement-de-valorgue",
          "code_postal": "63660",
          "population": 239,
          "superficie_km2": 1344.55,
          "latitude": 45.498,
          "longitude": 3.9335,
          "distance_km": 11.14
        },
        {
          "code_insee": "42134",
          "nom": "Marcilly-le-Châtel",
          "slug": "marcilly-le-chatel",
          "code_postal": "42130",
          "population": 1401,
          "superficie_km2": 1648.02,
          "latitude": 45.6888,
          "longitude": 4.0269,
          "distance_km": 11.34
        }
      ],
      "zonage_abc": "C",
      "reclassement_abc": "Non",
      "codes_postaux": [
        {
          "code_postal": "42600",
          "libelle_acheminement": "BARD"
        }
      ],
      "logement": {
        "logements_total": 344,
        "residences_principales": 285,
        "logements_vacants": 26,
        "residences_secondaires": 32,
        "maisons": 336,
        "appartements": 5,
        "proprietaires": 263,
        "locataires": 14,
        "hlm": 0,
        "construits_avant_1919": 65,
        "construits_1919_1945": 12,
        "construits_1946_1970": 21,
        "construits_1971_1990": 77,
        "construits_1991_2005": 45,
        "construits_2006_2019": 62,
        "chauffage_electrique": 67,
        "chauffage_fioul": 79,
        "chauffage_gaz_ville": 0,
        "chauffage_gaz_bouteille": 7,
        "chauffage_autre": 129,
        "menages": 285,
        "logements_avant_1990": 175
      },
      "artisans": {
        "monte_escalier": 0,
        "chauffage_pac_clim": 2,
        "isolation": 0,
        "menuiserie": 2,
        "fenetres_velux": 2,
        "couverture_toiture": 0,
        "facade_peinture": 0,
        "portes_volets": 2,
        "piscine": 0,
        "vmc_ventilation": 1,
        "assainissement": 1
      },
      "revenus": {
        "revenu_median": 23700.0,
        "part_menages_imposes": null,
        "taux_pauvrete": null
      },
      "aides_etat": {
        "zone_climatique": "H1",
        "qpv": false,
        "action_coeur_de_ville": false,
        "petites_villes_de_demain": false
      }
    },
    {
      "code_insee": "42013",
      "nom": "Bellegarde-en-Forez",
      "nom_a": null,
      "nom_de": null,
      "slug": "bellegarde-en-forez",
      "code_postal": "42210",
      "population": 1991,
      "superficie_km2": 19.0,
      "latitude": 45.6409988,
      "longitude": 4.309,
      "villes_proches": [
        {
          "code_insee": "42200",
          "nom": "Saint-André-le-Puy",
          "slug": "saint-andre-le-puy",
          "code_postal": "42210",
          "population": 1515,
          "superficie_km2": 9.0,
          "latitude": 45.6469994,
          "longitude": 4.2639999,
          "distance_km": 3.56
        },
        {
          "code_insee": "42222",
          "nom": "Saint-Galmier",
          "slug": "saint-galmier",
          "code_postal": "42330",
          "population": 5842,
          "superficie_km2": 20.0,
          "latitude": 45.6030006,
          "longitude": 4.3140001,
          "distance_km": 4.24
        },
        {
          "code_insee": "42214",
          "nom": "Saint-Cyr-les-Vignes",
          "slug": "saint-cyr-les-vignes",
          "code_postal": "42210",
          "population": 1057,
          "superficie_km2": 19.0,
          "latitude": 45.6769981,
          "longitude": 4.289,
          "distance_km": 4.29
        },
        {
          "code_insee": "42081",
          "nom": "Cuzieu",
          "slug": "cuzieu",
          "code_postal": "42330",
          "population": 1523,
          "superficie_km2": 12.0,
          "latitude": 45.605999,
          "longitude": 4.2659998,
          "distance_km": 5.13
        },
        {
          "code_insee": "42059",
          "nom": "Chazelles-sur-Lyon",
          "slug": "chazelles-sur-lyon",
          "code_postal": "42140",
          "population": 5472,
          "superficie_km2": 21.0,
          "latitude": 45.6290016,
          "longitude": 4.3740001,
          "distance_km": 5.23
        },
        {
          "code_insee": "42149",
          "nom": "Montrond-les-Bains",
          "slug": "montrond-les-bains",
          "code_postal": "42210",
          "population": 5550,
          "superficie_km2": 10.0,
          "latitude": 45.6349983,
          "longitude": 4.2410002,
          "distance_km": 5.33
        },
        {
          "code_insee": "42043",
          "nom": "Chambœuf",
          "slug": "chamboeuf",
          "code_postal": "42330",
          "population": 1797,
          "superficie_km2": 11.0,
          "latitude": 45.5740013,
          "longitude": 4.322,
          "distance_km": 7.52
        },
        {
          "code_insee": "42020",
          "nom": "Boisset-lès-Montrond",
          "slug": "boisset-les-montrond",
          "code_postal": "42210",
          "population": 1199,
          "superficie_km2": 8.0,
          "latitude": 45.625,
          "longitude": 4.2080002,
          "distance_km": 8.05
        },
        {
          "code_insee": "42323",
          "nom": "Veauche",
          "slug": "veauche",
          "code_postal": "42340",
          "population": 8992,
          "superficie_km2": 11.0,
          "latitude": 45.5620003,
          "longitude": 4.29,
          "distance_km": 8.91
        },
        {
          "code_insee": "42062",
          "nom": "Chevrières",
          "slug": "chevrieres",
          "code_postal": "42140",
          "population": 1160,
          "superficie_km2": 15.0,
          "latitude": 45.5900002,
          "longitude": 4.408,
          "distance_km": 9.56
        },
        {
          "code_insee": "42010",
          "nom": "Aveizieux",
          "slug": "aveizieux",
          "code_postal": "42330",
          "population": 1686,
          "superficie_km2": 9.0,
          "latitude": 45.5690002,
          "longitude": 4.3790002,
          "distance_km": 9.68
        },
        {
          "code_insee": "42075",
          "nom": "Craintilleux",
          "slug": "craintilleux",
          "code_postal": "42210",
          "population": 1349,
          "superficie_km2": 8.0,
          "latitude": 45.5740013,
          "longitude": 4.2259998,
          "distance_km": 9.86
        },
        {
          "code_insee": "42324",
          "nom": "Veauchette",
          "slug": "veauchette",
          "code_postal": "42340",
          "population": 1202,
          "superficie_km2": 8.0,
          "latitude": 45.5620003,
          "longitude": 4.2509999,
          "distance_km": 9.88
        },
        {
          "code_insee": "42108",
          "nom": "L'Hôpital-le-Grand",
          "slug": "l-hopital-le-grand",
          "code_postal": "42210",
          "population": 1092,
          "superficie_km2": 13.0,
          "latitude": 45.5919991,
          "longitude": 4.197,
          "distance_km": 10.27
        },
        {
          "code_insee": "69155",
          "nom": "Pomeys",
          "slug": "pomeys",
          "code_postal": "69590",
          "population": 1132,
          "superficie_km2": 13.0,
          "latitude": 45.6459999,
          "longitude": 4.4460001,
          "distance_km": 10.66
        },
        {
          "code_insee": "69238",
          "nom": "Saint-Symphorien-sur-Coise",
          "slug": "saint-symphorien-sur-coise",
          "code_postal": "69590",
          "population": 3712,
          "superficie_km2": 4.0,
          "latitude": 45.6310005,
          "longitude": 4.4499998,
          "distance_km": 11.02
        },
        {
          "code_insee": "69099",
          "nom": "Haute-Rivoire",
          "slug": "haute-rivoire",
          "code_postal": "69610",
          "population": 1431,
          "superficie_km2": 21.0,
          "latitude": 45.7140007,
          "longitude": 4.4060001,
          "distance_km": 11.08
        },
        {
          "code_insee": "42206",
          "nom": "Saint-Bonnet-les-Oules",
          "slug": "saint-bonnet-les-oules",
          "code_postal": "42330",
          "population": 1768,
          "superficie_km2": 12.0,
          "latitude": 45.5410004,
          "longitude": 4.3319998,
          "distance_km": 11.26
        },
        {
          "code_insee": "42005",
          "nom": "Andrézieux-Bouthéon",
          "slug": "andrezieux-boutheon",
          "code_postal": "42160",
          "population": 10187,
          "superficie_km2": 16.0,
          "latitude": 45.5349999,
          "longitude": 4.276,
          "distance_km": 12.06
        },
        {
          "code_insee": "42094",
          "nom": "Feurs",
          "slug": "feurs",
          "code_postal": "42110",
          "population": 8338,
          "superficie_km2": 24.0,
          "latitude": 45.7319984,
          "longitude": 4.2230001,
          "distance_km": 12.12
        }
      ],
      "zonage_abc": "C",
      "reclassement_abc": "Non",
      "codes_postaux": [
        {
          "code_postal": "42210",
          "libelle_acheminement": "BELLEGARDE EN FOREZ"
        }
      ],
      "logement": {
        "logements_total": 857,
        "residences_principales": 762,
        "logements_vacants": 65,
        "residences_secondaires": 30,
        "maisons": 761,
        "appartements": 93,
        "proprietaires": 576,
        "locataires": 173,
        "hlm": 48,
        "construits_avant_1919": 126,
        "construits_1919_1945": 57,
        "construits_1946_1970": 82,
        "construits_1971_1990": 161,
        "construits_1991_2005": 217,
        "construits_2006_2019": 116,
        "chauffage_electrique": 229,
        "chauffage_fioul": 146,
        "chauffage_gaz_ville": 260,
        "chauffage_gaz_bouteille": 10,
        "chauffage_autre": 115,
        "menages": 762,
        "logements_avant_1990": 426
      },
      "artisans": {
        "monte_escalier": 0,
        "chauffage_pac_clim": 2,
        "isolation": 4,
        "menuiserie": 7,
        "fenetres_velux": 7,
        "couverture_toiture": 2,
        "facade_peinture": 4,
        "portes_volets": 7,
        "piscine": 0,
        "vmc_ventilation": 0,
        "assainissement": 2
      },
      "revenus": {
        "revenu_median": 23220.0,
        "part_menages_imposes": null,
        "taux_pauvrete": null
      },
      "aides_etat": {
        "zone_climatique": "H1",
        "qpv": false,
        "action_coeur_de_ville": false,
        "petites_villes_de_demain": false
      }
    },