{
  "departement": {
    "code": "45",
    "nom": "Loiret",
    "slug": "loiret",
    "population_totale": 684684
  },
  "region": {
    "id": 5,
    "code": "04",
    "nom": "Centre-Val de Loire",
    "slug": "centre-val-de-loire"
  },
  "voisins": [
    {
      "dep_code": "18",
      "dep_nom": "Cher",
      "dep_slug": "cher"
    },
    {
      "dep_code": "28",
      "dep_nom": "Eure-et-Loir",
      "dep_slug": "eure-et-loir"
    },
    {
      "dep_code": "36",
      "dep_nom": "Indre",
      "dep_slug": "indre"
    },
    {
      "dep_code": "37",
      "dep_nom": "Indre-et-Loire",
      "dep_slug": "indre-et-loire"
    }
  ],
  "communes_count": 325,
  "communes": [
    {
      "code_insee": "45001",
      "nom": "Adon",
      "nom_a": null,
      "nom_de": null,
      "slug": "adon",
      "code_postal": "45230",
      "population": 188,
      "superficie_km2": 2472.48,
      "latitude": 47.7587,
      "longitude": 2.7925,
      "villes_proches": [
        {
          "code_insee": "45143",
          "nom": "Feins-en-Gâtinais",
          "slug": "feins-en-gatinais",
          "code_postal": "45230",
          "population": 29,
          "superficie_km2": 1186.44,
          "latitude": 47.7495,
          "longitude": 2.8348,
          "distance_km": 3.32
        },
        {
          "code_insee": "45060",
          "nom": "La Bussière",
          "slug": "la-bussiere",
          "code_postal": "45230",
          "population": 761,
          "superficie_km2": 3498.77,
          "latitude": 47.7371,
          "longitude": 2.7481,
          "distance_km": 4.1
        },
        {
          "code_insee": "45138",
          "nom": "Escrignelles",
          "slug": "escrignelles",
          "code_postal": "45250",
          "population": 64,
          "superficie_km2": 1402.51,
          "latitude": 47.7111,
          "longitude": 2.8217,
          "distance_km": 5.73
        },
        {
          "code_insee": "45278",
          "nom": "Sainte-Geneviève-des-Bois",
          "slug": "sainte-genevieve-des-bois",
          "code_postal": "45230",
          "population": 1054,
          "superficie_km2": 4078.42,
          "latitude": 47.8105,
          "longitude": 2.7932,
          "distance_km": 5.76
        },
        {
          "code_insee": "45036",
          "nom": "Boismorand",
          "slug": "boismorand",
          "code_postal": "45290",
          "population": 860,
          "superficie_km2": 2537.58,
          "latitude": 47.7828,
          "longitude": 2.7196,
          "distance_km": 6.07
        },
        {
          "code_insee": "45121",
          "nom": "Dammarie-sur-Loing",
          "slug": "dammarie-sur-loing",
          "code_postal": "45230",
          "population": 455,
          "superficie_km2": 2104.18,
          "latitude": 47.7831,
          "longitude": 2.8736,
          "distance_km": 6.64
        },
        {
          "code_insee": "89324",
          "nom": "Rogny-les-Sept-Écluses",
          "slug": "rogny-les-sept-ecluses",
          "code_postal": "89220",
          "population": 700,
          "superficie_km2": 3277.01,
          "latitude": 47.7342,
          "longitude": 2.8928,
          "distance_km": 7.98
        },
        {
          "code_insee": "45085",
          "nom": "Châtillon-Coligny",
          "slug": "chatillon-coligny",
          "code_postal": "45230",
          "population": 1894,
          "superficie_km2": 2560.63,
          "latitude": 47.8229,
          "longitude": 2.8747,
          "distance_km": 9.42
        },
        {
          "code_insee": "45229",
          "nom": "Nogent-sur-Vernisson",
          "slug": "nogent-sur-vernisson",
          "code_postal": "45290",
          "population": 2559,
          "superficie_km2": 3341.55,
          "latitude": 47.8338,
          "longitude": 2.726,
          "distance_km": 9.72
        },
        {
          "code_insee": "45245",
          "nom": "Ouzouer-sur-Trézée",
          "slug": "ouzouer-sur-trezee",
          "code_postal": "45250",
          "population": 1125,
          "superficie_km2": 6266.01,
          "latitude": 47.6708,
          "longitude": 2.8138,
          "distance_km": 9.9
        },
        {
          "code_insee": "45155",
          "nom": "Gien",
          "slug": "gien",
          "code_postal": "45500",
          "population": 13459,
          "superficie_km2": 6776.23,
          "latitude": 47.7175,
          "longitude": 2.6687,
          "distance_km": 10.33
        },
        {
          "code_insee": "45096",
          "nom": "Les Choux",
          "slug": "les-choux",
          "code_postal": "45290",
          "population": 530,
          "superficie_km2": 3366.45,
          "latitude": 47.7886,
          "longitude": 2.6549,
          "distance_km": 10.81
        },
        {
          "code_insee": "45002",
          "nom": "Aillant-sur-Milleron",
          "slug": "aillant-sur-milleron",
          "code_postal": "45230",
          "population": 373,
          "superficie_km2": 2722.0,
          "latitude": 47.7958,
          "longitude": 2.9346,
          "distance_km": 11.39
        },
        {
          "code_insee": "45052",
          "nom": "Breteau",
          "slug": "breteau",
          "code_postal": "45250",
          "population": 90,
          "superficie_km2": 1637.93,
          "latitude": 47.6774,
          "longitude": 2.8902,
          "distance_km": 11.63
        },
        {
          "code_insee": "45210",
          "nom": "Montbouy",
          "slug": "montbouy",
          "code_postal": "45230",
          "population": 725,
          "superficie_km2": 2678.52,
          "latitude": 47.868,
          "longitude": 2.8251,
          "distance_km": 12.4
        },
        {
          "code_insee": "45257",
          "nom": "Pressigny-les-Pins",
          "slug": "pressigny-les-pins",
          "code_postal": "45290",
          "population": 527,
          "superficie_km2": 1192.74,
          "latitude": 47.8789,
          "longitude": 2.7656,
          "distance_km": 13.52
        },
        {
          "code_insee": "45053",
          "nom": "Briare",
          "slug": "briare",
          "code_postal": "45250",
          "population": 4911,
          "superficie_km2": 4540.07,
          "latitude": 47.6418,
          "longitude": 2.7417,
          "distance_km": 13.54
        },
        {
          "code_insee": "45077",
          "nom": "La Chapelle-sur-Aveyron",
          "slug": "la-chapelle-sur-aveyron",
          "code_postal": "45230",
          "population": 623,
          "superficie_km2": 1903.94,
          "latitude": 47.8691,
          "longitude": 2.8741,
          "distance_km": 13.7
        },
        {
          "code_insee": "45242",
          "nom": "Ouzouer-des-Champs",
          "slug": "ouzouer-des-champs",
          "code_postal": "45290",
          "population": 279,
          "superficie_km2": 1140.96,
          "latitude": 47.8771,
          "longitude": 2.7048,
          "distance_km": 14.7
        },
        {
          "code_insee": "45120",
          "nom": "Dammarie-en-Puisaye",
          "slug": "dammarie-en-puisaye",
          "code_postal": "45420",
          "population": 171,
          "superficie_km2": 2590.23,
          "latitude": 47.632,
          "longitude": 2.8619,
          "distance_km": 15.02
        }
      ],
      "zonage_abc": "C",
      "reclassement_abc": "Non",
      "codes_postaux": [
        {
          "code_postal": "45230",
          "libelle_acheminement": "ADON"
        }
      ],
      "logement": {
        "logements_total": 123,
        "residences_principales": 85,
        "logements_vacants": 20,
        "residences_secondaires": 17,
        "maisons": 122,
        "appartements": 1,
        "proprietaires": 72,
        "locataires": 8,
        "hlm": 3,
        "construits_avant_1919": 24,
        "construits_1919_1945": 14,
        "construits_1946_1970": 14,
        "construits_1971_1990": 12,
        "construits_1991_2005": 6,
        "construits_2006_2019": 13,
        "chauffage_electrique": 19,
        "chauffage_fioul": 23,
        "chauffage_gaz_ville": 0,
        "chauffage_gaz_bouteille": 12,
        "chauffage_autre": 30,
        "menages": 85,
        "logements_avant_1990": 64
      },
      "artisans": {
        "monte_escalier": 0,
        "chauffage_pac_clim": 0,
        "isolation": 0,
        "menuiserie": 0,
        "fenetres_velux": 0,
        "couverture_toiture": 0,
        "facade_peinture": 0,
        "portes_volets": 0,
        "piscine": 0,
        "vmc_ventilation": 0,
        "assainissement": 0
      },
      "revenus": {
        "revenu_median": 23180.0,
        "part_menages_imposes": null,
        "taux_pauvrete": null
      },
      "aides_etat": {
        "zone_climatique": "H1",
        "qpv": false,
        "action_coeur_de_ville": false,
        "petites_villes_de_demain": false
      }
    },
    {
      "code_insee": "45002",
      "nom": "Aillant-sur-Milleron",
      "nom_a": null,
      "nom_de": null,
      "slug": "aillant-sur-milleron",
      "code_postal": "45230",
      "population": 373,
      "superficie_km2": 2722.0,
      "latitude": 47.7958,
      "longitude": 2.9346,
      "villes_proches": [
        {
          "code_insee": "45079",
          "nom": "Le Charme",
          "slug": "le-charme",
          "code_postal": "45230",
          "population": 139,
          "superficie_km2": 1374.83,
          "latitude": 47.8032,
          "longitude": 2.9914,
          "distance_km": 4.32
        },
        {
          "code_insee": "45121",
          "nom": "Dammarie-sur-Loing",
          "slug": "dammarie-sur-loing",
          "code_postal": "45230",
          "population": 455,
          "superficie_km2": 2104.18,
          "latitude": 47.7831,
          "longitude": 2.8736,
          "distance_km": 4.77
        },
        {
          "code_insee": "45292",
          "nom": "Saint-Maurice-sur-Aveyron",
          "slug": "saint-maurice-sur-aveyron",
          "code_postal": "45230",
          "population": 836,
          "superficie_km2": 5464.41,
          "latitude": 47.8406,
          "longitude": 2.9548,
          "distance_km": 5.2
        },
        {
          "code_insee": "45085",
          "nom": "Châtillon-Coligny",
          "slug": "chatillon-coligny",
          "code_postal": "45230",
          "population": 1894,
          "superficie_km2": 2560.63,
          "latitude": 47.8229,
          "longitude": 2.8747,
          "distance_km": 5.39
        },
        {
          "code_insee": "89072",
          "nom": "Champcevrais",
          "slug": "champcevrais",
          "code_postal": "89220",
          "population": 309,
          "superficie_km2": 3306.23,
          "latitude": 47.754,
          "longitude": 2.9716,
          "distance_km": 5.41
        },
        {
          "code_insee": "89324",
          "nom": "Rogny-les-Sept-Écluses",
          "slug": "rogny-les-sept-ecluses",
          "code_postal": "89220",
          "population": 700,
          "superficie_km2": 3277.01,
          "latitude": 47.7342,
          "longitude": 2.8928,
          "distance_km": 7.53
        },
        {
          "code_insee": "45143",
          "nom": "Feins-en-Gâtinais",
          "slug": "feins-en-gatinais",
          "code_postal": "45230",
          "population": 29,
          "superficie_km2": 1186.44,
          "latitude": 47.7495,
          "longitude": 2.8348,
          "distance_km": 9.06
        },
        {
          "code_insee": "45077",
          "nom": "La Chapelle-sur-Aveyron",
          "slug": "la-chapelle-sur-aveyron",
          "code_postal": "45230",
          "population": 623,
          "superficie_km2": 1903.94,
          "latitude": 47.8691,
          "longitude": 2.8741,
          "distance_km": 9.32
        },
        {
          "code_insee": "45199",
          "nom": "Melleroy",
          "slug": "melleroy",
          "code_postal": "45220",
          "population": 516,
          "superficie_km2": 2421.59,
          "latitude": 47.8904,
          "longitude": 2.9596,
          "distance_km": 10.68
        },
        {
          "code_insee": "45278",
          "nom": "Sainte-Geneviève-des-Bois",
          "slug": "sainte-genevieve-des-bois",
          "code_postal": "45230",
          "population": 1054,
          "superficie_km2": 4078.42,
          "latitude": 47.8105,
          "longitude": 2.7932,
          "distance_km": 10.69
        },
        {
          "code_insee": "89046",
          "nom": "Bléneau",
          "slug": "bleneau",
          "code_postal": "89220",
          "population": 1153,
          "superficie_km2": 3946.54,
          "latitude": 47.6993,
          "longitude": 2.9539,
          "distance_km": 10.83
        },
        {
          "code_insee": "45001",
          "nom": "Adon",
          "slug": "adon",
          "code_postal": "45230",
          "population": 188,
          "superficie_km2": 2472.48,
          "latitude": 47.7587,
          "longitude": 2.7925,
          "distance_km": 11.39
        },
        {
          "code_insee": "45210",
          "nom": "Montbouy",
          "slug": "montbouy",
          "code_postal": "45230",
          "population": 725,
          "superficie_km2": 2678.52,
          "latitude": 47.868,
          "longitude": 2.8251,
          "distance_km": 11.46
        },
        {
          "code_insee": "89462",
          "nom": "Villeneuve-les-Genêts",
          "slug": "villeneuve-les-genets",
          "code_postal": "89350",
          "population": 312,
          "superficie_km2": 2503.28,
          "latitude": 47.7393,
          "longitude": 3.0707,
          "distance_km": 11.96
        },
        {
          "code_insee": "45138",
          "nom": "Escrignelles",
          "slug": "escrignelles",
          "code_postal": "45250",
          "population": 64,
          "superficie_km2": 1402.51,
          "latitude": 47.7111,
          "longitude": 2.8217,
          "distance_km": 12.65
        },
        {
          "code_insee": "89365",
          "nom": "Saint-Privé",
          "slug": "saint-prive",
          "code_postal": "89220",
          "population": 515,
          "superficie_km2": 4150.14,
          "latitude": 47.6865,
          "longitude": 3.0046,
          "distance_km": 13.23
        },
        {
          "code_insee": "45052",
          "nom": "Breteau",
          "slug": "breteau",
          "code_postal": "45250",
          "population": 90,
          "superficie_km2": 1637.93,
          "latitude": 47.6774,
          "longitude": 2.8902,
          "distance_km": 13.58
        },
        {
          "code_insee": "45083",
          "nom": "Château-Renard",
          "slug": "chateau-renard",
          "code_postal": "45220",
          "population": 2112,
          "superficie_km2": 4041.97,
          "latitude": 47.9299,
          "longitude": 2.9166,
          "distance_km": 14.97
        },
        {
          "code_insee": "45070",
          "nom": "Champoulet",
          "slug": "champoulet",
          "code_postal": "45420",
          "population": 45,
          "superficie_km2": 938.75,
          "latitude": 47.6544,
          "longitude": 2.9266,
          "distance_km": 15.73
        },
        {
          "code_insee": "45329",
          "nom": "Triguères",
          "slug": "trigueres",
          "code_postal": "45220",
          "population": 1259,
          "superficie_km2": 3585.94,
          "latitude": 47.9418,
          "longitude": 2.9949,
          "distance_km": 16.85
        }
      ],
      "zonage_abc": "C",
      "reclassement_abc": "Non",
      "codes_postaux": [
        {
          "code_postal": "45230",
          "libelle_acheminement": "AILLANT SUR MILLERON"
        }
      ],
      "logement": {
        "logements_total": 263,
        "residences_principales": 178,
        "logements_vacants": 24,
        "residences_secondaires": 61,
        "maisons": 262,
        "appartements": 0,
        "proprietaires": 147,
        "locataires": 25,
        "hlm": 6,
        "construits_avant_1919": 50,
        "construits_1919_1945": 14,
        "construits_1946_1970": 22,
        "construits_1971_1990": 63,
        "construits_1991_2005": 18,
        "construits_2006_2019": 8,
        "chauffage_electrique": 50,
        "chauffage_fioul": 38,
        "chauffage_gaz_ville": 1,
        "chauffage_gaz_bouteille": 25,
        "chauffage_autre": 62,
        "menages": 178,
        "logements_avant_1990": 149
      },
      "artisans": {
        "monte_escalier": 0,
        "chauffage_pac_clim": 1,
        "isolation": 2,
        "menuiserie": 1,
        "fenetres_velux": 1,
        "couverture_toiture": 2,
        "facade_peinture": 0,
        "portes_volets": 1,
        "piscine": 0,
        "vmc_ventilation": 0,
        "assainissement": 1
      },
      "revenus": {
        "revenu_median": 21400.0,
        "part_menages_imposes": null,
        "taux_pauvrete": null
      },
      "aides_etat": {
        "zone_climatique": "H1",
        "qpv": false,
        "action_coeur_de_ville": false,
        "petites_villes_de_demain": false
      }
    },
    {
      "code_insee": "45004",
      "nom": "Amilly",
      "nom_a": null,
      "nom_de": null,
      "slug": "amilly",
      "code_postal": "45200",
      "population": 13267,
      "superficie_km2": 40.0,
      "latitude": 47.9869995,
      "longitude": 2.7820001,
      "villes_proches": [
        {
          "code_insee": "45208",
          "nom": "Montargis",
          "slug": "montargis",
          "code_postal": "45200",
          "population": 15061,
          "superficie_km2": 4.0,
          "latitude": 47.9990006,
          "longitude": 2.7360001,
          "distance_km": 3.67
        },
        {
          "code_insee": "45068",
          "nom": "Châlette-sur-Loing",
          "slug": "chalette-sur-loing",
          "code_postal": "45120",
          "population": 12728,
          "superficie_km2": 13.0,
          "latitude": 48.019001,
          "longitude": 2.7360001,
          "distance_km": 4.94
        },
        {
          "code_insee": "45279",
          "nom": "Saint-Germain-des-Prés",
          "slug": "saint-germain-des-pres",
          "code_postal": "45220",
          "population": 1877,
          "superficie_km2": 26.0,
          "latitude": 47.9659996,
          "longitude": 2.849,
          "distance_km": 5.51
        },
        {
          "code_insee": "45338",
          "nom": "Villemandeur",
          "slug": "villemandeur",
          "code_postal": "45700",
          "population": 6846,
          "superficie_km2": 11.0,
          "latitude": 47.9830017,
          "longitude": 2.7049999,
          "distance_km": 5.75
        },
        {
          "code_insee": "45061",
          "nom": "Cepoy",
          "slug": "cepoy",
          "code_postal": "45120",
          "population": 2373,
          "superficie_km2": 8.0,
          "latitude": 48.0509987,
          "longitude": 2.74,
          "distance_km": 7.77
        },
        {
          "code_insee": "45212",
          "nom": "Montcresson",
          "slug": "montcresson",
          "code_postal": "45700",
          "population": 1252,
          "superficie_km2": 21.0,
          "latitude": 47.9109993,
          "longitude": 2.8050001,
          "distance_km": 8.62
        },
        {
          "code_insee": "45345",
          "nom": "Vimory",
          "slug": "vimory",
          "code_postal": "45700",
          "population": 1110,
          "superficie_km2": 26.0,
          "latitude": 47.9490013,
          "longitude": 2.678,
          "distance_km": 8.82
        },
        {
          "code_insee": "45247",
          "nom": "Pannes",
          "slug": "pannes",
          "code_postal": "45700",
          "population": 3714,
          "superficie_km2": 21.0,
          "latitude": 48.012001,
          "longitude": 2.6689999,
          "distance_km": 8.86
        },
        {
          "code_insee": "45104",
          "nom": "Corquilleroy",
          "slug": "corquilleroy",
          "code_postal": "45120",
          "population": 2831,
          "superficie_km2": 14.0,
          "latitude": 48.0410004,
          "longitude": 2.694,
          "distance_km": 8.88
        },
        {
          "code_insee": "45148",
          "nom": "Fontenay-sur-Loing",
          "slug": "fontenay-sur-loing",
          "code_postal": "45210",
          "population": 1693,
          "superficie_km2": 10.0,
          "latitude": 48.0830002,
          "longitude": 2.7690001,
          "distance_km": 10.72
        },
        {
          "code_insee": "45092",
          "nom": "Chevillon-sur-Huillard",
          "slug": "chevillon-sur-huillard",
          "code_postal": "45700",
          "population": 1494,
          "superficie_km2": 20.0,
          "latitude": 47.9669991,
          "longitude": 2.622,
          "distance_km": 12.12
        },
        {
          "code_insee": "45083",
          "nom": "Château-Renard",
          "slug": "chateau-renard",
          "code_postal": "45220",
          "population": 2103,
          "superficie_km2": 40.0,
          "latitude": 47.9269981,
          "longitude": 2.9219999,
          "distance_km": 12.38
        },
        {
          "code_insee": "45293",
          "nom": "Saint-Maurice-sur-Fessard",
          "slug": "saint-maurice-sur-fessard",
          "code_postal": "45700",
          "population": 1148,
          "superficie_km2": 15.0,
          "latitude": 47.9910011,
          "longitude": 2.615,
          "distance_km": 12.44
        },
        {
          "code_insee": "45307",
          "nom": "La Selle-sur-le-Bied",
          "slug": "la-selle-sur-le-bied",
          "code_postal": "45210",
          "population": 1110,
          "superficie_km2": 24.0,
          "latitude": 48.0760002,
          "longitude": 2.888,
          "distance_km": 12.65
        },
        {
          "code_insee": "45145",
          "nom": "Ferrières-en-Gâtinais",
          "slug": "ferrieres-en-gatinais",
          "code_postal": "45210",
          "population": 3750,
          "superficie_km2": 27.0,
          "latitude": 48.105999,
          "longitude": 2.8039999,
          "distance_km": 13.33
        },
        {
          "code_insee": "45097",
          "nom": "Chuelles",
          "slug": "chuelles",
          "code_postal": "45220",
          "population": 1222,
          "superficie_km2": 31.0,
          "latitude": 47.9970017,
          "longitude": 2.9690001,
          "distance_km": 13.96
        },
        {
          "code_insee": "45222",
          "nom": "Nargis",
          "slug": "nargis",
          "code_postal": "45210",
          "population": 1449,
          "superficie_km2": 22.0,
          "latitude": 48.1110001,
          "longitude": 2.7379999,
          "distance_km": 14.17
        },
        {
          "code_insee": "45332",
          "nom": "Varennes-Changy",
          "slug": "varennes-changy",
          "code_postal": "45290",
          "population": 1484,
          "superficie_km2": 30.0,
          "latitude": 47.8619995,
          "longitude": 2.664,
          "distance_km": 16.45
        },
        {
          "code_insee": "45329",
          "nom": "Triguères",
          "slug": "trigueres",
          "code_postal": "45220",
          "population": 1275,
          "superficie_km2": 36.0,
          "latitude": 47.9389992,
          "longitude": 2.9949999,
          "distance_km": 16.73
        },
        {
          "code_insee": "45229",
          "nom": "Nogent-sur-Vernisson",
          "slug": "nogent-sur-vernisson",
          "code_postal": "45290",
          "population": 2569,
          "superficie_km2": 33.0,
          "latitude": 47.8390007,
          "longitude": 2.7290001,
          "distance_km": 16.92
        }
      ],
      "zonage_abc": "B2",
      "reclassement_abc": "Non",
      "codes_postaux": [
        {
          "code_postal": "45200",
          "libelle_acheminement": "AMILLY"
        }
      ],
      "logement": {
        "logements_total": 6409,
        "residences_principales": 5784,
        "logements_vacants": 501,
        "residences_secondaires": 123,
        "maisons": 5652,
        "appartements": 742,
        "proprietaires": 4044,
        "locataires": 1649,
        "hlm": 875,
        "construits_avant_1919": 391,
        "construits_1919_1945": 289,
        "construits_1946_1970": 1167,
        "construits_1971_1990": 2133,
        "construits_1991_2005": 786,
        "construits_2006_2019": 971,
        "chauffage_electrique": 1633,
        "chauffage_fioul": 368,
        "chauffage_gaz_ville": 2875,
        "chauffage_gaz_bouteille": 34,
        "chauffage_autre": 872,
        "menages": 5784,
        "logements_avant_1990": 3980
      },
      "artisans": {
        "monte_escalier": 0,
        "chauffage_pac_clim": 13,
        "isolation": 33,
        "menuiserie": 13,
        "fenetres_velux": 13,
        "couverture_toiture": 19,
        "facade_peinture": 15,
        "portes_volets": 13,
        "piscine": 3,
        "vmc_ventilation": 6,
        "assainissement": 9
      },
      "revenus": {
        "revenu_median": 22050.0,
        "part_menages_imposes": 51.0,
        "taux_pauvrete": 13.0
      },
      "aides_etat": {
        "zone_climatique": "H1",
        "qpv": false,
        "action_coeur_de_ville": false,
        "petites_villes_de_demain": false
      }
    },
    {
      "code_insee": "45005",
      "nom": "Andonville",
      "nom_a": null,
      "nom_de": null,
      "slug": "andonville",
      "code_postal": "45480",
      "population": 247,
      "superficie_km2": 1199.91,
      "latitude": 48.274,
      "longitude": 2.0233,
      "villes_proches": [
        {
          "code_insee": "45135",
          "nom": "Erceville",
          "slug": "erceville",
          "code_postal": "45480",
          "population": 291,
          "superficie_km2": 1274.74,
          "latitude": 48.2447,
          "longitude": 2.0289,
          "distance_km": 3.28
        },
        {
          "code_insee": "45037",
          "nom": "Boisseaux",
          "slug": "boisseaux",
          "code_postal": "45480",
          "population": 492,
          "superficie_km2": 726.25,
          "latitude": 48.2521,
          "longitude": 1.9861,
          "distance_km": 3.68
        },
        {
          "code_insee": "91016",
          "nom": "Angerville",
          "slug": "angerville",
          "code_postal": "91670",
          "population": 4428,
          "superficie_km2": 2580.43,
          "latitude": 48.3116,
          "longitude": 2.0057,
          "distance_km": 4.38
        },
        {
          "code_insee": "45015",
          "nom": "Autruy-sur-Juine",
          "slug": "autruy-sur-juine",
          "code_postal": "45480",
          "population": 745,
          "superficie_km2": 2713.53,
          "latitude": 48.2786,
          "longitude": 2.0961,
          "distance_km": 5.41
        },
        {
          "code_insee": "45240",
          "nom": "Outarville",
          "slug": "outarville",
          "code_postal": "45480",
          "population": 1343,
          "superficie_km2": 4668.05,
          "latitude": 48.2151,
          "longitude": 2.0215,
          "distance_km": 6.55
        },
        {
          "code_insee": "28197",
          "nom": "Intréville",
          "slug": "intreville",
          "code_postal": "28310",
          "population": 118,
          "superficie_km2": 896.19,
          "latitude": 48.2985,
          "longitude": 1.9366,
          "distance_km": 6.97
        },
        {
          "code_insee": "45181",
          "nom": "Léouville",
          "slug": "leouville",
          "code_postal": "45480",
          "population": 85,
          "superficie_km2": 429.5,
          "latitude": 48.2238,
          "longitude": 2.0877,
          "distance_km": 7.34
        },
        {
          "code_insee": "91390",
          "nom": "Le Mérévillois",
          "slug": "le-merevillois",
          "code_postal": "91660",
          "population": 3477,
          "superficie_km2": 3318.16,
          "latitude": 48.3201,
          "longitude": 2.0963,
          "distance_km": 7.45
        },
        {
          "code_insee": "28319",
          "nom": "Neuville Saint Denis",
          "slug": "neuville-saint-denis",
          "code_postal": "28310",
          "population": 647,
          "superficie_km2": 4176.47,
          "latitude": 48.2774,
          "longitude": 1.9222,
          "distance_km": 7.49
        },
        {
          "code_insee": "45080",
          "nom": "Charmont-en-Beauce",
          "slug": "charmont-en-beauce",
          "code_postal": "45480",
          "population": 336,
          "superficie_km2": 1807.09,
          "latitude": 48.2382,
          "longitude": 2.1167,
          "distance_km": 7.98
        },
        {
          "code_insee": "91414",
          "nom": "Monnerville",
          "slug": "monnerville",
          "code_postal": "91930",
          "population": 376,
          "superficie_km2": 828.48,
          "latitude": 48.3471,
          "longitude": 2.0379,
          "distance_km": 8.2
        },
        {
          "code_insee": "28284",
          "nom": "Oinville-Saint-Liphard",
          "slug": "oinville-saint-liphard",
          "code_postal": "28310",
          "population": 279,
          "superficie_km2": 2186.14,
          "latitude": 48.2359,
          "longitude": 1.9276,
          "distance_km": 8.26
        },
        {
          "code_insee": "91511",
          "nom": "Pussay",
          "slug": "pussay",
          "code_postal": "91740",
          "population": 2288,
          "superficie_km2": 1159.12,
          "latitude": 48.3501,
          "longitude": 1.9981,
          "distance_km": 8.66
        },
        {
          "code_insee": "28183",
          "nom": "Gommerville",
          "slug": "gommerville",
          "code_postal": "28310",
          "population": 663,
          "superficie_km2": 3261.4,
          "latitude": 48.3458,
          "longitude": 1.947,
          "distance_km": 9.78
        },
        {
          "code_insee": "28391",
          "nom": "Toury",
          "slug": "toury",
          "code_postal": "28310",
          "population": 2640,
          "superficie_km2": 1895.51,
          "latitude": 48.1954,
          "longitude": 1.9425,
          "distance_km": 10.59
        },
        {
          "code_insee": "91294",
          "nom": "Guillerval",
          "slug": "guillerval",
          "code_postal": "91690",
          "population": 808,
          "superficie_km2": 1732.19,
          "latitude": 48.3662,
          "longitude": 2.0802,
          "distance_km": 11.08
        },
        {
          "code_insee": "91131",
          "nom": "Chalou-Moulineux",
          "slug": "chalou-moulineux",
          "code_postal": "91740",
          "population": 373,
          "superficie_km2": 1075.71,
          "latitude": 48.381,
          "longitude": 2.0245,
          "distance_km": 11.9
        },
        {
          "code_insee": "91613",
          "nom": "Congerville-Thionville",
          "slug": "congerville-thionville",
          "code_postal": "91740",
          "population": 211,
          "superficie_km2": 841.79,
          "latitude": 48.3833,
          "longitude": 1.9912,
          "distance_km": 12.38
        },
        {
          "code_insee": "45025",
          "nom": "Bazoches-les-Gallerandes",
          "slug": "bazoches-les-gallerandes",
          "code_postal": "45480",
          "population": 1465,
          "superficie_km2": 3696.86,
          "latitude": 48.1653,
          "longitude": 2.0663,
          "distance_km": 12.5
        },
        {
          "code_insee": "45088",
          "nom": "Chaussy",
          "slug": "chaussy",
          "code_postal": "45480",
          "population": 278,
          "superficie_km2": 1304.54,
          "latitude": 48.1632,
          "longitude": 1.9917,
          "distance_km": 12.54
        }
      ],
      "zonage_abc": "B2",
      "reclassement_abc": "Non",
      "codes_postaux": [
        {
          "code_postal": "45480",
          "libelle_acheminement": "ANDONVILLE"
        }
      ],
      "logement": {
        "logements_total": 122,
        "residences_principales": 99,
        "logements_vacants": 8,
        "residences_secondaires": 14,
        "maisons": 121,
        "appartements": 1,
        "proprietaires": 86,
        "locataires": 12,
        "hlm": 0,
        "construits_avant_1919": 29,
        "construits_1919_1945": 10,
        "construits_1946_1970": 16,
        "construits_1971_1990": 16,
        "construits_1991_2005": 4,
        "construits_2006_2019": 22,
        "chauffage_electrique": 56,
        "chauffage_fioul": 17,
        "chauffage_gaz_ville": 2,
        "chauffage_gaz_bouteille": 3,
        "chauffage_autre": 21,
        "menages": 99,
        "logements_avant_1990": 71
      },
      "artisans": {
        "monte_escalier": 0,
        "chauffage_pac_clim": 1,
        "isolation": 0,
        "menuiserie": 0,
        "fenetres_velux": 0,
        "couverture_toiture": 0,
        "facade_peinture": 0,
        "portes_volets": 0,
        "piscine": 0,
        "vmc_ventilation": 1,
        "assainissement": 0
      },
      "revenus": {
        "revenu_median": 24170.0,
        "part_menages_imposes": null,
        "taux_pauvrete": null
      },
      "aides_etat": {
        "zone_climatique": "H1",
        "qpv": false,
        "action_coeur_de_ville": false,
        "petites_villes_de_demain": false
      }
    },
    {
      "code_insee": "45006",
      "nom": "Ardon",
      "nom_a": null,
      "nom_de": null,
      "slug": "ardon",
      "code_postal": "45160",
      "population": 1165,
      "superficie_km2": 55.0,
      "latitude": 47.7879982,
      "longitude": 1.883,
      "villes_proches": [
        {
          "code_insee": "45272",
          "nom": "Saint-Cyr-en-Val",
          "slug": "saint-cyr-en-val",
          "code_postal": "45590",
          "population": 3392,
          "superficie_km2": 44.0,
          "latitude": 47.8139992,
          "longitude": 1.96,
          "distance_km": 6.44
        },
        {
          "code_insee": "45175",
          "nom": "Jouy-le-Potier",
          "slug": "jouy-le-potier",
          "code_postal": "45370",
          "population": 1567,
          "superficie_km2": 51.0,
          "latitude": 47.7480011,
          "longitude": 1.808,
          "distance_km": 7.16
        },
        {
          "code_insee": "45232",
          "nom": "Olivet",
          "slug": "olivet",
          "code_postal": "45160",
          "population": 22855,
          "superficie_km2": 23.0,
          "latitude": 47.8549995,
          "longitude": 1.888,
          "distance_km": 7.46
        },
        {
          "code_insee": "45282",
          "nom": "Saint-Hilaire-Saint-Mesmin",
          "slug": "saint-hilaire-saint-mesmin",
          "code_postal": "45160",
          "population": 3118,
          "superficie_km2": 14.0,
          "latitude": 47.8499985,
          "longitude": 1.834,
          "distance_km": 7.8
        },
        {
          "code_insee": "45146",
          "nom": "La Ferté-Saint-Aubin",
          "slug": "la-ferte-saint-aubin",
          "code_postal": "45240",
          "population": 7318,
          "superficie_km2": 86.0,
          "latitude": 47.7120018,
          "longitude": 1.927,
          "distance_km": 9.07
        },
        {
          "code_insee": "45098",
          "nom": "Cléry-Saint-André",
          "slug": "clery-saint-andre",
          "code_postal": "45370",
          "population": 3520,
          "superficie_km2": 18.0,
          "latitude": 47.8149986,
          "longitude": 1.768,
          "distance_km": 9.1
        },
        {
          "code_insee": "45298",
          "nom": "Saint-Pryvé-Saint-Mesmin",
          "slug": "saint-pryve-saint-mesmin",
          "code_postal": "45750",
          "population": 6185,
          "superficie_km2": 9.0,
          "latitude": 47.8800011,
          "longitude": 1.855,
          "distance_km": 10.44
        },
        {
          "code_insee": "45234",
          "nom": "Orléans",
          "slug": "orleans",
          "code_postal": "45000",
          "population": 116617,
          "superficie_km2": 28.0,
          "latitude": 47.8829994,
          "longitude": 1.916,
          "distance_km": 10.85
        },
        {
          "code_insee": "45196",
          "nom": "Mareau-aux-Prés",
          "slug": "mareau-aux-pres",
          "code_postal": "45370",
          "population": 1629,
          "superficie_km2": 15.0,
          "latitude": 47.8460007,
          "longitude": 1.766,
          "distance_km": 10.86
        },
        {
          "code_insee": "45286",
          "nom": "Saint-Jean-le-Blanc",
          "slug": "saint-jean-le-blanc",
          "code_postal": "45650",
          "population": 9379,
          "superficie_km2": 8.0,
          "latitude": 47.8829994,
          "longitude": 1.933,
          "distance_km": 11.2
        },
        {
          "code_insee": "45193",
          "nom": "Marcilly-en-Villette",
          "slug": "marcilly-en-villette",
          "code_postal": "45240",
          "population": 2168,
          "superficie_km2": 63.0,
          "latitude": 47.7719994,
          "longitude": 2.0339999,
          "distance_km": 11.42
        },
        {
          "code_insee": "45130",
          "nom": "Dry",
          "slug": "dry",
          "code_postal": "45370",
          "population": 1411,
          "superficie_km2": 23.0,
          "latitude": 47.7919998,
          "longitude": 1.728,
          "distance_km": 11.59
        },
        {
          "code_insee": "45075",
          "nom": "La Chapelle-Saint-Mesmin",
          "slug": "la-chapelle-saint-mesmin",
          "code_postal": "45380",
          "population": 10218,
          "superficie_km2": 9.0,
          "latitude": 47.8889999,
          "longitude": 1.8279999,
          "distance_km": 11.96
        },
        {
          "code_insee": "45300",
          "nom": "Sandillon",
          "slug": "sandillon",
          "code_postal": "45640",
          "population": 4205,
          "superficie_km2": 43.0,
          "latitude": 47.8359985,
          "longitude": 2.03,
          "distance_km": 12.21
        },
        {
          "code_insee": "45274",
          "nom": "Saint-Denis-en-Val",
          "slug": "saint-denis-en-val",
          "code_postal": "45560",
          "population": 7654,
          "superficie_km2": 17.0,
          "latitude": 47.8810005,
          "longitude": 1.9730001,
          "distance_km": 12.33
        },
        {
          "code_insee": "45269",
          "nom": "Saint-Ay",
          "slug": "saint-ay",
          "code_postal": "45130",
          "population": 3661,
          "superficie_km2": 10.0,
          "latitude": 47.8650017,
          "longitude": 1.747,
          "distance_km": 13.28
        },
        {
          "code_insee": "45179",
          "nom": "Lailly-en-Val",
          "slug": "lailly-en-val",
          "code_postal": "45740",
          "population": 3098,
          "superficie_km2": 46.0,
          "latitude": 47.7470017,
          "longitude": 1.715,
          "distance_km": 13.36
        },
        {
          "code_insee": "45182",
          "nom": "Ligny-le-Ribault",
          "slug": "ligny-le-ribault",
          "code_postal": "45240",
          "population": 1247,
          "superficie_km2": 59.0,
          "latitude": 47.6829987,
          "longitude": 1.791,
          "distance_km": 13.55
        },
        {
          "code_insee": "45285",
          "nom": "Saint-Jean-de-la-Ruelle",
          "slug": "saint-jean-de-la-ruelle",
          "code_postal": "45140",
          "population": 16594,
          "superficie_km2": 6.0,
          "latitude": 47.9119988,
          "longitude": 1.8710001,
          "distance_km": 13.82
        },
        {
          "code_insee": "45067",
          "nom": "Chaingy",
          "slug": "chaingy",
          "code_postal": "45380",
          "population": 4047,
          "superficie_km2": 22.0,
          "latitude": 47.8919983,
          "longitude": 1.774,
          "distance_km": 14.14
        }
      ],
      "zonage_abc": "C",
      "reclassement_abc": "Non",
      "codes_postaux": [
        {
          "code_postal": "45160",
          "libelle_acheminement": "ARDON"
        }
      ],
      "logement": {
        "logements_total": 667,
        "residences_principales": 549,
        "logements_vacants": 80,
        "residences_secondaires": 38,
        "maisons": 629,
        "appartements": 35,
        "proprietaires": 423,
        "locataires": 111,
        "hlm": 19,
        "construits_avant_1919": 54,
        "construits_1919_1945": 13,
        "construits_1946_1970": 29,
        "construits_1971_1990": 138,
        "construits_1991_2005": 233,
        "construits_2006_2019": 63,
        "chauffage_electrique": 271,
        "chauffage_fioul": 77,
        "chauffage_gaz_ville": 82,
        "chauffage_gaz_bouteille": 46,
        "chauffage_autre": 73,
        "menages": 549,
        "logements_avant_1990": 234
      },
      "artisans": {
        "monte_escalier": 0,
        "chauffage_pac_clim": 0,
        "isolation": 1,
        "menuiserie": 1,
        "fenetres_velux": 1,
        "couverture_toiture": 1,
        "facade_peinture": 0,
        "portes_volets": 1,
        "piscine": 0,
        "vmc_ventilation": 0,
        "assainissement": 1
      },
      "revenus": {
        "revenu_median": 31640.0,
        "part_menages_imposes": null,
        "taux_pauvrete": null
      },
      "aides_etat": {
        "zone_climatique": "H1",
        "qpv": false,
        "action_coeur_de_ville": false,
        "petites_villes_de_demain": false
      }
    },
    {
      "code_insee": "45008",
      "nom": "Artenay",
      "nom_a": null,
      "nom_de": null,
      "slug": "artenay",
      "code_postal": "45410",
      "population": 1983,
      "superficie_km2": 20.0,
      "latitude": 48.0760002,
      "longitude": 1.88,
      "villes_proches": [
        {
          "code_insee": "45093",
          "nom": "Chevilly",
          "slug": "chevilly",
          "code_postal": "45520",
          "population": 2644,
          "superficie_km2": 42.0,
          "latitude": 48.0299988,
          "longitude": 1.8940001,
          "distance_km": 5.22
        },
        {
          "code_insee": "45289",
          "nom": "Saint-Lyé-la-Forêt",
          "slug": "saint-lye-la-foret",
          "code_postal": "45170",
          "population": 1231,
          "superficie_km2": 27.0,
          "latitude": 48.0349999,
          "longitude": 1.972,
          "distance_km": 8.22
        },
        {
          "code_insee": "45062",
          "nom": "Cercottes",
          "slug": "cercottes",
          "code_postal": "45520",
          "population": 1505,
          "superficie_km2": 24.0,
          "latitude": 47.9869995,
          "longitude": 1.897,
          "distance_km": 9.98
        },
        {
          "code_insee": "45154",
          "nom": "Gidy",
          "slug": "gidy",
          "code_postal": "45520",
          "population": 2029,
          "superficie_km2": 23.0,
          "latitude": 47.9910011,
          "longitude": 1.836,
          "distance_km": 10
        },
        {
          "code_insee": "45009",
          "nom": "Aschères-le-Marché",
          "slug": "ascheres-le-marche",
          "code_postal": "45170",
          "population": 1142,
          "superficie_km2": 21.0,
          "latitude": 48.1119995,
          "longitude": 2.01,
          "distance_km": 10.45
        },
        {
          "code_insee": "45072",
          "nom": "Chanteau",
          "slug": "chanteau",
          "code_postal": "45400",
          "population": 1631,
          "superficie_km2": 29.0,
          "latitude": 47.9760017,
          "longitude": 1.965,
          "distance_km": 12.79
        },
        {
          "code_insee": "45224",
          "nom": "Neuville-aux-Bois",
          "slug": "neuville-aux-bois",
          "code_postal": "45170",
          "population": 4981,
          "superficie_km2": 32.0,
          "latitude": 48.0690002,
          "longitude": 2.059,
          "distance_km": 13.32
        },
        {
          "code_insee": "45046",
          "nom": "Boulay-les-Barres",
          "slug": "boulay-les-barres",
          "code_postal": "45140",
          "population": 1052,
          "superficie_km2": 12.0,
          "latitude": 47.9749985,
          "longitude": 1.777,
          "distance_km": 13.59
        },
        {
          "code_insee": "28199",
          "nom": "Janville-en-Beauce",
          "slug": "janville-en-beauce",
          "code_postal": "28310",
          "population": 2512,
          "superficie_km2": 12.0,
          "latitude": 48.2010002,
          "longitude": 1.89,
          "distance_km": 13.92
        },
        {
          "code_insee": "45302",
          "nom": "Saran",
          "slug": "saran",
          "code_postal": "45770",
          "population": 16679,
          "superficie_km2": 20.0,
          "latitude": 47.9500008,
          "longitude": 1.878,
          "distance_km": 14.01
        },
        {
          "code_insee": "28391",
          "nom": "Toury",
          "slug": "toury",
          "code_postal": "28310",
          "population": 2600,
          "superficie_km2": 19.0,
          "latitude": 48.1949997,
          "longitude": 1.943,
          "distance_km": 14.03
        },
        {
          "code_insee": "45261",
          "nom": "Rebréchien",
          "slug": "rebrechien",
          "code_postal": "45470",
          "population": 1351,
          "superficie_km2": 19.0,
          "latitude": 47.9939995,
          "longitude": 2.0239999,
          "distance_km": 14.06
        },
        {
          "code_insee": "45248",
          "nom": "Patay",
          "slug": "patay",
          "code_postal": "45310",
          "population": 2306,
          "superficie_km2": 14.0,
          "latitude": 48.0509987,
          "longitude": 1.694,
          "distance_km": 14.1
        },
        {
          "code_insee": "45235",
          "nom": "Ormes",
          "slug": "ormes",
          "code_postal": "45140",
          "population": 4333,
          "superficie_km2": 18.0,
          "latitude": 47.9480019,
          "longitude": 1.807,
          "distance_km": 15.23
        },
        {
          "code_insee": "45147",
          "nom": "Fleury-les-Aubrais",
          "slug": "fleury-les-aubrais",
          "code_postal": "45400",
          "population": 21438,
          "superficie_km2": 10.0,
          "latitude": 47.9389992,
          "longitude": 1.92,
          "distance_km": 15.52
        },
        {
          "code_insee": "45025",
          "nom": "Bazoches-les-Gallerandes",
          "slug": "bazoches-les-gallerandes",
          "code_postal": "45480",
          "population": 1504,
          "superficie_km2": 37.0,
          "latitude": 48.1619988,
          "longitude": 2.052,
          "distance_km": 15.95
        },
        {
          "code_insee": "45197",
          "nom": "Marigny-les-Usages",
          "slug": "marigny-les-usages",
          "code_postal": "45760",
          "population": 1818,
          "superficie_km2": 10.0,
          "latitude": 47.9589996,
          "longitude": 2.013,
          "distance_km": 16.34
        },
        {
          "code_insee": "45308",
          "nom": "Semoy",
          "slug": "semoy",
          "code_postal": "45400",
          "population": 3211,
          "superficie_km2": 8.0,
          "latitude": 47.9379997,
          "longitude": 1.9630001,
          "distance_km": 16.54
        },
        {
          "code_insee": "45188",
          "nom": "Loury",
          "slug": "loury",
          "code_postal": "45470",
          "population": 2548,
          "superficie_km2": 34.0,
          "latitude": 48.0099983,
          "longitude": 2.092,
          "distance_km": 17.39
        },
        {
          "code_insee": "45169",
          "nom": "Ingré",
          "slug": "ingre",
          "code_postal": "45140",
          "population": 9755,
          "superficie_km2": 21.0,
          "latitude": 47.9169998,
          "longitude": 1.824,
          "distance_km": 18.16
        }
      ],
      "zonage_abc": "C",
      "reclassement_abc": "Non",
      "codes_postaux": [
        {
          "code_postal": "45410",
          "libelle_acheminement": "ARTENAY"
        }
      ],
      "logement": {
        "logements_total": 972,
        "residences_principales": 870,
        "logements_vacants": 91,
        "residences_secondaires": 10,
        "maisons": 709,
        "appartements": 260,
        "proprietaires": 494,
        "locataires": 354,
        "hlm": 165,
        "construits_avant_1919": 107,
        "construits_1919_1945": 61,
        "construits_1946_1970": 186,
        "construits_1971_1990": 312,
        "construits_1991_2005": 112,
        "construits_2006_2019": 89,
        "chauffage_electrique": 381,
        "chauffage_fioul": 102,
        "chauffage_gaz_ville": 308,
        "chauffage_gaz_bouteille": 14,
        "chauffage_autre": 62,
        "menages": 870,
        "logements_avant_1990": 666
      },
      "artisans": {
        "monte_escalier": 0,
        "chauffage_pac_clim": 6,
        "isolation": 2,
        "menuiserie": 3,
        "fenetres_velux": 3,
        "couverture_toiture": 1,
        "facade_peinture": 4,
        "portes_volets": 3,
        "piscine": 5,
        "vmc_ventilation": 2,
        "assainissement": 4
      },
      "revenus": {
        "revenu_median": 20920.0,
        "part_menages_imposes": null,
        "taux_pauvrete": null
      },
      "aides_etat": {
        "zone_climatique": "H1",
        "qpv": false,
        "action_coeur_de_ville": false,
        "petites_villes_de_demain": false
      }
    },
    {
      "code_insee": "45009",
      "nom": "Aschères-le-Marché",
      "nom_a": null,
      "nom_de": null,
      "slug": "ascheres-le-marche",
      "code_postal": "45170",
      "population": 1142,
      "superficie_km2": 21.0,
      "latitude": 48.1119995,
      "longitude": 2.01,
      "villes_proches": [
        {
          "code_insee": "45224",
          "nom": "Neuville-aux-Bois",
          "slug": "neuville-aux-bois",
          "code_postal": "45170",
          "population": 4981,
          "superficie_km2": 32.0,
          "latitude": 48.0690002,
          "longitude": 2.059,
          "distance_km": 6.01
        },
        {
          "code_insee": "45025",
          "nom": "Bazoches-les-Gallerandes",
          "slug": "bazoches-les-gallerandes",
          "code_postal": "45480",
          "population": 1504,
          "superficie_km2": 37.0,
          "latitude": 48.1619988,
          "longitude": 2.052,
          "distance_km": 6.37
        },
        {
          "code_insee": "45289",
          "nom": "Saint-Lyé-la-Forêt",
          "slug": "saint-lye-la-foret",
          "code_postal": "45170",
          "population": 1231,
          "superficie_km2": 27.0,
          "latitude": 48.0349999,
          "longitude": 1.972,
          "distance_km": 9.02
        },
        {
          "code_insee": "45008",
          "nom": "Artenay",
          "slug": "artenay",
          "code_postal": "45410",
          "population": 1983,
          "superficie_km2": 20.0,
          "latitude": 48.0760002,
          "longitude": 1.88,
          "distance_km": 10.45
        },
        {
          "code_insee": "28391",
          "nom": "Toury",
          "slug": "toury",
          "code_postal": "28310",
          "population": 2600,
          "superficie_km2": 19.0,
          "latitude": 48.1949997,
          "longitude": 1.943,
          "distance_km": 10.48
        },
        {
          "code_insee": "45240",
          "nom": "Outarville",
          "slug": "outarville",
          "code_postal": "45480",
          "population": 1332,
          "superficie_km2": 47.0,
          "latitude": 48.2140007,
          "longitude": 2.0220001,
          "distance_km": 11.38
        },
        {
          "code_insee": "45095",
          "nom": "Chilleurs-aux-Bois",
          "slug": "chilleurs-aux-bois",
          "code_postal": "45170",
          "population": 2109,
          "superficie_km2": 52.0,
          "latitude": 48.0569992,
          "longitude": 2.142,
          "distance_km": 11.56
        },
        {
          "code_insee": "45093",
          "nom": "Chevilly",
          "slug": "chevilly",
          "code_postal": "45520",
          "population": 2644,
          "superficie_km2": 42.0,
          "latitude": 48.0299988,
          "longitude": 1.8940001,
          "distance_km": 12.55
        },
        {
          "code_insee": "45188",
          "nom": "Loury",
          "slug": "loury",
          "code_postal": "45470",
          "population": 2548,
          "superficie_km2": 34.0,
          "latitude": 48.0099983,
          "longitude": 2.092,
          "distance_km": 12.88
        },
        {
          "code_insee": "45261",
          "nom": "Rebréchien",
          "slug": "rebrechien",
          "code_postal": "45470",
          "population": 1351,
          "superficie_km2": 19.0,
          "latitude": 47.9939995,
          "longitude": 2.0239999,
          "distance_km": 13.16
        },
        {
          "code_insee": "28199",
          "nom": "Janville-en-Beauce",
          "slug": "janville-en-beauce",
          "code_postal": "28310",
          "population": 2512,
          "superficie_km2": 12.0,
          "latitude": 48.2010002,
          "longitude": 1.89,
          "distance_km": 13.31
        },
        {
          "code_insee": "45072",
          "nom": "Chanteau",
          "slug": "chanteau",
          "code_postal": "45400",
          "population": 1631,
          "superficie_km2": 29.0,
          "latitude": 47.9760017,
          "longitude": 1.965,
          "distance_km": 15.49
        },
        {
          "code_insee": "45253",
          "nom": "Pithiviers-le-Vieil",
          "slug": "pithiviers-le-vieil",
          "code_postal": "45300",
          "population": 1726,
          "superficie_km2": 34.0,
          "latitude": 48.1730003,
          "longitude": 2.2060001,
          "distance_km": 16.05
        },
        {
          "code_insee": "45062",
          "nom": "Cercottes",
          "slug": "cercottes",
          "code_postal": "45520",
          "population": 1505,
          "superficie_km2": 24.0,
          "latitude": 47.9869995,
          "longitude": 1.897,
          "distance_km": 16.24
        },
        {
          "code_insee": "45197",
          "nom": "Marigny-les-Usages",
          "slug": "marigny-les-usages",
          "code_postal": "45760",
          "population": 1818,
          "superficie_km2": 10.0,
          "latitude": 47.9589996,
          "longitude": 2.013,
          "distance_km": 17.01
        },
        {
          "code_insee": "45333",
          "nom": "Vennecy",
          "slug": "vennecy",
          "code_postal": "45760",
          "population": 2043,
          "superficie_km2": 11.0,
          "latitude": 47.9550018,
          "longitude": 2.052,
          "distance_km": 17.73
        },
        {
          "code_insee": "45327",
          "nom": "Traînou",
          "slug": "trainou",
          "code_postal": "45470",
          "population": 3435,
          "superficie_km2": 33.0,
          "latitude": 47.9650002,
          "longitude": 2.1040001,
          "distance_km": 17.78
        },
        {
          "code_insee": "45010",
          "nom": "Ascoux",
          "slug": "ascoux",
          "code_postal": "45300",
          "population": 1071,
          "superficie_km2": 7.0,
          "latitude": 48.1269989,
          "longitude": 2.2490001,
          "distance_km": 17.82
        },
        {
          "code_insee": "45154",
          "nom": "Gidy",
          "slug": "gidy",
          "code_postal": "45520",
          "population": 2029,
          "superficie_km2": 23.0,
          "latitude": 47.9910011,
          "longitude": 1.836,
          "distance_km": 18.66
        },
        {
          "code_insee": "45252",
          "nom": "Pithiviers",
          "slug": "pithiviers",
          "code_postal": "45300",
          "population": 9094,
          "superficie_km2": 7.0,
          "latitude": 48.1800003,
          "longitude": 2.25,
          "distance_km": 19.35
        }
      ],
      "zonage_abc": "C",
      "reclassement_abc": "Non",
      "codes_postaux": [
        {
          "code_postal": "45170",
          "libelle_acheminement": "ASCHERES LE MARCHE"
        }
      ],
      "logement": {
        "logements_total": 542,
        "residences_principales": 476,
        "logements_vacants": 51,
        "residences_secondaires": 14,
        "maisons": 527,
        "appartements": 15,
        "proprietaires": 404,
        "locataires": 62,
        "hlm": 14,
        "construits_avant_1919": 155,
        "construits_1919_1945": 46,
        "construits_1946_1970": 48,
        "construits_1971_1990": 124,
        "construits_1991_2005": 72,
        "construits_2006_2019": 28,
        "chauffage_electrique": 152,
        "chauffage_fioul": 45,
        "chauffage_gaz_ville": 148,
        "chauffage_gaz_bouteille": 17,
        "chauffage_autre": 113,
        "menages": 476,
        "logements_avant_1990": 373
      },
      "artisans": {
        "monte_escalier": 0,
        "chauffage_pac_clim": 2,
        "isolation": 2,
        "menuiserie": 4,
        "fenetres_velux": 4,
        "couverture_toiture": 1,
        "facade_peinture": 2,
        "portes_volets": 4,
        "piscine": 0,
        "vmc_ventilation": 1,
        "assainissement": 1
      },
      "revenus": {
        "revenu_median": 22990.0,
        "part_menages_imposes": null,
        "taux_pauvrete": null
      },
      "aides_etat": {
        "zone_climatique": "H1",
        "qpv": false,
        "action_coeur_de_ville": false,
        "petites_villes_de_demain": false
      }
    },
    {
      "code_insee": "45010",
      "nom": "Ascoux",
      "nom_a": null,
      "nom_de": null,
      "slug": "ascoux",
      "code_postal": "45300",
      "population": 1071,
      "superficie_km2": 7.0,
      "latitude": 48.1269989,
      "longitude": 2.2490001,
      "villes_proches": [
        {
          "code_insee": "45119",
          "nom": "Dadonville",
          "slug": "dadonville",
          "code_postal": "45300",
          "population": 2384,
          "superficie_km2": 18.0,
          "latitude": 48.1529999,
          "longitude": 2.2690001,
          "distance_km": 3.25
        },
        {
          "code_insee": "45252",
          "nom": "Pithiviers",
          "slug": "pithiviers",
          "code_postal": "45300",
          "population": 9094,
          "superficie_km2": 7.0,
          "latitude": 48.1800003,
          "longitude": 2.25,
          "distance_km": 5.89
        },
        {
          "code_insee": "45253",
          "nom": "Pithiviers-le-Vieil",
          "slug": "pithiviers-le-vieil",
          "code_postal": "45300",
          "population": 1726,
          "superficie_km2": 34.0,
          "latitude": 48.1730003,
          "longitude": 2.2060001,
          "distance_km": 6.03
        },
        {
          "code_insee": "45050",
          "nom": "Boynes",
          "slug": "boynes",
          "code_postal": "45300",
          "population": 1323,
          "superficie_km2": 15.0,
          "latitude": 48.1170006,
          "longitude": 2.3599999,
          "distance_km": 8.31
        },
        {
          "code_insee": "45095",
          "nom": "Chilleurs-aux-Bois",
          "slug": "chilleurs-aux-bois",
          "code_postal": "45170",
          "population": 2109,
          "superficie_km2": 52.0,
          "latitude": 48.0569992,
          "longitude": 2.142,
          "distance_km": 11.12
        },
        {
          "code_insee": "45035",
          "nom": "Boiscommun",
          "slug": "boiscommun",
          "code_postal": "45340",
          "population": 1134,
          "superficie_km2": 16.0,
          "latitude": 48.0390015,
          "longitude": 2.3570001,
          "distance_km": 12.65
        },
        {
          "code_insee": "45228",
          "nom": "Nibelle",
          "slug": "nibelle",
          "code_postal": "45340",
          "population": 1182,
          "superficie_km2": 27.0,
          "latitude": 48.0139999,
          "longitude": 2.312,
          "distance_km": 13.41
        },
        {
          "code_insee": "45030",
          "nom": "Beaune-la-Rolande",
          "slug": "beaune-la-rolande",
          "code_postal": "45340",
          "population": 1998,
          "superficie_km2": 21.0,
          "latitude": 48.0750008,
          "longitude": 2.4300001,
          "distance_km": 14.63
        },
        {
          "code_insee": "45025",
          "nom": "Bazoches-les-Gallerandes",
          "slug": "bazoches-les-gallerandes",
          "code_postal": "45480",
          "population": 1504,
          "superficie_km2": 37.0,
          "latitude": 48.1619988,
          "longitude": 2.052,
          "distance_km": 15.13
        },
        {
          "code_insee": "45224",
          "nom": "Neuville-aux-Bois",
          "slug": "neuville-aux-bois",
          "code_postal": "45170",
          "population": 4981,
          "superficie_km2": 32.0,
          "latitude": 48.0690002,
          "longitude": 2.059,
          "distance_km": 15.51
        },
        {
          "code_insee": "45188",
          "nom": "Loury",
          "slug": "loury",
          "code_postal": "45470",
          "population": 2548,
          "superficie_km2": 34.0,
          "latitude": 48.0099983,
          "longitude": 2.092,
          "distance_km": 17.47
        },
        {
          "code_insee": "45009",
          "nom": "Aschères-le-Marché",
          "slug": "ascheres-le-marche",
          "code_postal": "45170",
          "population": 1142,
          "superficie_km2": 21.0,
          "latitude": 48.1119995,
          "longitude": 2.01,
          "distance_km": 17.82
        },
        {
          "code_insee": "77027",
          "nom": "Beaumont-du-Gâtinais",
          "slug": "beaumont-du-gatinais",
          "code_postal": "77890",
          "population": 1155,
          "superficie_km2": 17.0,
          "latitude": 48.1409988,
          "longitude": 2.4920001,
          "distance_km": 18.1
        },
        {
          "code_insee": "45258",
          "nom": "Puiseaux",
          "slug": "puiseaux",
          "code_postal": "45390",
          "population": 3374,
          "superficie_km2": 20.0,
          "latitude": 48.2089996,
          "longitude": 2.467,
          "distance_km": 18.56
        },
        {
          "code_insee": "45310",
          "nom": "Sermaises",
          "slug": "sermaises",
          "code_postal": "45300",
          "population": 1697,
          "superficie_km2": 21.0,
          "latitude": 48.2980003,
          "longitude": 2.2030001,
          "distance_km": 19.32
        },
        {
          "code_insee": "45240",
          "nom": "Outarville",
          "slug": "outarville",
          "code_postal": "45480",
          "population": 1332,
          "superficie_km2": 47.0,
          "latitude": 48.2140007,
          "longitude": 2.0220001,
          "distance_km": 19.42
        },
        {
          "code_insee": "45259",
          "nom": "Quiers-sur-Bezonde",
          "slug": "quiers-sur-bezonde",
          "code_postal": "45270",
          "population": 1146,
          "superficie_km2": 17.0,
          "latitude": 47.987999,
          "longitude": 2.4260001,
          "distance_km": 20.3
        },
        {
          "code_insee": "45031",
          "nom": "Bellegarde",
          "slug": "bellegarde",
          "code_postal": "45270",
          "population": 1435,
          "superficie_km2": 5.0,
          "latitude": 47.9799995,
          "longitude": 2.4159999,
          "distance_km": 20.52
        },
        {
          "code_insee": "45327",
          "nom": "Traînou",
          "slug": "trainou",
          "code_postal": "45470",
          "population": 3435,
          "superficie_km2": 33.0,
          "latitude": 47.9650002,
          "longitude": 2.1040001,
          "distance_km": 20.99
        },
        {
          "code_insee": "45191",
          "nom": "Le Malesherbois",
          "slug": "le-malesherbois",
          "code_postal": "45330",
          "population": 8005,
          "superficie_km2": 18.0,
          "latitude": 48.2890015,
          "longitude": 2.398,
          "distance_km": 21.13
        }
      ],
      "zonage_abc": "C",
      "reclassement_abc": "Non",
      "codes_postaux": [
        {
          "code_postal": "45300",
          "libelle_acheminement": "ASCOUX"
        }
      ],
      "logement": {
        "logements_total": 501,
        "residences_principales": 432,
        "logements_vacants": 58,
        "residences_secondaires": 10,
        "maisons": 424,
        "appartements": 75,
        "proprietaires": 326,
        "locataires": 99,
        "hlm": 18,
        "construits_avant_1919": 67,
        "construits_1919_1945": 35,
        "construits_1946_1970": 41,
        "construits_1971_1990": 103,
        "construits_1991_2005": 81,
        "construits_2006_2019": 101,
        "chauffage_electrique": 217,
        "chauffage_fioul": 72,
        "chauffage_gaz_ville": 11,
        "chauffage_gaz_bouteille": 27,
        "chauffage_autre": 103,
        "menages": 432,
        "logements_avant_1990": 246
      },
      "artisans": {
        "monte_escalier": 0,
        "chauffage_pac_clim": 3,
        "isolation": 2,
        "menuiserie": 2,
        "fenetres_velux": 2,
        "couverture_toiture": 2,
        "facade_peinture": 2,
        "portes_volets": 2,
        "piscine": 1,
        "vmc_ventilation": 3,
        "assainissement": 0
      },
      "revenus": {
        "revenu_median": 21380.0,
        "part_menages_imposes": null,
        "taux_pauvrete": null
      },
      "aides_etat": {
        "zone_climatique": "H1",
        "qpv": false,
        "action_coeur_de_ville": false,
        "petites_villes_de_demain": false
      }
    },
    {
      "code_insee": "45011",
      "nom": "Attray",
      "nom_a": null,
      "nom_de": null,
      "slug": "attray",
      "code_postal": "45170",
      "population": 208,
      "superficie_km2": 1687.52,
      "latitude": 48.1158,
      "longitude": 2.1234,
      "villes_proches": [
        {
          "code_insee": "45214",
          "nom": "Montigny",
          "slug": "montigny",
          "code_postal": "45170",
          "population": 246,
          "superficie_km2": 534.66,
          "latitude": 48.107,
          "longitude": 2.1169,
          "distance_km": 1.09
        },
        {
          "code_insee": "45301",
          "nom": "Santeau",
          "slug": "santeau",
          "code_postal": "45170",
          "population": 390,
          "superficie_km2": 868.73,
          "latitude": 48.095,
          "longitude": 2.1491,
          "distance_km": 3.0
        },
        {
          "code_insee": "45174",
          "nom": "Jouy-en-Pithiverais",
          "slug": "jouy-en-pithiverais",
          "code_postal": "45480",
          "population": 263,
          "superficie_km2": 1589.66,
          "latitude": 48.1508,
          "longitude": 2.1261,
          "distance_km": 3.9
        },
        {
          "code_insee": "45118",
          "nom": "Crottes-en-Pithiverais",
          "slug": "crottes-en-pithiverais",
          "code_postal": "45170",
          "population": 321,
          "superficie_km2": 1366.04,
          "latitude": 48.1125,
          "longitude": 2.0634,
          "distance_km": 4.47
        },
        {
          "code_insee": "45137",
          "nom": "Escrennes",
          "slug": "escrennes",
          "code_postal": "45300",
          "population": 697,
          "superficie_km2": 1148.23,
          "latitude": 48.1364,
          "longitude": 2.184,
          "distance_km": 5.05
        },
        {
          "code_insee": "45195",
          "nom": "Mareau-aux-Bois",
          "slug": "mareau-aux-bois",
          "code_postal": "45300",
          "population": 570,
          "superficie_km2": 1158.09,
          "latitude": 48.0968,
          "longitude": 2.1925,
          "distance_km": 5.55
        },
        {
          "code_insee": "45086",
          "nom": "Châtillon-le-Roi",
          "slug": "chatillon-le-roi",
          "code_postal": "45480",
          "population": 278,
          "superficie_km2": 458.39,
          "latitude": 48.1635,
          "longitude": 2.1006,
          "distance_km": 5.57
        },
        {
          "code_insee": "45095",
          "nom": "Chilleurs-aux-Bois",
          "slug": "chilleurs-aux-bois",
          "code_postal": "45170",
          "population": 2084,
          "superficie_km2": 5251.76,
          "latitude": 48.0621,
          "longitude": 2.1412,
          "distance_km": 6.12
        },
        {
          "code_insee": "45025",
          "nom": "Bazoches-les-Gallerandes",
          "slug": "bazoches-les-gallerandes",
          "code_postal": "45480",
          "population": 1465,
          "superficie_km2": 3696.86,
          "latitude": 48.1653,
          "longitude": 2.0663,
          "distance_km": 6.95
        },
        {
          "code_insee": "45177",
          "nom": "Laas",
          "slug": "laas",
          "code_postal": "45300",
          "population": 243,
          "superficie_km2": 659.62,
          "latitude": 48.1206,
          "longitude": 2.2176,
          "distance_km": 7.01
        },
        {
          "code_insee": "45224",
          "nom": "Neuville-aux-Bois",
          "slug": "neuville-aux-bois",
          "code_postal": "45170",
          "population": 4987,
          "superficie_km2": 3179.74,
          "latitude": 48.0682,
          "longitude": 2.0592,
          "distance_km": 7.12
        },
        {
          "code_insee": "45160",
          "nom": "Greneville-en-Beauce",
          "slug": "greneville-en-beauce",
          "code_postal": "45480",
          "population": 654,
          "superficie_km2": 2256.35,
          "latitude": 48.1936,
          "longitude": 2.1155,
          "distance_km": 8.67
        },
        {
          "code_insee": "45253",
          "nom": "Pithiviers-le-Vieil",
          "slug": "pithiviers-le-vieil",
          "code_postal": "45300",
          "population": 1718,
          "superficie_km2": 3369.46,
          "latitude": 48.1732,
          "longitude": 2.2038,
          "distance_km": 8.74
        },
        {
          "code_insee": "45009",
          "nom": "Aschères-le-Marché",
          "slug": "ascheres-le-marche",
          "code_postal": "45170",
          "population": 1157,
          "superficie_km2": 2100.12,
          "latitude": 48.1103,
          "longitude": 2.0043,
          "distance_km": 8.86
        },
        {
          "code_insee": "45047",
          "nom": "Bouzonville-aux-Bois",
          "slug": "bouzonville-aux-bois",
          "code_postal": "45300",
          "population": 428,
          "superficie_km2": 753.86,
          "latitude": 48.1037,
          "longitude": 2.2451,
          "distance_km": 9.14
        },
        {
          "code_insee": "45111",
          "nom": "Courcy-aux-Loges",
          "slug": "courcy-aux-loges",
          "code_postal": "45300",
          "population": 454,
          "superficie_km2": 2090.09,
          "latitude": 48.0548,
          "longitude": 2.2188,
          "distance_km": 9.81
        },
        {
          "code_insee": "45044",
          "nom": "Bougy-lez-Neuville",
          "slug": "bougy-lez-neuville",
          "code_postal": "45170",
          "population": 154,
          "superficie_km2": 1686.8,
          "latitude": 48.0455,
          "longitude": 2.0233,
          "distance_km": 10.79
        },
        {
          "code_insee": "45162",
          "nom": "Guigneville",
          "slug": "guigneville",
          "code_postal": "45300",
          "population": 540,
          "superficie_km2": 3207.65,
          "latitude": 48.2182,
          "longitude": 2.1769,
          "distance_km": 12.06
        },
        {
          "code_insee": "45181",
          "nom": "Léouville",
          "slug": "leouville",
          "code_postal": "45480",
          "population": 85,
          "superficie_km2": 429.5,
          "latitude": 48.2238,
          "longitude": 2.0877,
          "distance_km": 12.3
        },
        {
          "code_insee": "45188",
          "nom": "Loury",
          "slug": "loury",
          "code_postal": "45470",
          "population": 2616,
          "superficie_km2": 3433.87,
          "latitude": 48.0047,
          "longitude": 2.0997,
          "distance_km": 12.48
        }
      ],
      "zonage_abc": "C",
      "reclassement_abc": "Non",
      "codes_postaux": [
        {
          "code_postal": "45170",
          "libelle_acheminement": "ATTRAY"
        }
      ],
      "logement": {
        "logements_total": 109,
        "residences_principales": 89,
        "logements_vacants": 9,
        "residences_secondaires": 11,
        "maisons": 109,
        "appartements": 0,
        "proprietaires": 76,
        "locataires": 11,
        "hlm": 0,
        "construits_avant_1919": 32,
        "construits_1919_1945": 9,
        "construits_1946_1970": 14,
        "construits_1971_1990": 14,
        "construits_1991_2005": 11,
        "construits_2006_2019": 9,
        "chauffage_electrique": 38,
        "chauffage_fioul": 18,
        "chauffage_gaz_ville": 0,
        "chauffage_gaz_bouteille": 3,
        "chauffage_autre": 30,
        "menages": 89,
        "logements_avant_1990": 69
      },
      "artisans": {
        "monte_escalier": 0,
        "chauffage_pac_clim": 0,
        "isolation": 0,
        "menuiserie": 0,
        "fenetres_velux": 0,
        "couverture_toiture": 0,
        "facade_peinture": 0,
        "portes_volets": 0,
        "piscine": 1,
        "vmc_ventilation": 0,
        "assainissement": 0
      },
      "revenus": {
        "revenu_median": 23450.0,
        "part_menages_imposes": null,
        "taux_pauvrete": null
      },
      "aides_etat": {
        "zone_climatique": "H1",
        "qpv": false,
        "action_coeur_de_ville": false,
        "petites_villes_de_demain": false
      }
    },
    {
      "code_insee": "45012",
      "nom": "Audeville",
      "nom_a": null,
      "nom_de": null,
      "slug": "audeville",
      "code_postal": "45300",
      "population": 179,
      "superficie_km2": 1269.39,
      "latitude": 48.2808,
      "longitude": 2.2427,
      "villes_proches": [
        {
          "code_insee": "45310",
          "nom": "Sermaises",
          "slug": "sermaises",
          "code_postal": "45300",
          "population": 1709,
          "superficie_km2": 2125.11,
          "latitude": 48.2956,
          "longitude": 2.2055,
          "distance_km": 3.21
        },
        {
          "code_insee": "45170",
          "nom": "Intville-la-Guétard",
          "slug": "intville-la-guetard",
          "code_postal": "45300",
          "population": 164,
          "superficie_km2": 488.2,
          "latitude": 48.2541,
          "longitude": 2.2177,
          "distance_km": 3.5
        },
        {
          "code_insee": "45065",
          "nom": "Césarville-Dossainville",
          "slug": "cesarville-dossainville",
          "code_postal": "45300",
          "population": 217,
          "superficie_km2": 1919.73,
          "latitude": 48.2633,
          "longitude": 2.2866,
          "distance_km": 3.79
        },
        {
          "code_insee": "91067",
          "nom": "Blandy",
          "slug": "blandy",
          "code_postal": "91150",
          "population": 111,
          "superficie_km2": 789.14,
          "latitude": 48.3205,
          "longitude": 2.2576,
          "distance_km": 4.55
        },
        {
          "code_insee": "45133",
          "nom": "Engenville",
          "slug": "engenville",
          "code_postal": "45300",
          "population": 527,
          "superficie_km2": 1811.03,
          "latitude": 48.2369,
          "longitude": 2.237,
          "distance_km": 4.9
        },
        {
          "code_insee": "45320",
          "nom": "Thignonville",
          "slug": "thignonville",
          "code_postal": "45300",
          "population": 372,
          "superficie_km2": 914.38,
          "latitude": 48.2712,
          "longitude": 2.1762,
          "distance_km": 5.04
        },
        {
          "code_insee": "45263",
          "nom": "Rouvres-Saint-Jean",
          "slug": "rouvres-saint-jean",
          "code_postal": "45300",
          "population": 298,
          "superficie_km2": 1012.97,
          "latitude": 48.327,
          "longitude": 2.214,
          "distance_km": 5.56
        },
        {
          "code_insee": "91112",
          "nom": "Brouy",
          "slug": "brouy",
          "code_postal": "91150",
          "population": 134,
          "superficie_km2": 849.44,
          "latitude": 48.3268,
          "longitude": 2.2927,
          "distance_km": 6.31
        },
        {
          "code_insee": "45217",
          "nom": "Morville-en-Beauce",
          "slug": "morville-en-beauce",
          "code_postal": "45300",
          "population": 175,
          "superficie_km2": 1102.6,
          "latitude": 48.2567,
          "longitude": 2.1614,
          "distance_km": 6.59
        },
        {
          "code_insee": "91001",
          "nom": "Abbéville-la-Rivière",
          "slug": "abbeville-la-riviere",
          "code_postal": "91150",
          "population": 322,
          "superficie_km2": 1504.58,
          "latitude": 48.3369,
          "longitude": 2.197,
          "distance_km": 7.09
        },
        {
          "code_insee": "45191",
          "nom": "Le Malesherbois",
          "slug": "le-malesherbois",
          "code_postal": "45300",
          "population": 8016,
          "superficie_km2": 8521.33,
          "latitude": 48.2745,
          "longitude": 2.3392,
          "distance_km": 7.18
        },
        {
          "code_insee": "45260",
          "nom": "Ramoulu",
          "slug": "ramoulu",
          "code_postal": "45300",
          "population": 241,
          "superficie_km2": 1202.18,
          "latitude": 48.2306,
          "longitude": 2.3043,
          "distance_km": 7.21
        },
        {
          "code_insee": "91526",
          "nom": "Roinvilliers",
          "slug": "roinvilliers",
          "code_postal": "91150",
          "population": 112,
          "superficie_km2": 717.48,
          "latitude": 48.3461,
          "longitude": 2.2321,
          "distance_km": 7.3
        },
        {
          "code_insee": "45198",
          "nom": "Marsainvilliers",
          "slug": "marsainvilliers",
          "code_postal": "45300",
          "population": 303,
          "superficie_km2": 1076.69,
          "latitude": 48.2129,
          "longitude": 2.2737,
          "distance_km": 7.89
        },
        {
          "code_insee": "45162",
          "nom": "Guigneville",
          "slug": "guigneville",
          "code_postal": "45300",
          "population": 540,
          "superficie_km2": 3207.65,
          "latitude": 48.2182,
          "longitude": 2.1769,
          "distance_km": 8.5
        },
        {
          "code_insee": "91137",
          "nom": "Champmotteux",
          "slug": "champmotteux",
          "code_postal": "91150",
          "population": 356,
          "superficie_km2": 756.58,
          "latitude": 48.3431,
          "longitude": 2.3161,
          "distance_km": 8.8
        },
        {
          "code_insee": "91399",
          "nom": "Mespuits",
          "slug": "mespuits",
          "code_postal": "91150",
          "population": 184,
          "superficie_km2": 996.33,
          "latitude": 48.3574,
          "longitude": 2.2802,
          "distance_km": 8.96
        },
        {
          "code_insee": "91374",
          "nom": "Marolles-en-Beauce",
          "slug": "marolles-en-beauce",
          "code_postal": "91150",
          "population": 237,
          "superficie_km2": 598.05,
          "latitude": 48.3713,
          "longitude": 2.2067,
          "distance_km": 10.41
        },
        {
          "code_insee": "91075",
          "nom": "Bois-Herpin",
          "slug": "bois-herpin",
          "code_postal": "91150",
          "population": 81,
          "superficie_km2": 391.77,
          "latitude": 48.375,
          "longitude": 2.2393,
          "distance_km": 10.48
        },
        {
          "code_insee": "45252",
          "nom": "Pithiviers",
          "slug": "pithiviers",
          "code_postal": "45300",
          "population": 8856,
          "superficie_km2": 686.37,
          "latitude": 48.1805,
          "longitude": 2.2501,
          "distance_km": 11.17
        }
      ],
      "zonage_abc": "C",
      "reclassement_abc": "Non",
      "codes_postaux": [
        {
          "code_postal": "45300",
          "libelle_acheminement": "AUDEVILLE"
        }
      ],
      "logement": {
        "logements_total": 78,
        "residences_principales": 68,
        "logements_vacants": 5,
        "residences_secondaires": 5,
        "maisons": 76,
        "appartements": 2,
        "proprietaires": 58,
        "locataires": 8,
        "hlm": 0,
        "construits_avant_1919": 34,
        "construits_1919_1945": 8,
        "construits_1946_1970": 5,
        "construits_1971_1990": 8,
        "construits_1991_2005": 5,
        "construits_2006_2019": 3,
        "chauffage_electrique": 20,
        "chauffage_fioul": 14,
        "chauffage_gaz_ville": 0,
        "chauffage_gaz_bouteille": 5,
        "chauffage_autre": 26,
        "menages": 68,
        "logements_avant_1990": 55
      },
      "artisans": {
        "monte_escalier": 0,
        "chauffage_pac_clim": 0,
        "isolation": 0,
        "menuiserie": 0,
        "fenetres_velux": 0,
        "couverture_toiture": 0,
        "facade_peinture": 1,
        "portes_volets": 0,
        "piscine": 0,
        "vmc_ventilation": 0,
        "assainissement": 0
      },
      "revenus": {
        "revenu_median": 22930.0,
        "part_menages_imposes": null,
        "taux_pauvrete": null
      },
      "aides_etat": {
        "zone_climatique": "H1",
        "qpv": false,
        "action_coeur_de_ville": false,
        "petites_villes_de_demain": false
      }
    },
    {
      "code_insee": "45013",
      "nom": "Augerville-la-Rivière",
      "nom_a": null,
      "nom_de": null,
      "slug": "augerville-la-riviere",
      "code_postal": "45330",
      "population": 211,
      "superficie_km2": 402.16,
      "latitude": 48.2542,
      "longitude": 2.4193,
      "villes_proches": [
        {
          "code_insee": "45125",
          "nom": "Dimancheville",
          "slug": "dimancheville",
          "code_postal": "45390",
          "population": 105,
          "superficie_km2": 235.51,
          "latitude": 48.2393,
          "longitude": 2.4248,
          "distance_km": 1.71
        },
        {
          "code_insee": "77046",
          "nom": "Boulancourt",
          "slug": "boulancourt",
          "code_postal": "77760",
          "population": 350,
          "superficie_km2": 647.43,
          "latitude": 48.2606,
          "longitude": 2.4483,
          "distance_km": 2.26
        },
        {
          "code_insee": "45237",
          "nom": "Orville",
          "slug": "orville",
          "code_postal": "45390",
          "population": 128,
          "superficie_km2": 720.76,
          "latitude": 48.243,
          "longitude": 2.4582,
          "distance_km": 3.14
        },
        {
          "code_insee": "45054",
          "nom": "Briarres-sur-Essonne",
          "slug": "briarres-sur-essonne",
          "code_postal": "45390",
          "population": 527,
          "superficie_km2": 825.61,
          "latitude": 48.2241,
          "longitude": 2.4167,
          "distance_km": 3.35
        },
        {
          "code_insee": "77060",
          "nom": "Buthiers",
          "slug": "buthiers",
          "code_postal": "77760",
          "population": 792,
          "superficie_km2": 1959.73,
          "latitude": 48.2902,
          "longitude": 2.4603,
          "distance_km": 5.02
        },
        {
          "code_insee": "77395",
          "nom": "Rumont",
          "slug": "rumont",
          "code_postal": "77760",
          "population": 125,
          "superficie_km2": 659.6,
          "latitude": 48.2707,
          "longitude": 2.4966,
          "distance_km": 6.01
        },
        {
          "code_insee": "45014",
          "nom": "Aulnay-la-Rivière",
          "slug": "aulnay-la-riviere",
          "code_postal": "45390",
          "population": 511,
          "superficie_km2": 1613.43,
          "latitude": 48.2078,
          "longitude": 2.3753,
          "distance_km": 6.1
        },
        {
          "code_insee": "45233",
          "nom": "Ondreville-sur-Essonne",
          "slug": "ondreville-sur-essonne",
          "code_postal": "45390",
          "population": 400,
          "superficie_km2": 658.27,
          "latitude": 48.1985,
          "longitude": 2.4176,
          "distance_km": 6.19
        },
        {
          "code_insee": "45258",
          "nom": "Puiseaux",
          "slug": "puiseaux",
          "code_postal": "45390",
          "population": 3299,
          "superficie_km2": 2028.67,
          "latitude": 48.2084,
          "longitude": 2.4679,
          "distance_km": 6.24
        },
        {
          "code_insee": "45191",
          "nom": "Le Malesherbois",
          "slug": "le-malesherbois",
          "code_postal": "45300",
          "population": 8016,
          "superficie_km2": 8521.33,
          "latitude": 48.2745,
          "longitude": 2.3392,
          "distance_km": 6.34
        },
        {
          "code_insee": "77198",
          "nom": "Fromont",
          "slug": "fromont",
          "code_postal": "77760",
          "population": 230,
          "superficie_km2": 1066.73,
          "latitude": 48.255,
          "longitude": 2.5056,
          "distance_km": 6.39
        },
        {
          "code_insee": "45124",
          "nom": "Desmonts",
          "slug": "desmonts",
          "code_postal": "45390",
          "population": 169,
          "superficie_km2": 475.92,
          "latitude": 48.2249,
          "longitude": 2.4986,
          "distance_km": 6.72
        },
        {
          "code_insee": "77328",
          "nom": "Nanteau-sur-Essonne",
          "slug": "nanteau-sur-essonne",
          "code_postal": "77760",
          "population": 414,
          "superficie_km2": 1289.75,
          "latitude": 48.3184,
          "longitude": 2.4262,
          "distance_km": 7.16
        },
        {
          "code_insee": "45159",
          "nom": "Grangermont",
          "slug": "grangermont",
          "code_postal": "45390",
          "population": 175,
          "superficie_km2": 394.81,
          "latitude": 48.1878,
          "longitude": 2.4279,
          "distance_km": 7.41
        },
        {
          "code_insee": "77041",
          "nom": "Boissy-aux-Cailles",
          "slug": "boissy-aux-cailles",
          "code_postal": "77760",
          "population": 272,
          "superficie_km2": 1637.33,
          "latitude": 48.3099,
          "longitude": 2.4897,
          "distance_km": 8.09
        },
        {
          "code_insee": "45225",
          "nom": "La Neuville-sur-Essonne",
          "slug": "la-neuville-sur-essonne",
          "code_postal": "45390",
          "population": 359,
          "superficie_km2": 922.39,
          "latitude": 48.1805,
          "longitude": 2.3798,
          "distance_km": 8.7
        },
        {
          "code_insee": "91069",
          "nom": "Boigneville",
          "slug": "boigneville",
          "code_postal": "91720",
          "population": 369,
          "superficie_km2": 1576.5,
          "latitude": 48.328,
          "longitude": 2.3655,
          "distance_km": 9.12
        },
        {
          "code_insee": "45056",
          "nom": "Bromeilles",
          "slug": "bromeilles",
          "code_postal": "45390",
          "population": 319,
          "superficie_km2": 1474.23,
          "latitude": 48.1855,
          "longitude": 2.4906,
          "distance_km": 9.29
        },
        {
          "code_insee": "45131",
          "nom": "Échilleuses",
          "slug": "echilleuses",
          "code_postal": "45390",
          "population": 390,
          "superficie_km2": 1250.3,
          "latitude": 48.1702,
          "longitude": 2.4444,
          "distance_km": 9.52
        },
        {
          "code_insee": "77471",
          "nom": "Tousson",
          "slug": "tousson",
          "code_postal": "77123",
          "population": 334,
          "superficie_km2": 1323.46,
          "latitude": 48.3454,
          "longitude": 2.4591,
          "distance_km": 10.56
        }
      ],
      "zonage_abc": "C",
      "reclassement_abc": "Non",
      "codes_postaux": [
        {
          "code_postal": "45330",
          "libelle_acheminement": "AUGERVILLE LA RIVIERE"
        }
      ],
      "logement": {
        "logements_total": 150,
        "residences_principales": 110,
        "logements_vacants": 10,
        "residences_secondaires": 30,
        "maisons": 139,
        "appartements": 10,
        "proprietaires": 92,
        "locataires": 15,
        "hlm": 2,
        "construits_avant_1919": 35,
        "construits_1919_1945": 11,
        "construits_1946_1970": 12,
        "construits_1971_1990": 22,
        "construits_1991_2005": 21,
        "construits_2006_2019": 7,
        "chauffage_electrique": 43,
        "chauffage_fioul": 29,
        "chauffage_gaz_ville": 1,
        "chauffage_gaz_bouteille": 9,
        "chauffage_autre": 27,
        "menages": 110,
        "logements_avant_1990": 80
      },
      "artisans": {
        "monte_escalier": 0,
        "chauffage_pac_clim": 0,
        "isolation": 0,
        "menuiserie": 1,
        "fenetres_velux": 1,
        "couverture_toiture": 0,
        "facade_peinture": 2,
        "portes_volets": 1,
        "piscine": 0,
        "vmc_ventilation": 0,
        "assainissement": 0
      },
      "revenus": {
        "revenu_median": 25870.0,
        "part_menages_imposes": null,
        "taux_pauvrete": null
      },
      "aides_etat": {
        "zone_climatique": "H1",
        "qpv": false,
        "action_coeur_de_ville": false,
        "petites_villes_de_demain": false
      }
    },
    {
      "code_insee": "45014",
      "nom": "Aulnay-la-Rivière",
      "nom_a": null,
      "nom_de": null,
      "slug": "aulnay-la-riviere",
      "code_postal": "45390",
      "population": 511,
      "superficie_km2": 1613.43,
      "latitude": 48.2078,
      "longitude": 2.3753,
      "villes_proches": [
        {
          "code_insee": "45225",
          "nom": "La Neuville-sur-Essonne",
          "slug": "la-neuville-sur-essonne",
          "code_postal": "45390",
          "population": 359,
          "superficie_km2": 922.39,
          "latitude": 48.1805,
          "longitude": 2.3798,
          "distance_km": 3.05
        },
        {
          "code_insee": "45233",
          "nom": "Ondreville-sur-Essonne",
          "slug": "ondreville-sur-essonne",
          "code_postal": "45390",
          "population": 400,
          "superficie_km2": 658.27,
          "latitude": 48.1985,
          "longitude": 2.4176,
          "distance_km": 3.3
        },
        {
          "code_insee": "45054",
          "nom": "Briarres-sur-Essonne",
          "slug": "briarres-sur-essonne",
          "code_postal": "45390",
          "population": 527,
          "superficie_km2": 825.61,
          "latitude": 48.2241,
          "longitude": 2.4167,
          "distance_km": 3.56
        },
        {
          "code_insee": "45139",
          "nom": "Estouy",
          "slug": "estouy",
          "code_postal": "45300",
          "population": 508,
          "superficie_km2": 1870.0,
          "latitude": 48.1912,
          "longitude": 2.3238,
          "distance_km": 4.24
        },
        {
          "code_insee": "45159",
          "nom": "Grangermont",
          "slug": "grangermont",
          "code_postal": "45390",
          "population": 175,
          "superficie_km2": 394.81,
          "latitude": 48.1878,
          "longitude": 2.4279,
          "distance_km": 4.49
        },
        {
          "code_insee": "45125",
          "nom": "Dimancheville",
          "slug": "dimancheville",
          "code_postal": "45390",
          "population": 105,
          "superficie_km2": 235.51,
          "latitude": 48.2393,
          "longitude": 2.4248,
          "distance_km": 5.07
        },
        {
          "code_insee": "45260",
          "nom": "Ramoulu",
          "slug": "ramoulu",
          "code_postal": "45300",
          "population": 241,
          "superficie_km2": 1202.18,
          "latitude": 48.2306,
          "longitude": 2.3043,
          "distance_km": 5.84
        },
        {
          "code_insee": "45013",
          "nom": "Augerville-la-Rivière",
          "slug": "augerville-la-riviere",
          "code_postal": "45330",
          "population": 211,
          "superficie_km2": 402.16,
          "latitude": 48.2542,
          "longitude": 2.4193,
          "distance_km": 6.1
        },
        {
          "code_insee": "45157",
          "nom": "Givraines",
          "slug": "givraines",
          "code_postal": "45300",
          "population": 423,
          "superficie_km2": 1125.36,
          "latitude": 48.151,
          "longitude": 2.3851,
          "distance_km": 6.36
        },
        {
          "code_insee": "45131",
          "nom": "Échilleuses",
          "slug": "echilleuses",
          "code_postal": "45390",
          "population": 390,
          "superficie_km2": 1250.3,
          "latitude": 48.1702,
          "longitude": 2.4444,
          "distance_km": 6.61
        },
        {
          "code_insee": "45258",
          "nom": "Puiseaux",
          "slug": "puiseaux",
          "code_postal": "45390",
          "population": 3299,
          "superficie_km2": 2028.67,
          "latitude": 48.2084,
          "longitude": 2.4679,
          "distance_km": 6.86
        },
        {
          "code_insee": "45237",
          "nom": "Orville",
          "slug": "orville",
          "code_postal": "45390",
          "population": 128,
          "superficie_km2": 720.76,
          "latitude": 48.243,
          "longitude": 2.4582,
          "distance_km": 7.28
        },
        {
          "code_insee": "45038",
          "nom": "Bondaroy",
          "slug": "bondaroy",
          "code_postal": "45300",
          "population": 411,
          "superficie_km2": 700.49,
          "latitude": 48.1853,
          "longitude": 2.28,
          "distance_km": 7.49
        },
        {
          "code_insee": "45033",
          "nom": "Boësses",
          "slug": "boesses",
          "code_postal": "45390",
          "population": 384,
          "superficie_km2": 1309.64,
          "latitude": 48.1503,
          "longitude": 2.4331,
          "distance_km": 7.7
        },
        {
          "code_insee": "45191",
          "nom": "Le Malesherbois",
          "slug": "le-malesherbois",
          "code_postal": "45300",
          "population": 8016,
          "superficie_km2": 8521.33,
          "latitude": 48.2745,
          "longitude": 2.3392,
          "distance_km": 7.88
        },
        {
          "code_insee": "77046",
          "nom": "Boulancourt",
          "slug": "boulancourt",
          "code_postal": "77760",
          "population": 350,
          "superficie_km2": 647.43,
          "latitude": 48.2606,
          "longitude": 2.4483,
          "distance_km": 7.98
        },
        {
          "code_insee": "45348",
          "nom": "Yèvre-la-Ville",
          "slug": "yevre-la-ville",
          "code_postal": "45300",
          "population": 652,
          "superficie_km2": 2667.11,
          "latitude": 48.1404,
          "longitude": 2.326,
          "distance_km": 8.34
        },
        {
          "code_insee": "45151",
          "nom": "Gaubertin",
          "slug": "gaubertin",
          "code_postal": "45340",
          "population": 251,
          "superficie_km2": 728.43,
          "latitude": 48.1256,
          "longitude": 2.4283,
          "distance_km": 9.95
        },
        {
          "code_insee": "45050",
          "nom": "Boynes",
          "slug": "boynes",
          "code_postal": "45300",
          "population": 1289,
          "superficie_km2": 1540.91,
          "latitude": 48.1169,
          "longitude": 2.3603,
          "distance_km": 10.17
        },
        {
          "code_insee": "45021",
          "nom": "Barville-en-Gâtinais",
          "slug": "barville-en-gatinais",
          "code_postal": "45340",
          "population": 304,
          "superficie_km2": 1030.48,
          "latitude": 48.1116,
          "longitude": 2.401,
          "distance_km": 10.87
        }
      ],
      "zonage_abc": "C",
      "reclassement_abc": "Non",
      "codes_postaux": [
        {
          "code_postal": "45390",
          "libelle_acheminement": "AULNAY LA RIVIERE"
        }
      ],
      "logement": {
        "logements_total": 302,
        "residences_principales": 234,
        "logements_vacants": 28,
        "residences_secondaires": 39,
        "maisons": 297,
        "appartements": 4,
        "proprietaires": 209,
        "locataires": 19,
        "hlm": 0,
        "construits_avant_1919": 66,
        "construits_1919_1945": 17,
        "construits_1946_1970": 28,
        "construits_1971_1990": 76,
        "construits_1991_2005": 29,
        "construits_2006_2019": 13,
        "chauffage_electrique": 100,
        "chauffage_fioul": 44,
        "chauffage_gaz_ville": 0,
        "chauffage_gaz_bouteille": 6,
        "chauffage_autre": 83,
        "menages": 234,
        "logements_avant_1990": 187
      },
      "artisans": {
        "monte_escalier": 0,
        "chauffage_pac_clim": 2,
        "isolation": 0,
        "menuiserie": 1,
        "fenetres_velux": 1,
        "couverture_toiture": 0,
        "facade_peinture": 1,
        "portes_volets": 1,
        "piscine": 0,
        "vmc_ventilation": 1,
        "assainissement": 1
      },
      "revenus": {
        "revenu_median": 24120.0,
        "part_menages_imposes": null,
        "taux_pauvrete": null
      },
      "aides_etat": {
        "zone_climatique": "H1",
        "qpv": false,
        "action_coeur_de_ville": false,
        "petites_villes_de_demain": false
      }
    },
    {
      "code_insee": "45015",
      "nom": "Autruy-sur-Juine",
      "nom_a": null,
      "nom_de": null,
      "slug": "autruy-sur-juine",
      "code_postal": "45480",
      "population": 745,
      "superficie_km2": 2713.53,
      "latitude": 48.2786,
      "longitude": 2.0961,
      "villes_proches": [
        {
          "code_insee": "45246",
          "nom": "Pannecières",
          "slug": "pannecieres",
          "code_postal": "45300",
          "population": 114,
          "superficie_km2": 702.86,
          "latitude": 48.296,
          "longitude": 2.1388,
          "distance_km": 3.7
        },