{
  "departement": {
    "code": "55",
    "nom": "Meuse",
    "slug": "meuse",
    "population_totale": 180980
  },
  "region": {
    "id": 7,
    "code": "06",
    "nom": "Grand Est",
    "slug": "grand-est"
  },
  "voisins": [
    {
      "dep_code": "08",
      "dep_nom": "Ardennes",
      "dep_slug": "ardennes"
    },
    {
      "dep_code": "10",
      "dep_nom": "Aube",
      "dep_slug": "aube"
    },
    {
      "dep_code": "51",
      "dep_nom": "Marne",
      "dep_slug": "marne"
    },
    {
      "dep_code": "52",
      "dep_nom": "Haute-Marne",
      "dep_slug": "haute-marne"
    }
  ],
  "communes_count": 499,
  "communes": [
    {
      "code_insee": "55001",
      "nom": "Abainville",
      "nom_a": null,
      "nom_de": null,
      "slug": "abainville",
      "code_postal": "55130",
      "population": 280,
      "superficie_km2": 1357.19,
      "latitude": 48.531,
      "longitude": 5.5236,
      "villes_proches": [
        {
          "code_insee": "55148",
          "nom": "Delouze-Rosières",
          "slug": "delouze-rosieres",
          "code_postal": "55130",
          "population": 121,
          "superficie_km2": 1504.91,
          "latitude": 48.568,
          "longitude": 5.5354,
          "distance_km": 4.2
        },
        {
          "code_insee": "55026",
          "nom": "Badonvilliers-Gérauvilliers",
          "slug": "badonvilliers-gerauvilliers",
          "code_postal": "55130",
          "population": 126,
          "superficie_km2": 2111.84,
          "latitude": 48.5434,
          "longitude": 5.5781,
          "distance_km": 4.24
        },
        {
          "code_insee": "55215",
          "nom": "Gondrecourt-le-Château",
          "slug": "gondrecourt-le-chateau",
          "code_postal": "55130",
          "population": 1032,
          "superficie_km2": 5131.65,
          "latitude": 48.4924,
          "longitude": 5.4981,
          "distance_km": 4.69
        },
        {
          "code_insee": "55248",
          "nom": "Houdelaincourt",
          "slug": "houdelaincourt",
          "code_postal": "55130",
          "population": 281,
          "superficie_km2": 1606.02,
          "latitude": 48.55,
          "longitude": 5.4521,
          "distance_km": 5.67
        },
        {
          "code_insee": "55005",
          "nom": "Amanty",
          "slug": "amanty",
          "code_postal": "55130",
          "population": 36,
          "superficie_km2": 1112.12,
          "latitude": 48.516,
          "longitude": 5.6016,
          "distance_km": 5.98
        },
        {
          "code_insee": "55247",
          "nom": "Horville-en-Ornois",
          "slug": "horville-en-ornois",
          "code_postal": "55130",
          "population": 45,
          "superficie_km2": 763.56,
          "latitude": 48.4857,
          "longitude": 5.4689,
          "distance_km": 6.45
        },
        {
          "code_insee": "55327",
          "nom": "Mauvages",
          "slug": "mauvages",
          "code_postal": "55190",
          "population": 236,
          "superficie_km2": 2120.3,
          "latitude": 48.5932,
          "longitude": 5.5512,
          "distance_km": 7.21
        },
        {
          "code_insee": "55150",
          "nom": "Demange-Baudignécourt",
          "slug": "demange-baudignecourt",
          "code_postal": "55130",
          "population": 508,
          "superficie_km2": 3120.77,
          "latitude": 48.5865,
          "longitude": 5.4649,
          "distance_km": 7.53
        },
        {
          "code_insee": "55059",
          "nom": "Bonnet",
          "slug": "bonnet",
          "code_postal": "55130",
          "population": 177,
          "superficie_km2": 2897.79,
          "latitude": 48.5243,
          "longitude": 5.4219,
          "distance_km": 7.53
        },
        {
          "code_insee": "55173",
          "nom": "Épiez-sur-Meuse",
          "slug": "epiez-sur-meuse",
          "code_postal": "55140",
          "population": 37,
          "superficie_km2": 816.91,
          "latitude": 48.5427,
          "longitude": 5.6273,
          "distance_km": 7.75
        },
        {
          "code_insee": "55350",
          "nom": "Montigny-lès-Vaucouleurs",
          "slug": "montigny-les-vaucouleurs",
          "code_postal": "55140",
          "population": 74,
          "superficie_km2": 1189.16,
          "latitude": 48.5784,
          "longitude": 5.6041,
          "distance_km": 7.93
        },
        {
          "code_insee": "55574",
          "nom": "Vouthon-Bas",
          "slug": "vouthon-bas",
          "code_postal": "55130",
          "population": 42,
          "superficie_km2": 711.68,
          "latitude": 48.4888,
          "longitude": 5.6165,
          "distance_km": 8.3
        },
        {
          "code_insee": "55575",
          "nom": "Vouthon-Haut",
          "slug": "vouthon-haut",
          "code_postal": "55130",
          "population": 73,
          "superficie_km2": 1336.49,
          "latitude": 48.4784,
          "longitude": 5.6071,
          "distance_km": 8.49
        },
        {
          "code_insee": "55142",
          "nom": "Dainville-Bertheléville",
          "slug": "dainville-bertheleville",
          "code_postal": "55130",
          "population": 120,
          "superficie_km2": 4025.05,
          "latitude": 48.4508,
          "longitude": 5.5135,
          "distance_km": 8.95
        },
        {
          "code_insee": "55559",
          "nom": "Villeroy-sur-Méholle",
          "slug": "villeroy-sur-meholle",
          "code_postal": "55190",
          "population": 52,
          "superficie_km2": 640.18,
          "latitude": 48.6142,
          "longitude": 5.567,
          "distance_km": 9.79
        },
        {
          "code_insee": "55534",
          "nom": "Vaudeville-le-Haut",
          "slug": "vaudeville-le-haut",
          "code_postal": "55130",
          "population": 46,
          "superficie_km2": 968.28,
          "latitude": 48.4465,
          "longitude": 5.594,
          "distance_km": 10.73
        },
        {
          "code_insee": "55421",
          "nom": "Reffroy",
          "slug": "reffroy",
          "code_postal": "55190",
          "population": 72,
          "superficie_km2": 949.53,
          "latitude": 48.6266,
          "longitude": 5.4696,
          "distance_km": 11.35
        },
        {
          "code_insee": "55084",
          "nom": "Broussey-en-Blois",
          "slug": "broussey-en-blois",
          "code_postal": "55190",
          "population": 57,
          "superficie_km2": 1104.94,
          "latitude": 48.6342,
          "longitude": 5.5534,
          "distance_km": 11.68
        },
        {
          "code_insee": "55066",
          "nom": "Bovée-sur-Barboure",
          "slug": "bovee-sur-barboure",
          "code_postal": "55190",
          "population": 133,
          "superficie_km2": 1332.27,
          "latitude": 48.6366,
          "longitude": 5.5123,
          "distance_km": 11.77
        },
        {
          "code_insee": "88025",
          "nom": "Avranville",
          "slug": "avranville",
          "code_postal": "88630",
          "population": 66,
          "superficie_km2": 1089.18,
          "latitude": 48.4165,
          "longitude": 5.5388,
          "distance_km": 12.78
        }
      ],
      "zonage_abc": "C",
      "reclassement_abc": "Non",
      "codes_postaux": [
        {
          "code_postal": "55130",
          "libelle_acheminement": "ABAINVILLE"
        }
      ],
      "logement": {
        "logements_total": 157,
        "residences_principales": 124,
        "logements_vacants": 19,
        "residences_secondaires": 14,
        "maisons": 148,
        "appartements": 9,
        "proprietaires": 99,
        "locataires": 20,
        "hlm": 2,
        "construits_avant_1919": 55,
        "construits_1919_1945": 6,
        "construits_1946_1970": 2,
        "construits_1971_1990": 31,
        "construits_1991_2005": 13,
        "construits_2006_2019": 15,
        "chauffage_electrique": 27,
        "chauffage_fioul": 21,
        "chauffage_gaz_ville": 0,
        "chauffage_gaz_bouteille": 2,
        "chauffage_autre": 73,
        "menages": 124,
        "logements_avant_1990": 94
      },
      "artisans": {
        "monte_escalier": 0,
        "chauffage_pac_clim": 0,
        "isolation": 0,
        "menuiserie": 1,
        "fenetres_velux": 1,
        "couverture_toiture": 0,
        "facade_peinture": 0,
        "portes_volets": 1,
        "piscine": 0,
        "vmc_ventilation": 0,
        "assainissement": 1
      },
      "revenus": {
        "revenu_median": 22250.0,
        "part_menages_imposes": null,
        "taux_pauvrete": null
      },
      "aides_etat": {
        "zone_climatique": "H1",
        "qpv": false,
        "action_coeur_de_ville": false,
        "petites_villes_de_demain": false
      }
    },
    {
      "code_insee": "55002",
      "nom": "Abaucourt-Hautecourt",
      "nom_a": null,
      "nom_de": null,
      "slug": "abaucourt-hautecourt",
      "code_postal": "55400",
      "population": 101,
      "superficie_km2": 964.18,
      "latitude": 49.1998,
      "longitude": 5.5469,
      "villes_proches": [
        {
          "code_insee": "55356",
          "nom": "Moranville",
          "slug": "moranville",
          "code_postal": "55400",
          "population": 103,
          "superficie_km2": 675.25,
          "latitude": 49.1779,
          "longitude": 5.5415,
          "distance_km": 2.47
        },
        {
          "code_insee": "55201",
          "nom": "Fromezey",
          "slug": "fromezey",
          "code_postal": "55400",
          "population": 64,
          "superficie_km2": 589.44,
          "latitude": 49.2092,
          "longitude": 5.5827,
          "distance_km": 2.8
        },
        {
          "code_insee": "55153",
          "nom": "Dieppe-sous-Douaumont",
          "slug": "dieppe-sous-douaumont",
          "code_postal": "55400",
          "population": 187,
          "superficie_km2": 1503.12,
          "latitude": 49.2217,
          "longitude": 5.5201,
          "distance_km": 3.12
        },
        {
          "code_insee": "55357",
          "nom": "Morgemoulin",
          "slug": "morgemoulin",
          "code_postal": "55400",
          "population": 109,
          "superficie_km2": 684.32,
          "latitude": 49.2304,
          "longitude": 5.5693,
          "distance_km": 3.77
        },
        {
          "code_insee": "55143",
          "nom": "Damloup",
          "slug": "damloup",
          "code_postal": "55400",
          "population": 129,
          "superficie_km2": 528.4,
          "latitude": 49.1985,
          "longitude": 5.4951,
          "distance_km": 3.77
        },
        {
          "code_insee": "55219",
          "nom": "Grimaucourt-en-Woëvre",
          "slug": "grimaucourt-en-woevre",
          "code_postal": "55400",
          "population": 94,
          "superficie_km2": 565.24,
          "latitude": 49.164,
          "longitude": 5.5668,
          "distance_km": 4.24
        },
        {
          "code_insee": "55055",
          "nom": "Blanzée",
          "slug": "blanzee",
          "code_postal": "55400",
          "population": 12,
          "superficie_km2": 341.38,
          "latitude": 49.1609,
          "longitude": 5.5335,
          "distance_km": 4.43
        },
        {
          "code_insee": "55244",
          "nom": "Herméville-en-Woëvre",
          "slug": "hermeville-en-woevre",
          "code_postal": "55400",
          "population": 218,
          "superficie_km2": 1458.28,
          "latitude": 49.1768,
          "longitude": 5.6043,
          "distance_km": 4.89
        },
        {
          "code_insee": "55339",
          "nom": "Mogeville",
          "slug": "mogeville",
          "code_postal": "55400",
          "population": 73,
          "superficie_km2": 634.7,
          "latitude": 49.2459,
          "longitude": 5.5402,
          "distance_km": 5.15
        },
        {
          "code_insee": "55171",
          "nom": "Eix",
          "slug": "eix",
          "code_postal": "55400",
          "population": 270,
          "superficie_km2": 1199.51,
          "latitude": 49.1812,
          "longitude": 5.4741,
          "distance_km": 5.68
        },
        {
          "code_insee": "55191",
          "nom": "Foameix-Ornel",
          "slug": "foameix-ornel",
          "code_postal": "55400",
          "population": 229,
          "superficie_km2": 1088.42,
          "latitude": 49.2358,
          "longitude": 5.61,
          "distance_km": 6.09
        },
        {
          "code_insee": "55050",
          "nom": "Bezonvaux",
          "slug": "bezonvaux",
          "code_postal": "55100",
          "population": 0,
          "superficie_km2": 924.85,
          "latitude": 49.2294,
          "longitude": 5.4752,
          "distance_km": 6.16
        },
        {
          "code_insee": "55325",
          "nom": "Maucourt-sur-Orne",
          "slug": "maucourt-sur-orne",
          "code_postal": "55400",
          "population": 51,
          "superficie_km2": 643.13,
          "latitude": 49.253,
          "longitude": 5.5136,
          "distance_km": 6.39
        },
        {
          "code_insee": "55181",
          "nom": "Étain",
          "slug": "etain",
          "code_postal": "55400",
          "population": 3375,
          "superficie_km2": 1992.54,
          "latitude": 49.2204,
          "longitude": 5.6311,
          "distance_km": 6.53
        },
        {
          "code_insee": "55361",
          "nom": "Moulainville",
          "slug": "moulainville",
          "code_postal": "55400",
          "population": 139,
          "superficie_km2": 1123.13,
          "latitude": 49.1587,
          "longitude": 5.4792,
          "distance_km": 6.72
        },
        {
          "code_insee": "55211",
          "nom": "Gincrey",
          "slug": "gincrey",
          "code_postal": "55400",
          "population": 61,
          "superficie_km2": 963.78,
          "latitude": 49.2616,
          "longitude": 5.5642,
          "distance_km": 6.99
        },
        {
          "code_insee": "55579",
          "nom": "Watronville",
          "slug": "watronville",
          "code_postal": "55160",
          "population": 103,
          "superficie_km2": 654.49,
          "latitude": 49.1369,
          "longitude": 5.5414,
          "distance_km": 7.01
        },
        {
          "code_insee": "55105",
          "nom": "Châtillon-sous-les-Côtes",
          "slug": "chatillon-sous-les-cotes",
          "code_postal": "55400",
          "population": 176,
          "superficie_km2": 1071.75,
          "latitude": 49.1393,
          "longitude": 5.5129,
          "distance_km": 7.17
        },
        {
          "code_insee": "55439",
          "nom": "Ronvaux",
          "slug": "ronvaux",
          "code_postal": "55160",
          "population": 105,
          "superficie_km2": 262.98,
          "latitude": 49.1315,
          "longitude": 5.5596,
          "distance_km": 7.65
        },
        {
          "code_insee": "55237",
          "nom": "Haudiomont",
          "slug": "haudiomont",
          "code_postal": "55160",
          "population": 232,
          "superficie_km2": 935.88,
          "latitude": 49.113,
          "longitude": 5.538,
          "distance_km": 9.67
        }
      ],
      "zonage_abc": "C",
      "reclassement_abc": "Non",
      "codes_postaux": [
        {
          "code_postal": "55400",
          "libelle_acheminement": "ABAUCOURT HAUTECOURT"
        }
      ],
      "logement": {
        "logements_total": 52,
        "residences_principales": 45,
        "logements_vacants": 7,
        "residences_secondaires": 0,
        "maisons": 44,
        "appartements": 7,
        "proprietaires": 33,
        "locataires": 9,
        "hlm": 0,
        "construits_avant_1919": 0,
        "construits_1919_1945": 21,
        "construits_1946_1970": 11,
        "construits_1971_1990": 4,
        "construits_1991_2005": 1,
        "construits_2006_2019": 3,
        "chauffage_electrique": 9,
        "chauffage_fioul": 13,
        "chauffage_gaz_ville": 0,
        "chauffage_gaz_bouteille": 3,
        "chauffage_autre": 17,
        "menages": 45,
        "logements_avant_1990": 36
      },
      "artisans": {
        "monte_escalier": 0,
        "chauffage_pac_clim": 0,
        "isolation": 0,
        "menuiserie": 0,
        "fenetres_velux": 0,
        "couverture_toiture": 0,
        "facade_peinture": 0,
        "portes_volets": 0,
        "piscine": 0,
        "vmc_ventilation": 0,
        "assainissement": 0
      },
      "revenus": {
        "revenu_median": null,
        "part_menages_imposes": null,
        "taux_pauvrete": null
      },
      "aides_etat": {
        "zone_climatique": "H1",
        "qpv": false,
        "action_coeur_de_ville": false,
        "petites_villes_de_demain": false
      }
    },
    {
      "code_insee": "55004",
      "nom": "Aincreville",
      "nom_a": null,
      "nom_de": null,
      "slug": "aincreville",
      "code_postal": "55110",
      "population": 80,
      "superficie_km2": 911.0,
      "latitude": 49.3687,
      "longitude": 5.1147,
      "villes_proches": [
        {
          "code_insee": "55118",
          "nom": "Cléry-le-Grand",
          "slug": "clery-le-grand",
          "code_postal": "55110",
          "population": 88,
          "superficie_km2": 719.93,
          "latitude": 49.362,
          "longitude": 5.1421,
          "distance_km": 2.12
        },
        {
          "code_insee": "55561",
          "nom": "Villers-devant-Dun",
          "slug": "villers-devant-dun",
          "code_postal": "55110",
          "population": 52,
          "superficie_km2": 803.25,
          "latitude": 49.3984,
          "longitude": 5.1066,
          "distance_km": 3.35
        },
        {
          "code_insee": "55165",
          "nom": "Doulcon",
          "slug": "doulcon",
          "code_postal": "55110",
          "population": 421,
          "superficie_km2": 864.12,
          "latitude": 49.3856,
          "longitude": 5.156,
          "distance_km": 3.53
        },
        {
          "code_insee": "55028",
          "nom": "Bantheville",
          "slug": "bantheville",
          "code_postal": "55110",
          "population": 102,
          "superficie_km2": 1436.41,
          "latitude": 49.3522,
          "longitude": 5.0718,
          "distance_km": 3.61
        },
        {
          "code_insee": "55119",
          "nom": "Cléry-le-Petit",
          "slug": "clery-le-petit",
          "code_postal": "55110",
          "population": 183,
          "superficie_km2": 458.65,
          "latitude": 49.3647,
          "longitude": 5.167,
          "distance_km": 3.81
        },
        {
          "code_insee": "55140",
          "nom": "Cunel",
          "slug": "cunel",
          "code_postal": "55110",
          "population": 23,
          "superficie_km2": 467.45,
          "latitude": 49.3313,
          "longitude": 5.1184,
          "distance_km": 4.17
        },
        {
          "code_insee": "55438",
          "nom": "Romagne-sous-Montfaucon",
          "slug": "romagne-sous-montfaucon",
          "code_postal": "55110",
          "population": 170,
          "superficie_km2": 1560.52,
          "latitude": 49.3275,
          "longitude": 5.0682,
          "distance_km": 5.69
        },
        {
          "code_insee": "55078",
          "nom": "Brieulles-sur-Meuse",
          "slug": "brieulles-sur-meuse",
          "code_postal": "55110",
          "population": 318,
          "superficie_km2": 2408.48,
          "latitude": 49.3283,
          "longitude": 5.1723,
          "distance_km": 6.13
        },
        {
          "code_insee": "55167",
          "nom": "Dun-sur-Meuse",
          "slug": "dun-sur-meuse",
          "code_postal": "55110",
          "population": 585,
          "superficie_km2": 645.56,
          "latitude": 49.3839,
          "longitude": 5.1964,
          "distance_km": 6.15
        },
        {
          "code_insee": "55345",
          "nom": "Mont-devant-Sassey",
          "slug": "mont-devant-sassey",
          "code_postal": "55110",
          "population": 103,
          "superficie_km2": 827.48,
          "latitude": 49.4147,
          "longitude": 5.1637,
          "distance_km": 6.22
        },
        {
          "code_insee": "08437",
          "nom": "Tailly",
          "slug": "tailly",
          "code_postal": "08240",
          "population": 182,
          "superficie_km2": 3925.99,
          "latitude": 49.4156,
          "longitude": 5.0666,
          "distance_km": 6.27
        },
        {
          "code_insee": "55349",
          "nom": "Montigny-devant-Sassey",
          "slug": "montigny-devant-sassey",
          "code_postal": "55110",
          "population": 132,
          "superficie_km2": 978.06,
          "latitude": 49.4272,
          "longitude": 5.1343,
          "distance_km": 6.66
        },
        {
          "code_insee": "55469",
          "nom": "Sassey-sur-Meuse",
          "slug": "sassey-sur-meuse",
          "code_postal": "55110",
          "population": 93,
          "superficie_km2": 441.28,
          "latitude": 49.4132,
          "longitude": 5.1799,
          "distance_km": 6.84
        },
        {
          "code_insee": "55375",
          "nom": "Nantillois",
          "slug": "nantillois",
          "code_postal": "55270",
          "population": 63,
          "superficie_km2": 764.06,
          "latitude": 49.3026,
          "longitude": 5.1327,
          "distance_km": 7.46
        },
        {
          "code_insee": "55115",
          "nom": "Cierges-sous-Montfaucon",
          "slug": "cierges-sous-montfaucon",
          "code_postal": "55270",
          "population": 47,
          "superficie_km2": 925.73,
          "latitude": 49.3009,
          "longitude": 5.0903,
          "distance_km": 7.74
        },
        {
          "code_insee": "55208",
          "nom": "Gesnes-en-Argonne",
          "slug": "gesnes-en-argonne",
          "code_postal": "55110",
          "population": 53,
          "superficie_km2": 704.21,
          "latitude": 49.3061,
          "longitude": 5.0566,
          "distance_km": 8.13
        },
        {
          "code_insee": "55225",
          "nom": "Halles-sous-les-Côtes",
          "slug": "halles-sous-les-cotes",
          "code_postal": "55700",
          "population": 138,
          "superficie_km2": 544.0,
          "latitude": 49.4465,
          "longitude": 5.1273,
          "distance_km": 8.7
        },
        {
          "code_insee": "55471",
          "nom": "Saulmory-Villefranche",
          "slug": "saulmory-villefranche",
          "code_postal": "55110",
          "population": 82,
          "superficie_km2": 689.57,
          "latitude": 49.4384,
          "longitude": 5.1713,
          "distance_km": 8.77
        },
        {
          "code_insee": "55036",
          "nom": "Beauclair",
          "slug": "beauclair",
          "code_postal": "55700",
          "population": 86,
          "superficie_km2": 486.29,
          "latitude": 49.4529,
          "longitude": 5.1175,
          "distance_km": 9.36
        },
        {
          "code_insee": "08326",
          "nom": "Nouart",
          "slug": "nouart",
          "code_postal": "08240",
          "population": 114,
          "superficie_km2": 1778.51,
          "latitude": 49.4479,
          "longitude": 5.0596,
          "distance_km": 9.67
        }
      ],
      "zonage_abc": "C",
      "reclassement_abc": "Non",
      "codes_postaux": [
        {
          "code_postal": "55110",
          "libelle_acheminement": "AINCREVILLE"
        }
      ],
      "logement": {
        "logements_total": 52,
        "residences_principales": 42,
        "logements_vacants": 2,
        "residences_secondaires": 8,
        "maisons": 49,
        "appartements": 2,
        "proprietaires": 34,
        "locataires": 6,
        "hlm": 0,
        "construits_avant_1919": 2,
        "construits_1919_1945": 26,
        "construits_1946_1970": 2,
        "construits_1971_1990": 6,
        "construits_1991_2005": 0,
        "construits_2006_2019": 6,
        "chauffage_electrique": 3,
        "chauffage_fioul": 15,
        "chauffage_gaz_ville": 1,
        "chauffage_gaz_bouteille": 1,
        "chauffage_autre": 22,
        "menages": 42,
        "logements_avant_1990": 36
      },
      "artisans": {
        "monte_escalier": 0,
        "chauffage_pac_clim": 0,
        "isolation": 1,
        "menuiserie": 0,
        "fenetres_velux": 0,
        "couverture_toiture": 1,
        "facade_peinture": 0,
        "portes_volets": 0,
        "piscine": 0,
        "vmc_ventilation": 0,
        "assainissement": 0
      },
      "revenus": {
        "revenu_median": null,
        "part_menages_imposes": null,
        "taux_pauvrete": null
      },
      "aides_etat": {
        "zone_climatique": "H1",
        "qpv": false,
        "action_coeur_de_ville": false,
        "petites_villes_de_demain": false
      }
    },
    {
      "code_insee": "55005",
      "nom": "Amanty",
      "nom_a": null,
      "nom_de": null,
      "slug": "amanty",
      "code_postal": "55130",
      "population": 36,
      "superficie_km2": 1112.12,
      "latitude": 48.516,
      "longitude": 5.6016,
      "villes_proches": [
        {
          "code_insee": "55574",
          "nom": "Vouthon-Bas",
          "slug": "vouthon-bas",
          "code_postal": "55130",
          "population": 42,
          "superficie_km2": 711.68,
          "latitude": 48.4888,
          "longitude": 5.6165,
          "distance_km": 3.22
        },
        {
          "code_insee": "55026",
          "nom": "Badonvilliers-Gérauvilliers",
          "slug": "badonvilliers-gerauvilliers",
          "code_postal": "55130",
          "population": 126,
          "superficie_km2": 2111.84,
          "latitude": 48.5434,
          "longitude": 5.5781,
          "distance_km": 3.5
        },
        {
          "code_insee": "55173",
          "nom": "Épiez-sur-Meuse",
          "slug": "epiez-sur-meuse",
          "code_postal": "55140",
          "population": 37,
          "superficie_km2": 816.91,
          "latitude": 48.5427,
          "longitude": 5.6273,
          "distance_km": 3.52
        },
        {
          "code_insee": "55575",
          "nom": "Vouthon-Haut",
          "slug": "vouthon-haut",
          "code_postal": "55130",
          "population": 73,
          "superficie_km2": 1336.49,
          "latitude": 48.4784,
          "longitude": 5.6071,
          "distance_km": 4.2
        },
        {
          "code_insee": "55328",
          "nom": "Maxey-sur-Vaise",
          "slug": "maxey-sur-vaise",
          "code_postal": "55140",
          "population": 279,
          "superficie_km2": 1089.79,
          "latitude": 48.5321,
          "longitude": 5.6577,
          "distance_km": 4.5
        },
        {
          "code_insee": "55503",
          "nom": "Taillancourt",
          "slug": "taillancourt",
          "code_postal": "55140",
          "population": 126,
          "superficie_km2": 1118.07,
          "latitude": 48.5125,
          "longitude": 5.6628,
          "distance_km": 4.52
        },
        {
          "code_insee": "55088",
          "nom": "Burey-en-Vaux",
          "slug": "burey-en-vaux",
          "code_postal": "55140",
          "population": 153,
          "superficie_km2": 643.19,
          "latitude": 48.5558,
          "longitude": 5.6462,
          "distance_km": 5.51
        },
        {
          "code_insee": "55001",
          "nom": "Abainville",
          "slug": "abainville",
          "code_postal": "55130",
          "population": 280,
          "superficie_km2": 1357.19,
          "latitude": 48.531,
          "longitude": 5.5236,
          "distance_km": 5.98
        },
        {
          "code_insee": "55089",
          "nom": "Burey-la-Côte",
          "slug": "burey-la-cote",
          "code_postal": "55140",
          "population": 86,
          "superficie_km2": 426.36,
          "latitude": 48.5011,
          "longitude": 5.6838,
          "distance_km": 6.28
        },
        {
          "code_insee": "55217",
          "nom": "Goussaincourt",
          "slug": "goussaincourt",
          "code_postal": "55140",
          "population": 117,
          "superficie_km2": 1033.02,
          "latitude": 48.4826,
          "longitude": 5.6718,
          "distance_km": 6.37
        },
        {
          "code_insee": "55344",
          "nom": "Montbras",
          "slug": "montbras",
          "code_postal": "55140",
          "population": 20,
          "superficie_km2": 547.36,
          "latitude": 48.5154,
          "longitude": 5.6948,
          "distance_km": 6.87
        },
        {
          "code_insee": "55350",
          "nom": "Montigny-lès-Vaucouleurs",
          "slug": "montigny-les-vaucouleurs",
          "code_postal": "55140",
          "population": 74,
          "superficie_km2": 1189.16,
          "latitude": 48.5784,
          "longitude": 5.6041,
          "distance_km": 6.94
        },
        {
          "code_insee": "55436",
          "nom": "Les Roises",
          "slug": "les-roises",
          "code_postal": "55130",
          "population": 27,
          "superficie_km2": 378.12,
          "latitude": 48.4521,
          "longitude": 5.6327,
          "distance_km": 7.47
        },
        {
          "code_insee": "55148",
          "nom": "Delouze-Rosières",
          "slug": "delouze-rosieres",
          "code_postal": "55130",
          "population": 121,
          "superficie_km2": 1504.91,
          "latitude": 48.568,
          "longitude": 5.5354,
          "distance_km": 7.56
        },
        {
          "code_insee": "55534",
          "nom": "Vaudeville-le-Haut",
          "slug": "vaudeville-le-haut",
          "code_postal": "55130",
          "population": 46,
          "superficie_km2": 968.28,
          "latitude": 48.4465,
          "longitude": 5.594,
          "distance_km": 7.75
        },
        {
          "code_insee": "55381",
          "nom": "Neuville-lès-Vaucouleurs",
          "slug": "neuville-les-vaucouleurs",
          "code_postal": "55140",
          "population": 143,
          "superficie_km2": 834.6,
          "latitude": 48.5772,
          "longitude": 5.6573,
          "distance_km": 7.94
        },
        {
          "code_insee": "88219",
          "nom": "Greux",
          "slug": "greux",
          "code_postal": "88630",
          "population": 130,
          "superficie_km2": 811.84,
          "latitude": 48.4581,
          "longitude": 5.6665,
          "distance_km": 8.02
        },
        {
          "code_insee": "88154",
          "nom": "Domrémy-la-Pucelle",
          "slug": "domremy-la-pucelle",
          "code_postal": "88630",
          "population": 102,
          "superficie_km2": 897.83,
          "latitude": 48.4409,
          "longitude": 5.6566,
          "distance_km": 9.28
        },
        {
          "code_insee": "88453",
          "nom": "Seraumont",
          "slug": "seraumont",
          "code_postal": "88630",
          "population": 33,
          "superficie_km2": 1041.71,
          "latitude": 48.4322,
          "longitude": 5.6075,
          "distance_km": 9.33
        },
        {
          "code_insee": "55327",
          "nom": "Mauvages",
          "slug": "mauvages",
          "code_postal": "55190",
          "population": 236,
          "superficie_km2": 2120.3,
          "latitude": 48.5932,
          "longitude": 5.5512,
          "distance_km": 9.35
        }
      ],
      "zonage_abc": "C",
      "reclassement_abc": "Non",
      "codes_postaux": [
        {
          "code_postal": "55130",
          "libelle_acheminement": "AMANTY"
        }
      ],
      "logement": {
        "logements_total": 23,
        "residences_principales": 17,
        "logements_vacants": 5,
        "residences_secondaires": 1,
        "maisons": 23,
        "appartements": 0,
        "proprietaires": 16,
        "locataires": 0,
        "hlm": 0,
        "construits_avant_1919": 8,
        "construits_1919_1945": 1,
        "construits_1946_1970": 1,
        "construits_1971_1990": 3,
        "construits_1991_2005": 0,
        "construits_2006_2019": 0,
        "chauffage_electrique": 0,
        "chauffage_fioul": 3,
        "chauffage_gaz_ville": 0,
        "chauffage_gaz_bouteille": 0,
        "chauffage_autre": 13,
        "menages": 17,
        "logements_avant_1990": 13
      },
      "artisans": {
        "monte_escalier": 0,
        "chauffage_pac_clim": 1,
        "isolation": 0,
        "menuiserie": 0,
        "fenetres_velux": 0,
        "couverture_toiture": 0,
        "facade_peinture": 0,
        "portes_volets": 0,
        "piscine": 0,
        "vmc_ventilation": 1,
        "assainissement": 0
      },
      "revenus": {
        "revenu_median": null,
        "part_menages_imposes": null,
        "taux_pauvrete": null
      },
      "aides_etat": {
        "zone_climatique": "H1",
        "qpv": false,
        "action_coeur_de_ville": false,
        "petites_villes_de_demain": false
      }
    },
    {
      "code_insee": "55007",
      "nom": "Ambly-sur-Meuse",
      "nom_a": null,
      "nom_de": null,
      "slug": "ambly-sur-meuse",
      "code_postal": "55300",
      "population": 245,
      "superficie_km2": 635.04,
      "latitude": 49.022,
      "longitude": 5.4521,
      "villes_proches": [
        {
          "code_insee": "55204",
          "nom": "Génicourt-sur-Meuse",
          "slug": "genicourt-sur-meuse",
          "code_postal": "55320",
          "population": 293,
          "superficie_km2": 800.87,
          "latitude": 49.0444,
          "longitude": 5.4427,
          "distance_km": 2.58
        },
        {
          "code_insee": "55415",
          "nom": "Ranzières",
          "slug": "ranzieres",
          "code_postal": "55300",
          "population": 87,
          "superficie_km2": 1392.45,
          "latitude": 49.0244,
          "longitude": 5.5025,
          "distance_km": 3.68
        },
        {
          "code_insee": "55566",
          "nom": "Villers-sur-Meuse",
          "slug": "villers-sur-meuse",
          "code_postal": "55220",
          "population": 284,
          "superficie_km2": 734.7,
          "latitude": 49.0235,
          "longitude": 5.3986,
          "distance_km": 3.9
        },
        {
          "code_insee": "55521",
          "nom": "Troyon",
          "slug": "troyon",
          "code_postal": "55300",
          "population": 230,
          "superficie_km2": 1308.26,
          "latitude": 48.999,
          "longitude": 5.4928,
          "distance_km": 3.92
        },
        {
          "code_insee": "55512",
          "nom": "Tilly-sur-Meuse",
          "slug": "tilly-sur-meuse",
          "code_postal": "55220",
          "population": 272,
          "superficie_km2": 1374.15,
          "latitude": 48.9951,
          "longitude": 5.4104,
          "distance_km": 4.27
        },
        {
          "code_insee": "55064",
          "nom": "Bouquemont",
          "slug": "bouquemont",
          "code_postal": "55300",
          "population": 119,
          "superficie_km2": 745.11,
          "latitude": 48.9825,
          "longitude": 5.4274,
          "distance_km": 4.75
        },
        {
          "code_insee": "55347",
          "nom": "Les Monthairons",
          "slug": "les-monthairons",
          "code_postal": "55320",
          "population": 324,
          "superficie_km2": 1231.32,
          "latitude": 49.0451,
          "longitude": 5.3861,
          "distance_km": 5.45
        },
        {
          "code_insee": "55449",
          "nom": "Rupt-en-Woëvre",
          "slug": "rupt-en-woevre",
          "code_postal": "55320",
          "population": 280,
          "superficie_km2": 1711.94,
          "latitude": 49.0648,
          "longitude": 5.4973,
          "distance_km": 5.79
        },
        {
          "code_insee": "55420",
          "nom": "Récourt-le-Creux",
          "slug": "recourt-le-creux",
          "code_postal": "55220",
          "population": 64,
          "superficie_km2": 1436.69,
          "latitude": 48.9978,
          "longitude": 5.3773,
          "distance_km": 6.08
        },
        {
          "code_insee": "55584",
          "nom": "Woimbey",
          "slug": "woimbey",
          "code_postal": "55300",
          "population": 133,
          "superficie_km2": 1524.87,
          "latitude": 48.9664,
          "longitude": 5.4504,
          "distance_km": 6.18
        },
        {
          "code_insee": "55154",
          "nom": "Dieue-sur-Meuse",
          "slug": "dieue-sur-meuse",
          "code_postal": "55320",
          "population": 1442,
          "superficie_km2": 1591.27,
          "latitude": 49.079,
          "longitude": 5.4293,
          "distance_km": 6.55
        },
        {
          "code_insee": "55009",
          "nom": "Ancemont",
          "slug": "ancemont",
          "code_postal": "55320",
          "population": 527,
          "superficie_km2": 1331.14,
          "latitude": 49.0632,
          "longitude": 5.3811,
          "distance_km": 6.91
        },
        {
          "code_insee": "55268",
          "nom": "Lacroix-sur-Meuse",
          "slug": "lacroix-sur-meuse",
          "code_postal": "55300",
          "population": 638,
          "superficie_km2": 2114.2,
          "latitude": 48.9846,
          "longitude": 5.53,
          "distance_km": 7.04
        },
        {
          "code_insee": "55540",
          "nom": "Vaux-lès-Palameix",
          "slug": "vaux-les-palameix",
          "code_postal": "55300",
          "population": 57,
          "superficie_km2": 1056.8,
          "latitude": 49.0235,
          "longitude": 5.5506,
          "distance_km": 7.18
        },
        {
          "code_insee": "55360",
          "nom": "Mouilly",
          "slug": "mouilly",
          "code_postal": "55320",
          "population": 105,
          "superficie_km2": 1112.65,
          "latitude": 49.0566,
          "longitude": 5.5366,
          "distance_km": 7.26
        },
        {
          "code_insee": "55027",
          "nom": "Bannoncourt",
          "slug": "bannoncourt",
          "code_postal": "55300",
          "population": 159,
          "superficie_km2": 878.55,
          "latitude": 48.9551,
          "longitude": 5.4805,
          "distance_km": 7.72
        },
        {
          "code_insee": "55492",
          "nom": "Sommedieue",
          "slug": "sommedieue",
          "code_postal": "55320",
          "population": 944,
          "superficie_km2": 3341.53,
          "latitude": 49.0984,
          "longitude": 5.4782,
          "distance_km": 8.71
        },
        {
          "code_insee": "55506",
          "nom": "Thillombois",
          "slug": "thillombois",
          "code_postal": "55260",
          "population": 28,
          "superficie_km2": 1306.58,
          "latitude": 48.9536,
          "longitude": 5.3835,
          "distance_km": 9.11
        },
        {
          "code_insee": "55269",
          "nom": "Lahaymeix",
          "slug": "lahaymeix",
          "code_postal": "55260",
          "population": 76,
          "superficie_km2": 1255.11,
          "latitude": 48.9339,
          "longitude": 5.4186,
          "distance_km": 10.1
        },
        {
          "code_insee": "55159",
          "nom": "Dompcevrin",
          "slug": "dompcevrin",
          "code_postal": "55300",
          "population": 376,
          "superficie_km2": 1093.31,
          "latitude": 48.9306,
          "longitude": 5.4658,
          "distance_km": 10.21
        }
      ],
      "zonage_abc": "C",
      "reclassement_abc": "Non",
      "codes_postaux": [
        {
          "code_postal": "55300",
          "libelle_acheminement": "AMBLY SUR MEUSE"
        }
      ],
      "logement": {
        "logements_total": 123,
        "residences_principales": 98,
        "logements_vacants": 10,
        "residences_secondaires": 15,
        "maisons": 118,
        "appartements": 5,
        "proprietaires": 81,
        "locataires": 12,
        "hlm": 0,
        "construits_avant_1919": 25,
        "construits_1919_1945": 17,
        "construits_1946_1970": 5,
        "construits_1971_1990": 17,
        "construits_1991_2005": 19,
        "construits_2006_2019": 15,
        "chauffage_electrique": 10,
        "chauffage_fioul": 45,
        "chauffage_gaz_ville": 0,
        "chauffage_gaz_bouteille": 1,
        "chauffage_autre": 42,
        "menages": 98,
        "logements_avant_1990": 64
      },
      "artisans": {
        "monte_escalier": 0,
        "chauffage_pac_clim": 0,
        "isolation": 2,
        "menuiserie": 1,
        "fenetres_velux": 1,
        "couverture_toiture": 1,
        "facade_peinture": 0,
        "portes_volets": 1,
        "piscine": 3,
        "vmc_ventilation": 0,
        "assainissement": 0
      },
      "revenus": {
        "revenu_median": 24950.0,
        "part_menages_imposes": null,
        "taux_pauvrete": null
      },
      "aides_etat": {
        "zone_climatique": "H1",
        "qpv": false,
        "action_coeur_de_ville": false,
        "petites_villes_de_demain": false
      }
    },
    {
      "code_insee": "55008",
      "nom": "Amel-sur-l'Étang",
      "nom_a": null,
      "nom_de": null,
      "slug": "amel-sur-l-etang",
      "code_postal": "55230",
      "population": 153,
      "superficie_km2": 1527.82,
      "latitude": 49.2569,
      "longitude": 5.645,
      "villes_proches": [
        {
          "code_insee": "55481",
          "nom": "Senon",
          "slug": "senon",
          "code_postal": "55230",
          "population": 300,
          "superficie_km2": 2052.97,
          "latitude": 49.2805,
          "longitude": 5.62,
          "distance_km": 3.19
        },
        {
          "code_insee": "55182",
          "nom": "Éton",
          "slug": "eton",
          "code_postal": "55240",
          "population": 195,
          "superficie_km2": 1117.76,
          "latitude": 49.2644,
          "longitude": 5.6882,
          "distance_km": 3.24
        },
        {
          "code_insee": "55191",
          "nom": "Foameix-Ornel",
          "slug": "foameix-ornel",
          "code_postal": "55400",
          "population": 229,
          "superficie_km2": 1088.42,
          "latitude": 49.2358,
          "longitude": 5.61,
          "distance_km": 3.46
        },
        {
          "code_insee": "55181",
          "nom": "Étain",
          "slug": "etain",
          "code_postal": "55400",
          "population": 3375,
          "superficie_km2": 1992.54,
          "latitude": 49.2204,
          "longitude": 5.6311,
          "distance_km": 4.18
        },
        {
          "code_insee": "55216",
          "nom": "Gouraincourt",
          "slug": "gouraincourt",
          "code_postal": "55230",
          "population": 73,
          "superficie_km2": 544.87,
          "latitude": 49.2989,
          "longitude": 5.6667,
          "distance_km": 4.93
        },
        {
          "code_insee": "55443",
          "nom": "Rouvres-en-Woëvre",
          "slug": "rouvres-en-woevre",
          "code_postal": "55400",
          "population": 598,
          "superficie_km2": 1685.41,
          "latitude": 49.2232,
          "longitude": 5.7012,
          "distance_km": 5.54
        },
        {
          "code_insee": "55162",
          "nom": "Domremy-la-Canne",
          "slug": "domremy-la-canne",
          "code_postal": "55240",
          "population": 27,
          "superficie_km2": 308.16,
          "latitude": 49.2973,
          "longitude": 5.6945,
          "distance_km": 5.75
        },
        {
          "code_insee": "55211",
          "nom": "Gincrey",
          "slug": "gincrey",
          "code_postal": "55400",
          "population": 61,
          "superficie_km2": 963.78,
          "latitude": 49.2616,
          "longitude": 5.5642,
          "distance_km": 5.89
        },
        {
          "code_insee": "55158",
          "nom": "Dommary-Baroncourt",
          "slug": "dommary-baroncourt",
          "code_postal": "55240",
          "population": 753,
          "superficie_km2": 1266.15,
          "latitude": 49.2803,
          "longitude": 5.7186,
          "distance_km": 5.94
        },
        {
          "code_insee": "55357",
          "nom": "Morgemoulin",
          "slug": "morgemoulin",
          "code_postal": "55400",
          "population": 109,
          "superficie_km2": 684.32,
          "latitude": 49.2304,
          "longitude": 5.5693,
          "distance_km": 6.24
        },
        {
          "code_insee": "55299",
          "nom": "Loison",
          "slug": "loison",
          "code_postal": "55230",
          "population": 116,
          "superficie_km2": 1425.6,
          "latitude": 49.3046,
          "longitude": 5.5908,
          "distance_km": 6.6
        },
        {
          "code_insee": "55535",
          "nom": "Vaudoncourt",
          "slug": "vaudoncourt",
          "code_postal": "55230",
          "population": 79,
          "superficie_km2": 597.78,
          "latitude": 49.3174,
          "longitude": 5.6444,
          "distance_km": 6.73
        },
        {
          "code_insee": "55201",
          "nom": "Fromezey",
          "slug": "fromezey",
          "code_postal": "55400",
          "population": 64,
          "superficie_km2": 589.44,
          "latitude": 49.2092,
          "longitude": 5.5827,
          "distance_km": 6.97
        },
        {
          "code_insee": "55280",
          "nom": "Lanhères",
          "slug": "lanheres",
          "code_postal": "55400",
          "population": 54,
          "superficie_km2": 458.27,
          "latitude": 49.21,
          "longitude": 5.7117,
          "distance_km": 7.12
        },
        {
          "code_insee": "55578",
          "nom": "Warcq",
          "slug": "warcq",
          "code_postal": "55400",
          "population": 181,
          "superficie_km2": 497.34,
          "latitude": 49.19,
          "longitude": 5.6439,
          "distance_km": 7.44
        },
        {
          "code_insee": "55057",
          "nom": "Boinville-en-Woëvre",
          "slug": "boinville-en-woevre",
          "code_postal": "55400",
          "population": 75,
          "superficie_km2": 565.03,
          "latitude": 49.1881,
          "longitude": 5.679,
          "distance_km": 8.04
        },
        {
          "code_insee": "55367",
          "nom": "Muzeray",
          "slug": "muzeray",
          "code_postal": "55230",
          "population": 133,
          "superficie_km2": 826.1,
          "latitude": 49.3385,
          "longitude": 5.6228,
          "distance_km": 9.22
        },
        {
          "code_insee": "55244",
          "nom": "Herméville-en-Woëvre",
          "slug": "hermeville-en-woevre",
          "code_postal": "55400",
          "population": 218,
          "superficie_km2": 1458.28,
          "latitude": 49.1768,
          "longitude": 5.6043,
          "distance_km": 9.38
        },
        {
          "code_insee": "55500",
          "nom": "Spincourt",
          "slug": "spincourt",
          "code_postal": "55230",
          "population": 823,
          "superficie_km2": 2738.37,
          "latitude": 49.3359,
          "longitude": 5.6925,
          "distance_km": 9.44
        },
        {
          "code_insee": "55222",
          "nom": "Gussainville",
          "slug": "gussainville",
          "code_postal": "55400",
          "population": 35,
          "superficie_km2": 1050.51,
          "latitude": 49.1668,
          "longitude": 5.6609,
          "distance_km": 10.09
        }
      ],
      "zonage_abc": "C",
      "reclassement_abc": "Non",
      "codes_postaux": [
        {
          "code_postal": "55230",
          "libelle_acheminement": "AMEL SUR L ETANG"
        }
      ],
      "logement": {
        "logements_total": 83,
        "residences_principales": 66,
        "logements_vacants": 7,
        "residences_secondaires": 8,
        "maisons": 81,
        "appartements": 0,
        "proprietaires": 60,
        "locataires": 5,
        "hlm": 0,
        "construits_avant_1919": 17,
        "construits_1919_1945": 16,
        "construits_1946_1970": 14,
        "construits_1971_1990": 2,
        "construits_1991_2005": 2,
        "construits_2006_2019": 5,
        "chauffage_electrique": 9,
        "chauffage_fioul": 14,
        "chauffage_gaz_ville": 0,
        "chauffage_gaz_bouteille": 0,
        "chauffage_autre": 42,
        "menages": 66,
        "logements_avant_1990": 49
      },
      "artisans": {
        "monte_escalier": 0,
        "chauffage_pac_clim": 1,
        "isolation": 0,
        "menuiserie": 0,
        "fenetres_velux": 0,
        "couverture_toiture": 0,
        "facade_peinture": 0,
        "portes_volets": 0,
        "piscine": 1,
        "vmc_ventilation": 0,
        "assainissement": 1
      },
      "revenus": {
        "revenu_median": 23860.0,
        "part_menages_imposes": null,
        "taux_pauvrete": null
      },
      "aides_etat": {
        "zone_climatique": "H1",
        "qpv": false,
        "action_coeur_de_ville": false,
        "petites_villes_de_demain": false
      }
    },
    {
      "code_insee": "55009",
      "nom": "Ancemont",
      "nom_a": null,
      "nom_de": null,
      "slug": "ancemont",
      "code_postal": "55320",
      "population": 527,
      "superficie_km2": 1331.14,
      "latitude": 49.0632,
      "longitude": 5.3811,
      "villes_proches": [
        {
          "code_insee": "55347",
          "nom": "Les Monthairons",
          "slug": "les-monthairons",
          "code_postal": "55320",
          "population": 324,
          "superficie_km2": 1231.32,
          "latitude": 49.0451,
          "longitude": 5.3861,
          "distance_km": 2.05
        },
        {
          "code_insee": "55482",
          "nom": "Senoncourt-les-Maujouy",
          "slug": "senoncourt-les-maujouy",
          "code_postal": "55220",
          "population": 98,
          "superficie_km2": 1487.74,
          "latitude": 49.0586,
          "longitude": 5.3459,
          "distance_km": 2.62
        },
        {
          "code_insee": "55154",
          "nom": "Dieue-sur-Meuse",
          "slug": "dieue-sur-meuse",
          "code_postal": "55320",
          "population": 1442,
          "superficie_km2": 1591.27,
          "latitude": 49.079,
          "longitude": 5.4293,
          "distance_km": 3.93
        },
        {
          "code_insee": "55166",
          "nom": "Dugny-sur-Meuse",
          "slug": "dugny-sur-meuse",
          "code_postal": "55100",
          "population": 1240,
          "superficie_km2": 1930.46,
          "latitude": 49.0986,
          "longitude": 5.3663,
          "distance_km": 4.08
        },
        {
          "code_insee": "55566",
          "nom": "Villers-sur-Meuse",
          "slug": "villers-sur-meuse",
          "code_postal": "55220",
          "population": 284,
          "superficie_km2": 734.7,
          "latitude": 49.0235,
          "longitude": 5.3986,
          "distance_km": 4.6
        },
        {
          "code_insee": "55204",
          "nom": "Génicourt-sur-Meuse",
          "slug": "genicourt-sur-meuse",
          "code_postal": "55320",
          "population": 293,
          "superficie_km2": 800.87,
          "latitude": 49.0444,
          "longitude": 5.4427,
          "distance_km": 4.95
        },
        {
          "code_insee": "55276",
          "nom": "Landrecourt-Lempire",
          "slug": "landrecourt-lempire",
          "code_postal": "55100",
          "population": 226,
          "superficie_km2": 1459.32,
          "latitude": 49.0954,
          "longitude": 5.3317,
          "distance_km": 5.08
        },
        {
          "code_insee": "55286",
          "nom": "Lemmes",
          "slug": "lemmes",
          "code_postal": "55220",
          "population": 240,
          "superficie_km2": 1104.5,
          "latitude": 49.0696,
          "longitude": 5.2923,
          "distance_km": 6.51
        },
        {
          "code_insee": "55007",
          "nom": "Ambly-sur-Meuse",
          "slug": "ambly-sur-meuse",
          "code_postal": "55300",
          "population": 245,
          "superficie_km2": 635.04,
          "latitude": 49.022,
          "longitude": 5.4521,
          "distance_km": 6.91
        },
        {
          "code_insee": "55498",
          "nom": "Souilly",
          "slug": "souilly",
          "code_postal": "55220",
          "population": 426,
          "superficie_km2": 2663.79,
          "latitude": 49.0323,
          "longitude": 5.2964,
          "distance_km": 7.06
        },
        {
          "code_insee": "55420",
          "nom": "Récourt-le-Creux",
          "slug": "recourt-le-creux",
          "code_postal": "55220",
          "population": 64,
          "superficie_km2": 1436.69,
          "latitude": 48.9978,
          "longitude": 5.3773,
          "distance_km": 7.28
        },
        {
          "code_insee": "55042",
          "nom": "Belleray",
          "slug": "belleray",
          "code_postal": "55100",
          "population": 464,
          "superficie_km2": 506.53,
          "latitude": 49.13,
          "longitude": 5.37,
          "distance_km": 7.47
        },
        {
          "code_insee": "55236",
          "nom": "Haudainville",
          "slug": "haudainville",
          "code_postal": "55100",
          "population": 930,
          "superficie_km2": 1116.48,
          "latitude": 49.1246,
          "longitude": 5.4312,
          "distance_km": 7.74
        },
        {
          "code_insee": "55512",
          "nom": "Tilly-sur-Meuse",
          "slug": "tilly-sur-meuse",
          "code_postal": "55220",
          "population": 272,
          "superficie_km2": 1374.15,
          "latitude": 48.9951,
          "longitude": 5.4104,
          "distance_km": 7.87
        },
        {
          "code_insee": "55492",
          "nom": "Sommedieue",
          "slug": "sommedieue",
          "code_postal": "55320",
          "population": 944,
          "superficie_km2": 3341.53,
          "latitude": 49.0984,
          "longitude": 5.4782,
          "distance_km": 8.08
        },
        {
          "code_insee": "55411",
          "nom": "Rambluzin-et-Benoite-Vaux",
          "slug": "rambluzin-et-benoite-vaux",
          "code_postal": "55220",
          "population": 86,
          "superficie_km2": 1836.25,
          "latitude": 48.9865,
          "longitude": 5.338,
          "distance_km": 9.09
        },
        {
          "code_insee": "55545",
          "nom": "Verdun",
          "slug": "verdun",
          "code_postal": "55100",
          "population": 16890,
          "superficie_km2": 3172.12,
          "latitude": 49.144,
          "longitude": 5.3609,
          "distance_km": 9.1
        },
        {
          "code_insee": "55064",
          "nom": "Bouquemont",
          "slug": "bouquemont",
          "code_postal": "55300",
          "population": 119,
          "superficie_km2": 745.11,
          "latitude": 48.9825,
          "longitude": 5.4274,
          "distance_km": 9.59
        },
        {
          "code_insee": "55045",
          "nom": "Belrupt-en-Verdunois",
          "slug": "belrupt-en-verdunois",
          "code_postal": "55100",
          "population": 536,
          "superficie_km2": 937.47,
          "latitude": 49.1497,
          "longitude": 5.448,
          "distance_km": 10.78
        },
        {
          "code_insee": "55506",
          "nom": "Thillombois",
          "slug": "thillombois",
          "code_postal": "55260",
          "population": 28,
          "superficie_km2": 1306.58,
          "latitude": 48.9536,
          "longitude": 5.3835,
          "distance_km": 12.19
        }
      ],
      "zonage_abc": "C",
      "reclassement_abc": "Non",
      "codes_postaux": [
        {
          "code_postal": "55320",
          "libelle_acheminement": "ANCEMONT"
        }
      ],
      "logement": {
        "logements_total": 262,
        "residences_principales": 236,
        "logements_vacants": 19,
        "residences_secondaires": 6,
        "maisons": 231,
        "appartements": 29,
        "proprietaires": 179,
        "locataires": 55,
        "hlm": 16,
        "construits_avant_1919": 41,
        "construits_1919_1945": 25,
        "construits_1946_1970": 49,
        "construits_1971_1990": 68,
        "construits_1991_2005": 10,
        "construits_2006_2019": 34,
        "chauffage_electrique": 48,
        "chauffage_fioul": 30,
        "chauffage_gaz_ville": 85,
        "chauffage_gaz_bouteille": 0,
        "chauffage_autre": 70,
        "menages": 236,
        "logements_avant_1990": 183
      },
      "artisans": {
        "monte_escalier": 0,
        "chauffage_pac_clim": 2,
        "isolation": 5,
        "menuiserie": 0,
        "fenetres_velux": 0,
        "couverture_toiture": 4,
        "facade_peinture": 0,
        "portes_volets": 0,
        "piscine": 0,
        "vmc_ventilation": 2,
        "assainissement": 0
      },
      "revenus": {
        "revenu_median": 20850.0,
        "part_menages_imposes": null,
        "taux_pauvrete": null
      },
      "aides_etat": {
        "zone_climatique": "H1",
        "qpv": false,
        "action_coeur_de_ville": false,
        "petites_villes_de_demain": false
      }
    },
    {
      "code_insee": "55010",
      "nom": "Ancerville",
      "nom_a": null,
      "nom_de": null,
      "slug": "ancerville",
      "code_postal": "55170",
      "population": 2599,
      "superficie_km2": 21.0,
      "latitude": 48.6399994,
      "longitude": 5.0240002,
      "villes_proches": [
        {
          "code_insee": "52045",
          "nom": "Bettancourt-la-Ferrée",
          "slug": "bettancourt-la-ferree",
          "code_postal": "52100",
          "population": 1795,
          "superficie_km2": 5.0,
          "latitude": 48.6559982,
          "longitude": 4.9730001,
          "distance_km": 4.15
        },
        {
          "code_insee": "52104",
          "nom": "Chancenay",
          "slug": "chancenay",
          "code_postal": "52100",
          "population": 1016,
          "superficie_km2": 10.0,
          "latitude": 48.6749992,
          "longitude": 4.98,
          "distance_km": 5.06
        },
        {
          "code_insee": "55132",
          "nom": "Cousances-les-Forges",
          "slug": "cousances-les-forges",
          "code_postal": "55170",
          "population": 1667,
          "superficie_km2": 18.0,
          "latitude": 48.6170006,
          "longitude": 5.085,
          "distance_km": 5.16
        },
        {
          "code_insee": "52448",
          "nom": "Saint-Dizier",
          "slug": "saint-dizier",
          "code_postal": "52100",
          "population": 23068,
          "superficie_km2": 48.0,
          "latitude": 48.6279984,
          "longitude": 4.9489999,
          "distance_km": 5.67
        },
        {
          "code_insee": "52194",
          "nom": "Eurville-Bienville",
          "slug": "eurville-bienville",
          "code_postal": "52410",
          "population": 2029,
          "superficie_km2": 21.0,
          "latitude": 48.5779991,
          "longitude": 5.0300002,
          "distance_km": 6.91
        },
        {
          "code_insee": "52534",
          "nom": "Villiers-en-Lieu",
          "slug": "villiers-en-lieu",
          "code_postal": "52100",
          "population": 1476,
          "superficie_km2": 13.0,
          "latitude": 48.6679993,
          "longitude": 4.9060001,
          "distance_km": 9.21
        },
        {
          "code_insee": "52265",
          "nom": "Bayard-sur-Marne",
          "slug": "bayard-sur-marne",
          "code_postal": "52170",
          "population": 1277,
          "superficie_km2": 15.0,
          "latitude": 48.5499992,
          "longitude": 5.0689998,
          "distance_km": 10.54
        },
        {
          "code_insee": "52123",
          "nom": "Chevillon",
          "slug": "chevillon",
          "code_postal": "52170",
          "population": 1312,
          "superficie_km2": 37.0,
          "latitude": 48.5309982,
          "longitude": 5.1440001,
          "distance_km": 14.99
        },
        {
          "code_insee": "52182",
          "nom": "Éclaron-Braucourt-Sainte-Livière",
          "slug": "eclaron-braucourt-sainte-liviere",
          "code_postal": "52290",
          "population": 2014,
          "superficie_km2": 59.0,
          "latitude": 48.5750008,
          "longitude": 4.8319998,
          "distance_km": 15.86
        },
        {
          "code_insee": "55186",
          "nom": "Fains-Véel",
          "slug": "fains-veel",
          "code_postal": "55000",
          "population": 2090,
          "superficie_km2": 18.0,
          "latitude": 48.7799988,
          "longitude": 5.1129999,
          "distance_km": 16.88
        },
        {
          "code_insee": "52550",
          "nom": "Wassy",
          "slug": "wassy",
          "code_postal": "52130",
          "population": 2777,
          "superficie_km2": 34.0,
          "latitude": 48.5,
          "longitude": 4.9310002,
          "distance_km": 17
        },
        {
          "code_insee": "55302",
          "nom": "Longeville-en-Barrois",
          "slug": "longeville-en-barrois",
          "code_postal": "55000",
          "population": 1101,
          "superficie_km2": 15.0,
          "latitude": 48.7389984,
          "longitude": 5.2030001,
          "distance_km": 17.14
        },
        {
          "code_insee": "55029",
          "nom": "Bar-le-Duc",
          "slug": "bar-le-duc",
          "code_postal": "55000",
          "population": 14668,
          "superficie_km2": 24.0,
          "latitude": 48.7639999,
          "longitude": 5.164,
          "distance_km": 17.2
        },
        {
          "code_insee": "51531",
          "nom": "Sermaize-les-Bains",
          "slug": "sermaize-les-bains",
          "code_postal": "51250",
          "population": 1761,
          "superficie_km2": 18.0,
          "latitude": 48.7779999,
          "longitude": 4.9070001,
          "distance_km": 17.58
        },
        {
          "code_insee": "51423",
          "nom": "Pargny-sur-Saulx",
          "slug": "pargny-sur-saulx",
          "code_postal": "51340",
          "population": 1714,
          "superficie_km2": 12.0,
          "latitude": 48.7669983,
          "longitude": 4.855,
          "distance_km": 18.79
        },
        {
          "code_insee": "55291",
          "nom": "Ligny-en-Barrois",
          "slug": "ligny-en-barrois",
          "code_postal": "55500",
          "population": 3803,
          "superficie_km2": 33.0,
          "latitude": 48.6619988,
          "longitude": 5.296,
          "distance_km": 20.13
        },
        {
          "code_insee": "55519",
          "nom": "Tronville-en-Barrois",
          "slug": "tronville-en-barrois",
          "code_postal": "55310",
          "population": 1331,
          "superficie_km2": 13.0,
          "latitude": 48.7200012,
          "longitude": 5.2789998,
          "distance_km": 20.73
        },
        {
          "code_insee": "55427",
          "nom": "Revigny-sur-Ornain",
          "slug": "revigny-sur-ornain",
          "code_postal": "55800",
          "population": 2702,
          "superficie_km2": 19.0,
          "latitude": 48.8269997,
          "longitude": 4.9770002,
          "distance_km": 21.08
        },
        {
          "code_insee": "52250",
          "nom": "Joinville",
          "slug": "joinville",
          "code_postal": "52300",
          "population": 2972,
          "superficie_km2": 19.0,
          "latitude": 48.4339981,
          "longitude": 5.1230001,
          "distance_km": 24.04
        },
        {
          "code_insee": "52331",
          "nom": "La Porte du Der",
          "slug": "la-porte-du-der",
          "code_postal": "52220",
          "population": 2169,
          "superficie_km2": 28.0,
          "latitude": 48.487999,
          "longitude": 4.7870002,
          "distance_km": 24.29
        }
      ],
      "zonage_abc": "C",
      "reclassement_abc": "Non",
      "codes_postaux": [
        {
          "code_postal": "55170",
          "libelle_acheminement": "ANCERVILLE"
        }
      ],
      "logement": {
        "logements_total": 1351,
        "residences_principales": 1219,
        "logements_vacants": 111,
        "residences_secondaires": 21,
        "maisons": 1179,
        "appartements": 163,
        "proprietaires": 913,
        "locataires": 291,
        "hlm": 87,
        "construits_avant_1919": 182,
        "construits_1919_1945": 60,
        "construits_1946_1970": 291,
        "construits_1971_1990": 436,
        "construits_1991_2005": 148,
        "construits_2006_2019": 99,
        "chauffage_electrique": 265,
        "chauffage_fioul": 68,
        "chauffage_gaz_ville": 639,
        "chauffage_gaz_bouteille": 9,
        "chauffage_autre": 236,
        "menages": 1219,
        "logements_avant_1990": 969
      },
      "artisans": {
        "monte_escalier": 0,
        "chauffage_pac_clim": 2,
        "isolation": 5,
        "menuiserie": 2,
        "fenetres_velux": 2,
        "couverture_toiture": 1,
        "facade_peinture": 5,
        "portes_volets": 2,
        "piscine": 1,
        "vmc_ventilation": 2,
        "assainissement": 1
      },
      "revenus": {
        "revenu_median": 22650.0,
        "part_menages_imposes": 51.0,
        "taux_pauvrete": 9.0
      },
      "aides_etat": {
        "zone_climatique": "H1",
        "qpv": false,
        "action_coeur_de_ville": false,
        "petites_villes_de_demain": false
      }
    },
    {
      "code_insee": "55011",
      "nom": "Andernay",
      "nom_a": null,
      "nom_de": null,
      "slug": "andernay",
      "code_postal": "55800",
      "population": 236,
      "superficie_km2": 428.11,
      "latitude": 48.7827,
      "longitude": 4.9524,
      "villes_proches": [
        {
          "code_insee": "55125",
          "nom": "Contrisson",
          "slug": "contrisson",
          "code_postal": "55800",
          "population": 764,
          "superficie_km2": 1190.29,
          "latitude": 48.8029,
          "longitude": 4.9572,
          "distance_km": 2.27
        },
        {
          "code_insee": "55340",
          "nom": "Mognéville",
          "slug": "mogneville",
          "code_postal": "55800",
          "population": 358,
          "superficie_km2": 1849.77,
          "latitude": 48.775,
          "longitude": 4.9881,
          "distance_km": 2.75
        },
        {
          "code_insee": "55424",
          "nom": "Remennecourt",
          "slug": "remennecourt",
          "code_postal": "55800",
          "population": 43,
          "superficie_km2": 279.23,
          "latitude": 48.799,
          "longitude": 4.9141,
          "distance_km": 3.34
        },
        {
          "code_insee": "51531",
          "nom": "Sermaize-les-Bains",
          "slug": "sermaize-les-bains",
          "code_postal": "51250",
          "population": 1742,
          "superficie_km2": 1765.24,
          "latitude": 48.7759,
          "longitude": 4.9057,
          "distance_km": 3.5
        },
        {
          "code_insee": "55414",
          "nom": "Rancourt-sur-Ornain",
          "slug": "rancourt-sur-ornain",
          "code_postal": "55800",
          "population": 180,
          "superficie_km2": 990.75,
          "latitude": 48.8191,
          "longitude": 4.9162,
          "distance_km": 4.84
        },
        {
          "code_insee": "51144",
          "nom": "Cheminon",
          "slug": "cheminon",
          "code_postal": "51250",
          "population": 578,
          "superficie_km2": 2767.7,
          "latitude": 48.7421,
          "longitude": 4.9217,
          "distance_km": 5.04
        },
        {
          "code_insee": "55427",
          "nom": "Revigny-sur-Ornain",
          "slug": "revigny-sur-ornain",
          "code_postal": "55800",
          "population": 2499,
          "superficie_km2": 1935.59,
          "latitude": 48.8268,
          "longitude": 4.9769,
          "distance_km": 5.22
        },
        {
          "code_insee": "55531",
          "nom": "Vassincourt",
          "slug": "vassincourt",
          "code_postal": "55800",
          "population": 274,
          "superficie_km2": 796.34,
          "latitude": 48.801,
          "longitude": 5.026,
          "distance_km": 5.76
        },
        {
          "code_insee": "51006",
          "nom": "Alliancelles",
          "slug": "alliancelles",
          "code_postal": "51250",
          "population": 148,
          "superficie_km2": 695.91,
          "latitude": 48.8016,
          "longitude": 4.8744,
          "distance_km": 6.09
        },
        {
          "code_insee": "55049",
          "nom": "Beurey-sur-Saulx",
          "slug": "beurey-sur-saulx",
          "code_postal": "55000",
          "population": 412,
          "superficie_km2": 1154.71,
          "latitude": 48.7593,
          "longitude": 5.029,
          "distance_km": 6.19
        },
        {
          "code_insee": "55134",
          "nom": "Couvonges",
          "slug": "couvonges",
          "code_postal": "55800",
          "population": 156,
          "superficie_km2": 463.03,
          "latitude": 48.7772,
          "longitude": 5.0377,
          "distance_km": 6.28
        },
        {
          "code_insee": "51423",
          "nom": "Pargny-sur-Saulx",
          "slug": "pargny-sur-saulx",
          "code_postal": "51340",
          "population": 1654,
          "superficie_km2": 1234.81,
          "latitude": 48.7663,
          "longitude": 4.8548,
          "distance_km": 7.38
        },
        {
          "code_insee": "51057",
          "nom": "Bettancourt-la-Longue",
          "slug": "bettancourt-la-longue",
          "code_postal": "51330",
          "population": 75,
          "superficie_km2": 614.95,
          "latitude": 48.8339,
          "longitude": 4.882,
          "distance_km": 7.68
        },
        {
          "code_insee": "55435",
          "nom": "Robert-Espagne",
          "slug": "robert-espagne",
          "code_postal": "55000",
          "population": 756,
          "superficie_km2": 748.24,
          "latitude": 48.7293,
          "longitude": 5.0253,
          "distance_km": 7.99
        },
        {
          "code_insee": "51583",
          "nom": "Trois-Fontaines-l'Abbaye",
          "slug": "trois-fontaines-l-abbaye",
          "code_postal": "51340",
          "population": 191,
          "superficie_km2": 4387.1,
          "latitude": 48.7106,
          "longitude": 4.9421,
          "distance_km": 8.05
        },
        {
          "code_insee": "51658",
          "nom": "Vroil",
          "slug": "vroil",
          "code_postal": "51330",
          "population": 103,
          "superficie_km2": 1033.3,
          "latitude": 48.8503,
          "longitude": 4.9106,
          "distance_km": 8.12
        },
        {
          "code_insee": "51635",
          "nom": "Villers-le-Sec",
          "slug": "villers-le-sec",
          "code_postal": "51250",
          "population": 109,
          "superficie_km2": 583.8,
          "latitude": 48.8192,
          "longitude": 4.8558,
          "distance_km": 8.16
        },
        {
          "code_insee": "55069",
          "nom": "Brabant-le-Roi",
          "slug": "brabant-le-roi",
          "code_postal": "55800",
          "population": 221,
          "superficie_km2": 1113.49,
          "latitude": 48.8576,
          "longitude": 4.9784,
          "distance_km": 8.54
        },
        {
          "code_insee": "55560",
          "nom": "Villers-aux-Vents",
          "slug": "villers-aux-vents",
          "code_postal": "55800",
          "population": 125,
          "superficie_km2": 609.23,
          "latitude": 48.8598,
          "longitude": 5.0231,
          "distance_km": 10.01
        },
        {
          "code_insee": "55378",
          "nom": "Nettancourt",
          "slug": "nettancourt",
          "code_postal": "55800",
          "population": 242,
          "superficie_km2": 1139.56,
          "latitude": 48.874,
          "longitude": 4.936,
          "distance_km": 10.22
        }
      ],
      "zonage_abc": "C",
      "reclassement_abc": "Non",
      "codes_postaux": [
        {
          "code_postal": "55800",
          "libelle_acheminement": "ANDERNAY"
        }
      ],
      "logement": {
        "logements_total": 117,
        "residences_principales": 106,
        "logements_vacants": 9,
        "residences_secondaires": 2,
        "maisons": 113,
        "appartements": 4,
        "proprietaires": 90,
        "locataires": 12,
        "hlm": 0,
        "construits_avant_1919": 24,
        "construits_1919_1945": 12,
        "construits_1946_1970": 20,
        "construits_1971_1990": 28,
        "construits_1991_2005": 5,
        "construits_2006_2019": 16,
        "chauffage_electrique": 28,
        "chauffage_fioul": 22,
        "chauffage_gaz_ville": 0,
        "chauffage_gaz_bouteille": 2,
        "chauffage_autre": 53,
        "menages": 106,
        "logements_avant_1990": 84
      },
      "artisans": {
        "monte_escalier": 0,
        "chauffage_pac_clim": 2,
        "isolation": 0,
        "menuiserie": 2,
        "fenetres_velux": 2,
        "couverture_toiture": 0,
        "facade_peinture": 0,
        "portes_volets": 2,
        "piscine": 0,
        "vmc_ventilation": 0,
        "assainissement": 2
      },
      "revenus": {
        "revenu_median": 22850.0,
        "part_menages_imposes": null,
        "taux_pauvrete": null
      },
      "aides_etat": {
        "zone_climatique": "H1",
        "qpv": false,
        "action_coeur_de_ville": false,
        "petites_villes_de_demain": false
      }
    },
    {
      "code_insee": "55012",
      "nom": "Apremont-la-Forêt",
      "nom_a": null,
      "nom_de": null,
      "slug": "apremont-la-foret",
      "code_postal": "55300",
      "population": 427,
      "superficie_km2": 3288.27,
      "latitude": 48.8467,
      "longitude": 5.6207,
      "villes_proches": [
        {
          "code_insee": "55460",
          "nom": "Saint-Julien-sous-les-Côtes",
          "slug": "saint-julien-sous-les-cotes",
          "code_postal": "55200",
          "population": 138,
          "superficie_km2": 500.49,
          "latitude": 48.8212,
          "longitude": 5.6205,
          "distance_km": 2.84
        },
        {
          "code_insee": "55528",
          "nom": "Varnéville",
          "slug": "varneville",
          "code_postal": "55300",
          "population": 49,
          "superficie_km2": 647.57,
          "latitude": 48.8768,
          "longitude": 5.6594,
          "distance_km": 4.38
        },
        {
          "code_insee": "55212",
          "nom": "Girauvoisin",
          "slug": "girauvoisin",
          "code_postal": "55200",
          "population": 70,
          "superficie_km2": 490.07,
          "latitude": 48.8057,
          "longitude": 5.6358,
          "distance_km": 4.69
        },
        {
          "code_insee": "55303",
          "nom": "Loupmont",
          "slug": "loupmont",
          "code_postal": "55300",
          "population": 75,
          "superficie_km2": 1031.05,
          "latitude": 48.8663,
          "longitude": 5.6783,
          "distance_km": 4.74
        },
        {
          "code_insee": "55058",
          "nom": "Boncourt-sur-Meuse",
          "slug": "boncourt-sur-meuse",
          "code_postal": "55200",
          "population": 313,
          "superficie_km2": 1089.94,
          "latitude": 48.8116,
          "longitude": 5.5838,
          "distance_km": 4.75
        },
        {
          "code_insee": "55229",
          "nom": "Han-sur-Meuse",
          "slug": "han-sur-meuse",
          "code_postal": "55300",
          "population": 270,
          "superficie_km2": 1719.78,
          "latitude": 48.8539,
          "longitude": 5.556,
          "distance_km": 4.8
        },
        {
          "code_insee": "55196",
          "nom": "Frémeréville-sous-les-Côtes",
          "slug": "fremereville-sous-les-cotes",
          "code_postal": "55200",
          "population": 129,
          "superficie_km2": 673.28,
          "latitude": 48.8043,
          "longitude": 5.656,
          "distance_km": 5.38
        },
        {
          "code_insee": "55329",
          "nom": "Mécrin",
          "slug": "mecrin",
          "code_postal": "55300",
          "population": 183,
          "superficie_km2": 1021.95,
          "latitude": 48.8288,
          "longitude": 5.5466,
          "distance_km": 5.78
        },
        {
          "code_insee": "55062",
          "nom": "Bouconville-sur-Madt",
          "slug": "bouconville-sur-madt",
          "code_postal": "55300",
          "population": 99,
          "superficie_km2": 857.33,
          "latitude": 48.844,
          "longitude": 5.7039,
          "distance_km": 6.1
        },
        {
          "code_insee": "55463",
          "nom": "Saint-Mihiel",
          "slug": "saint-mihiel",
          "code_postal": "55300",
          "population": 3772,
          "superficie_km2": 3292.67,
          "latitude": 48.8941,
          "longitude": 5.5745,
          "distance_km": 6.26
        },
        {
          "code_insee": "55407",
          "nom": "Pont-sur-Meuse",
          "slug": "pont-sur-meuse",
          "code_postal": "55200",
          "population": 131,
          "superficie_km2": 361.74,
          "latitude": 48.811,
          "longitude": 5.5531,
          "distance_km": 6.34
        },
        {
          "code_insee": "55553",
          "nom": "Vignot",
          "slug": "vignot",
          "code_postal": "55200",
          "population": 1269,
          "superficie_km2": 1605.64,
          "latitude": 48.7785,
          "longitude": 5.6123,
          "distance_km": 7.61
        },
        {
          "code_insee": "55085",
          "nom": "Broussey-Raulecourt",
          "slug": "broussey-raulecourt",
          "code_postal": "55200",
          "population": 283,
          "superficie_km2": 2116.51,
          "latitude": 48.8142,
          "longitude": 5.7151,
          "distance_km": 7.8
        },
        {
          "code_insee": "55093",
          "nom": "Buxières-sous-les-Côtes",
          "slug": "buxieres-sous-les-cotes",
          "code_postal": "55300",
          "population": 264,
          "superficie_km2": 2675.6,
          "latitude": 48.9055,
          "longitude": 5.6815,
          "distance_km": 7.91
        },
        {
          "code_insee": "55586",
          "nom": "Xivray-et-Marvoisin",
          "slug": "xivray-et-marvoisin",
          "code_postal": "55300",
          "population": 118,
          "superficie_km2": 1448.94,
          "latitude": 48.8673,
          "longitude": 5.7282,
          "distance_km": 8.19
        },
        {
          "code_insee": "55530",
          "nom": "Valbois",
          "slug": "valbois",
          "code_postal": "55300",
          "population": 96,
          "superficie_km2": 1704.4,
          "latitude": 48.9297,
          "longitude": 5.6168,
          "distance_km": 9.23
        },
        {
          "code_insee": "55288",
          "nom": "Lérouville",
          "slug": "lerouville",
          "code_postal": "55200",
          "population": 1358,
          "superficie_km2": 1432.96,
          "latitude": 48.7772,
          "longitude": 5.5379,
          "distance_km": 9.82
        },
        {
          "code_insee": "55312",
          "nom": "Maizey",
          "slug": "maizey",
          "code_postal": "55300",
          "population": 155,
          "superficie_km2": 1501.51,
          "latitude": 48.924,
          "longitude": 5.5418,
          "distance_km": 10.35
        },
        {
          "code_insee": "55184",
          "nom": "Euville",
          "slug": "euville",
          "code_postal": "55200",
          "population": 1630,
          "superficie_km2": 2981.63,
          "latitude": 48.7447,
          "longitude": 5.6525,
          "distance_km": 11.58
        },
        {
          "code_insee": "55096",
          "nom": "Chaillon",
          "slug": "chaillon",
          "code_postal": "55210",
          "population": 110,
          "superficie_km2": 1144.64,
          "latitude": 48.9496,
          "longitude": 5.6518,
          "distance_km": 11.67
        }
      ],
      "zonage_abc": "C",
      "reclassement_abc": "Non",
      "codes_postaux": [
        {
          "code_postal": "55300",
          "libelle_acheminement": "APREMONT LA FORET"
        }
      ],
      "logement": {
        "logements_total": 227,
        "residences_principales": 174,
        "logements_vacants": 16,
        "residences_secondaires": 36,
        "maisons": 217,
        "appartements": 9,
        "proprietaires": 151,
        "locataires": 20,
        "hlm": 0,
        "construits_avant_1919": 25,
        "construits_1919_1945": 70,
        "construits_1946_1970": 15,
        "construits_1971_1990": 23,
        "construits_1991_2005": 18,
        "construits_2006_2019": 23,
        "chauffage_electrique": 22,
        "chauffage_fioul": 49,
        "chauffage_gaz_ville": 0,
        "chauffage_gaz_bouteille": 7,
        "chauffage_autre": 96,
        "menages": 174,
        "logements_avant_1990": 133
      },
      "artisans": {
        "monte_escalier": 0,
        "chauffage_pac_clim": 0,
        "isolation": 1,
        "menuiserie": 0,
        "fenetres_velux": 0,
        "couverture_toiture": 1,
        "facade_peinture": 0,
        "portes_volets": 0,
        "piscine": 1,
        "vmc_ventilation": 0,
        "assainissement": 0
      },
      "revenus": {
        "revenu_median": 21750.0,
        "part_menages_imposes": null,
        "taux_pauvrete": null
      },
      "aides_etat": {
        "zone_climatique": "H1",
        "qpv": false,
        "action_coeur_de_ville": false,
        "petites_villes_de_demain": false
      }
    },
    {
      "code_insee": "55013",
      "nom": "Arrancy-sur-Crusnes",
      "nom_a": null,
      "nom_de": null,
      "slug": "arrancy-sur-crusnes",
      "code_postal": "55230",
      "population": 466,
      "superficie_km2": 2009.68,
      "latitude": 49.4127,
      "longitude": 5.6499,
      "villes_proches": [
        {
          "code_insee": "55445",
          "nom": "Rouvrois-sur-Othain",
          "slug": "rouvrois-sur-othain",
          "code_postal": "55230",
          "population": 199,
          "superficie_km2": 1226.57,
          "latitude": 49.3883,
          "longitude": 5.6319,
          "distance_km": 3.01
        },
        {
          "code_insee": "54067",
          "nom": "Beuveille",
          "slug": "beuveille",
          "code_postal": "54620",
          "population": 783,
          "superficie_km2": 1199.03,
          "latitude": 49.4356,
          "longitude": 5.6722,
          "distance_km": 3.01
        },
        {
          "code_insee": "54428",
          "nom": "Pierrepont",
          "slug": "pierrepont",
          "code_postal": "54620",
          "population": 824,
          "superficie_km2": 703.8,
          "latitude": 49.42,
          "longitude": 5.7063,
          "distance_km": 4.16
        },
        {
          "code_insee": "55495",
          "nom": "Sorbey",
          "slug": "sorbey",
          "code_postal": "55230",
          "population": 227,
          "superficie_km2": 1244.45,
          "latitude": 49.4019,
          "longitude": 5.5858,
          "distance_km": 4.79
        },
        {
          "code_insee": "54602",
          "nom": "Han-devant-Pierrepont",
          "slug": "han-devant-pierrepont",
          "code_postal": "54620",
          "population": 144,
          "superficie_km2": 503.92,
          "latitude": 49.3966,
          "longitude": 5.7114,
          "distance_km": 4.8
        },
        {
          "code_insee": "55464",
          "nom": "Saint-Pierrevillers",
          "slug": "saint-pierrevillers",
          "code_postal": "55230",
          "population": 149,
          "superficie_km2": 1116.36,
          "latitude": 49.3736,
          "longitude": 5.6851,
          "distance_km": 5.04
        },
        {
          "code_insee": "54172",
          "nom": "Doncourt-lès-Longuyon",
          "slug": "doncourt-les-longuyon",
          "code_postal": "54620",
          "population": 297,
          "superficie_km2": 555.67,
          "latitude": 49.4401,
          "longitude": 5.7137,
          "distance_km": 5.53
        },
        {
          "code_insee": "55387",
          "nom": "Nouillonpont",
          "slug": "nouillonpont",
          "code_postal": "55230",
          "population": 243,
          "superficie_km2": 1011.83,
          "latitude": 49.3571,
          "longitude": 5.6658,
          "distance_km": 6.29
        },
        {
          "code_insee": "55168",
          "nom": "Duzey",
          "slug": "duzey",
          "code_postal": "55230",
          "population": 46,
          "superficie_km2": 579.73,
          "latitude": 49.3597,
          "longitude": 5.6177,
          "distance_km": 6.34
        },
        {
          "code_insee": "54590",
          "nom": "Viviers-sur-Chiers",
          "slug": "viviers-sur-chiers",
          "code_postal": "54260",
          "population": 657,
          "superficie_km2": 1611.03,
          "latitude": 49.469,
          "longitude": 5.6315,
          "distance_km": 6.4
        },
        {
          "code_insee": "54081",
          "nom": "Boismont",
          "slug": "boismont",
          "code_postal": "54620",
          "population": 410,
          "superficie_km2": 543.99,
          "latitude": 49.4113,
          "longitude": 5.7395,
          "distance_km": 6.48
        },
        {
          "code_insee": "55405",
          "nom": "Pillon",
          "slug": "pillon",
          "code_postal": "55230",
          "population": 251,
          "superficie_km2": 1546.81,
          "latitude": 49.3712,
          "longitude": 5.5848,
          "distance_km": 6.59
        },
        {
          "code_insee": "54489",
          "nom": "Saint-Supplet",
          "slug": "saint-supplet",
          "code_postal": "54620",
          "population": 150,
          "superficie_km2": 737.29,
          "latitude": 49.3768,
          "longitude": 5.7303,
          "distance_km": 7.06
        },
        {
          "code_insee": "54378",
          "nom": "Montigny-sur-Chiers",
          "slug": "montigny-sur-chiers",
          "code_postal": "54870",
          "population": 486,
          "superficie_km2": 943.11,
          "latitude": 49.4753,
          "longitude": 5.6672,
          "distance_km": 7.07
        },
        {
          "code_insee": "54322",
          "nom": "Longuyon",
          "slug": "longuyon",
          "code_postal": "54260",
          "population": 5134,
          "superficie_km2": 3001.0,
          "latitude": 49.4625,
          "longitude": 5.5887,
          "distance_km": 7.09
        },
        {
          "code_insee": "54537",
          "nom": "Ugny",
          "slug": "ugny",
          "code_postal": "54870",
          "population": 689,
          "superficie_km2": 913.83,
          "latitude": 49.4653,
          "longitude": 5.7064,
          "distance_km": 7.13
        },
        {
          "code_insee": "55367",
          "nom": "Muzeray",
          "slug": "muzeray",
          "code_postal": "55230",
          "population": 133,
          "superficie_km2": 826.1,
          "latitude": 49.3385,
          "longitude": 5.6228,
          "distance_km": 8.48
        },
        {
          "code_insee": "55500",
          "nom": "Spincourt",
          "slug": "spincourt",
          "code_postal": "55230",
          "population": 823,
          "superficie_km2": 2738.37,
          "latitude": 49.3359,
          "longitude": 5.6925,
          "distance_km": 9.08
        },
        {
          "code_insee": "54137",
          "nom": "Cons-la-Grandville",
          "slug": "cons-la-grandville",
          "code_postal": "54870",
          "population": 522,
          "superficie_km2": 837.56,
          "latitude": 49.4929,
          "longitude": 5.6934,
          "distance_km": 9.46
        },
        {
          "code_insee": "54212",
          "nom": "Fresnois-la-Montagne",
          "slug": "fresnois-la-montagne",
          "code_postal": "54260",
          "population": 415,
          "superficie_km2": 858.19,
          "latitude": 49.4991,
          "longitude": 5.6486,
          "distance_km": 9.61
        }
      ],
      "zonage_abc": "C",
      "reclassement_abc": "Non",
      "codes_postaux": [
        {
          "code_postal": "55230",
          "libelle_acheminement": "ARRANCY SUR CRUSNES"
        }
      ],
      "logement": {
        "logements_total": 213,
        "residences_principales": 197,
        "logements_vacants": 12,
        "residences_secondaires": 4,
        "maisons": 184,
        "appartements": 25,
        "proprietaires": 153,
        "locataires": 43,
        "hlm": 2,
        "construits_avant_1919": 48,
        "construits_1919_1945": 29,
        "construits_1946_1970": 25,
        "construits_1971_1990": 34,
        "construits_1991_2005": 28,
        "construits_2006_2019": 29,
        "chauffage_electrique": 51,
        "chauffage_fioul": 60,
        "chauffage_gaz_ville": 3,
        "chauffage_gaz_bouteille": 15,
        "chauffage_autre": 65,
        "menages": 197,
        "logements_avant_1990": 136
      },
      "artisans": {
        "monte_escalier": 0,
        "chauffage_pac_clim": 1,
        "isolation": 0,
        "menuiserie": 0,
        "fenetres_velux": 0,
        "couverture_toiture": 0,
        "facade_peinture": 0,
        "portes_volets": 0,
        "piscine": 2,
        "vmc_ventilation": 1,
        "assainissement": 1
      },
      "revenus": {
        "revenu_median": 24660.0,
        "part_menages_imposes": null,
        "taux_pauvrete": null
      },
      "aides_etat": {
        "zone_climatique": "H1",
        "qpv": false,
        "action_coeur_de_ville": false,
        "petites_villes_de_demain": false
      }
    },
    {
      "code_insee": "55014",
      "nom": "Aubréville",
      "nom_a": null,
      "nom_de": null,
      "slug": "aubreville",
      "code_postal": "55120",
      "population": 375,
      "superficie_km2": 2889.21,
      "latitude": 49.1598,
      "longitude": 5.0979,
      "villes_proches": [
        {
          "code_insee": "55117",
          "nom": "Clermont-en-Argonne",
          "slug": "clermont-en-argonne",
          "code_postal": "55120",
          "population": 1406,
          "superficie_km2": 6703.66,
          "latitude": 49.1202,
          "longitude": 5.0925,
          "distance_km": 4.42
        },
        {
          "code_insee": "55536",
          "nom": "Vauquois",
          "slug": "vauquois",
          "code_postal": "55270",
          "population": 23,
          "superficie_km2": 810.9,
          "latitude": 49.1987,
          "longitude": 5.0832,
          "distance_km": 4.46
        },
        {
          "code_insee": "55419",
          "nom": "Récicourt",
          "slug": "recicourt",
          "code_postal": "55120",
          "population": 149,
          "superficie_km2": 1346.85,
          "latitude": 49.1542,
          "longitude": 5.1615,
          "distance_km": 4.67
        },
        {
          "code_insee": "55383",
          "nom": "Neuvilly-en-Argonne",
          "slug": "neuvilly-en-argonne",
          "code_postal": "55120",
          "population": 232,
          "superficie_km2": 1826.75,
          "latitude": 49.1613,
          "longitude": 5.0328,
          "distance_km": 4.74
        },
        {
          "code_insee": "55023",
          "nom": "Avocourt",
          "slug": "avocourt",
          "code_postal": "55270",
          "population": 120,
          "superficie_km2": 1468.22,
          "latitude": 49.2046,
          "longitude": 5.1407,
          "distance_km": 5.87
        },
        {
          "code_insee": "55068",
          "nom": "Brabant-en-Argonne",
          "slug": "brabant-en-argonne",
          "code_postal": "55120",
          "population": 98,
          "superficie_km2": 797.62,
          "latitude": 49.1198,
          "longitude": 5.1505,
          "distance_km": 5.87
        },
        {
          "code_insee": "55065",
          "nom": "Boureuilles",
          "slug": "boureuilles",
          "code_postal": "55270",
          "population": 118,
          "superficie_km2": 2149.61,
          "latitude": 49.1988,
          "longitude": 5.022,
          "distance_km": 7.02
        },
        {
          "code_insee": "55155",
          "nom": "Dombasle-en-Argonne",
          "slug": "dombasle-en-argonne",
          "code_postal": "55120",
          "population": 365,
          "superficie_km2": 1156.67,
          "latitude": 49.1454,
          "longitude": 5.1971,
          "distance_km": 7.39
        },
        {
          "code_insee": "55082",
          "nom": "Brocourt-en-Argonne",
          "slug": "brocourt-en-argonne",
          "code_postal": "55120",
          "population": 46,
          "superficie_km2": 663.12,
          "latitude": 49.1117,
          "longitude": 5.1715,
          "distance_km": 7.57
        },
        {
          "code_insee": "55113",
          "nom": "Cheppy",
          "slug": "cheppy",
          "code_postal": "55270",
          "population": 156,
          "superficie_km2": 1487.14,
          "latitude": 49.2269,
          "longitude": 5.0782,
          "distance_km": 7.6
        },
        {
          "code_insee": "55116",
          "nom": "Le Claon",
          "slug": "le-claon",
          "code_postal": "55120",
          "population": 46,
          "superficie_km2": 727.28,
          "latitude": 49.1452,
          "longitude": 4.9925,
          "distance_km": 7.84
        },
        {
          "code_insee": "55253",
          "nom": "Les Islettes",
          "slug": "les-islettes",
          "code_postal": "55120",
          "population": 695,
          "superficie_km2": 549.33,
          "latitude": 49.1098,
          "longitude": 5.009,
          "distance_km": 8.53
        },
        {
          "code_insee": "55549",
          "nom": "Véry",
          "slug": "very",
          "code_postal": "55270",
          "population": 79,
          "superficie_km2": 1179.23,
          "latitude": 49.2364,
          "longitude": 5.0893,
          "distance_km": 8.54
        },
        {
          "code_insee": "55416",
          "nom": "Rarécourt",
          "slug": "rarecourt",
          "code_postal": "55120",
          "population": 195,
          "superficie_km2": 1536.06,
          "latitude": 49.0764,
          "longitude": 5.0885,
          "distance_km": 9.3
        },
        {
          "code_insee": "55527",
          "nom": "Varennes-en-Argonne",
          "slug": "varennes-en-argonne",
          "code_postal": "55270",
          "population": 636,
          "superficie_km2": 1177.62,
          "latitude": 49.2299,
          "longitude": 5.0131,
          "distance_km": 9.94
        },
        {
          "code_insee": "55313",
          "nom": "Malancourt",
          "slug": "malancourt",
          "code_postal": "55270",
          "population": 65,
          "superficie_km2": 1655.32,
          "latitude": 49.2375,
          "longitude": 5.1766,
          "distance_km": 10.36
        },
        {
          "code_insee": "55346",
          "nom": "Montfaucon-d'Argonne",
          "slug": "montfaucon-d-argonne",
          "code_postal": "55270",
          "population": 261,
          "superficie_km2": 2358.09,
          "latitude": 49.2551,
          "longitude": 5.1353,
          "distance_km": 10.94
        },
        {
          "code_insee": "55199",
          "nom": "Froidos",
          "slug": "froidos",
          "code_postal": "55120",
          "population": 97,
          "superficie_km2": 870.06,
          "latitude": 49.061,
          "longitude": 5.1209,
          "distance_km": 11.11
        },
        {
          "code_insee": "55103",
          "nom": "Charpentry",
          "slug": "charpentry",
          "code_postal": "55270",
          "population": 24,
          "superficie_km2": 435.47,
          "latitude": 49.2582,
          "longitude": 5.0413,
          "distance_km": 11.69
        },
        {
          "code_insee": "55174",
          "nom": "Épinonville",
          "slug": "epinonville",
          "code_postal": "55270",
          "population": 65,
          "superficie_km2": 1408.65,
          "latitude": 49.2725,
          "longitude": 5.0836,
          "distance_km": 12.57
        }
      ],
      "zonage_abc": "C",
      "reclassement_abc": "Non",
      "codes_postaux": [
        {
          "code_postal": "55120",
          "libelle_acheminement": "AUBREVILLE"
        }
      ],
      "logement": {
        "logements_total": 217,
        "residences_principales": 171,
        "logements_vacants": 25,
        "residences_secondaires": 21,
        "maisons": 213,
        "appartements": 4,
        "proprietaires": 150,
        "locataires": 18,
        "hlm": 0,
        "construits_avant_1919": 14,
        "construits_1919_1945": 70,
        "construits_1946_1970": 29,
        "construits_1971_1990": 31,
        "construits_1991_2005": 9,
        "construits_2006_2019": 16,
        "chauffage_electrique": 33,
        "chauffage_fioul": 42,
        "chauffage_gaz_ville": 0,
        "chauffage_gaz_bouteille": 3,
        "chauffage_autre": 92,
        "menages": 171,
        "logements_avant_1990": 144
      },
      "artisans": {
        "monte_escalier": 0,
        "chauffage_pac_clim": 0,
        "isolation": 0,
        "menuiserie": 0,
        "fenetres_velux": 0,
        "couverture_toiture": 0,
        "facade_peinture": 1,
        "portes_volets": 0,
        "piscine": 2,
        "vmc_ventilation": 0,
        "assainissement": 1
      },
      "revenus": {
        "revenu_median": 22820.0,
        "part_menages_imposes": null,
        "taux_pauvrete": null
      },
      "aides_etat": {
        "zone_climatique": "H1",
        "qpv": false,
        "action_coeur_de_ville": false,
        "petites_villes_de_demain": false
      }
    },
    {
      "code_insee": "55015",
      "nom": "Aulnois-en-Perthois",
      "nom_a": null,
      "nom_de": null,
      "slug": "aulnois-en-perthois",
      "code_postal": "55170",
      "population": 462,
      "superficie_km2": 1077.92,
      "latitude": 48.6362,
      "longitude": 5.1227,
      "villes_proches": [
        {
          "code_insee": "55284",
          "nom": "Lavincourt",
          "slug": "lavincourt",
          "code_postal": "55170",
          "population": 70,
          "superficie_km2": 482.92,
          "latitude": 48.657,
          "longitude": 5.1449,
          "distance_km": 2.83
        },
        {
          "code_insee": "55132",
          "nom": "Cousances-les-Forges",
          "slug": "cousances-les-forges",
          "code_postal": "55170",
          "population": 1621,
          "superficie_km2": 1812.34,
          "latitude": 48.6183,
          "longitude": 5.0885,
          "distance_km": 3.21
        },