{
  "departement": {
    "code": "56",
    "nom": "Morbihan",
    "slug": "morbihan",
    "population_totale": 769527
  },
  "region": {
    "id": 4,
    "code": "03",
    "nom": "Bretagne",
    "slug": "bretagne"
  },
  "voisins": [
    {
      "dep_code": "22",
      "dep_nom": "Côtes-d'Armor",
      "dep_slug": "cotes-d-armor"
    },
    {
      "dep_code": "29",
      "dep_nom": "Finistère",
      "dep_slug": "finistere"
    },
    {
      "dep_code": "35",
      "dep_nom": "Ille-et-Vilaine",
      "dep_slug": "ille-et-vilaine"
    }
  ],
  "communes_count": 249,
  "communes": [
    {
      "code_insee": "56001",
      "nom": "Allaire",
      "nom_a": null,
      "nom_de": null,
      "slug": "allaire",
      "code_postal": "56350",
      "population": 3875,
      "superficie_km2": 42.0,
      "latitude": 47.6389999,
      "longitude": -2.177,
      "villes_proches": [
        {
          "code_insee": "56223",
          "nom": "Saint-Jean-la-Poterie",
          "slug": "saint-jean-la-poterie",
          "code_postal": "56350",
          "population": 1444,
          "superficie_km2": 8.0,
          "latitude": 47.6450005,
          "longitude": -2.1229999,
          "distance_km": 4.1
        },
        {
          "code_insee": "56221",
          "nom": "Saint-Jacut-les-Pins",
          "slug": "saint-jacut-les-pins",
          "code_postal": "56220",
          "population": 1734,
          "superficie_km2": 23.0,
          "latitude": 47.6780014,
          "longitude": -2.2119999,
          "distance_km": 5.07
        },
        {
          "code_insee": "56194",
          "nom": "Rieux",
          "slug": "rieux",
          "code_postal": "56350",
          "population": 2851,
          "superficie_km2": 28.0,
          "latitude": 47.605999,
          "longitude": -2.1259999,
          "distance_km": 5.3
        },
        {
          "code_insee": "56232",
          "nom": "Saint-Perreux",
          "slug": "saint-perreux",
          "code_postal": "56350",
          "population": 1065,
          "superficie_km2": 6.0,
          "latitude": 47.6720009,
          "longitude": -2.1229999,
          "distance_km": 5.46
        },
        {
          "code_insee": "56011",
          "nom": "Béganne",
          "slug": "beganne",
          "code_postal": "56350",
          "population": 1423,
          "superficie_km2": 35.0,
          "latitude": 47.6030006,
          "longitude": -2.244,
          "distance_km": 6.42
        },
        {
          "code_insee": "56239",
          "nom": "Saint-Vincent-sur-Oust",
          "slug": "saint-vincent-sur-oust",
          "code_postal": "56350",
          "population": 1616,
          "superficie_km2": 16.0,
          "latitude": 47.7019997,
          "longitude": -2.148,
          "distance_km": 7.33
        },
        {
          "code_insee": "35236",
          "nom": "Redon",
          "slug": "redon",
          "code_postal": "35600",
          "population": 9312,
          "superficie_km2": 15.0,
          "latitude": 47.6609993,
          "longitude": -2.0799999,
          "distance_km": 7.67
        },
        {
          "code_insee": "44185",
          "nom": "Saint-Nicolas-de-Redon",
          "slug": "saint-nicolas-de-redon",
          "code_postal": "44460",
          "population": 3279,
          "superficie_km2": 22.0,
          "latitude": 47.6360016,
          "longitude": -2.0569999,
          "distance_km": 9
        },
        {
          "code_insee": "56154",
          "nom": "Peillac",
          "slug": "peillac",
          "code_postal": "56220",
          "population": 1857,
          "superficie_km2": 25.0,
          "latitude": 47.7150002,
          "longitude": -2.2190001,
          "distance_km": 9.02
        },
        {
          "code_insee": "56028",
          "nom": "Caden",
          "slug": "caden",
          "code_postal": "56220",
          "population": 1579,
          "superficie_km2": 38.0,
          "latitude": 47.6399994,
          "longitude": -2.299,
          "distance_km": 9.14
        },
        {
          "code_insee": "56212",
          "nom": "Saint-Dolay",
          "slug": "saint-dolay",
          "code_postal": "56130",
          "population": 2603,
          "superficie_km2": 49.0,
          "latitude": 47.5480003,
          "longitude": -2.1719999,
          "distance_km": 10.13
        },
        {
          "code_insee": "56123",
          "nom": "Malansac",
          "slug": "malansac",
          "code_postal": "56220",
          "population": 2244,
          "superficie_km2": 36.0,
          "latitude": 47.6860008,
          "longitude": -2.3,
          "distance_km": 10.59
        },
        {
          "code_insee": "35013",
          "nom": "Bains-sur-Oust",
          "slug": "bains-sur-oust",
          "code_postal": "35600",
          "population": 3502,
          "superficie_km2": 45.0,
          "latitude": 47.7120018,
          "longitude": -2.075,
          "distance_km": 11.15
        },
        {
          "code_insee": "56147",
          "nom": "Nivillac",
          "slug": "nivillac",
          "code_postal": "56130",
          "population": 4810,
          "superficie_km2": 56.0,
          "latitude": 47.5410004,
          "longitude": -2.2490001,
          "distance_km": 12.16
        },
        {
          "code_insee": "44196",
          "nom": "Sévérac",
          "slug": "severac",
          "code_postal": "44530",
          "population": 1673,
          "superficie_km2": 22.0,
          "latitude": 47.5540009,
          "longitude": -2.0669999,
          "distance_km": 12.54
        },
        {
          "code_insee": "44057",
          "nom": "Fégréac",
          "slug": "fegreac",
          "code_postal": "44460",
          "population": 2283,
          "superficie_km2": 44.0,
          "latitude": 47.5810013,
          "longitude": -2.0250001,
          "distance_km": 13.09
        },
        {
          "code_insee": "56153",
          "nom": "Péaule",
          "slug": "peaule",
          "code_postal": "56130",
          "population": 2782,
          "superficie_km2": 39.0,
          "latitude": 47.5830002,
          "longitude": -2.336,
          "distance_km": 13.45
        },
        {
          "code_insee": "35294",
          "nom": "Sainte-Marie",
          "slug": "sainte-marie",
          "code_postal": "35600",
          "population": 2266,
          "superficie_km2": 25.0,
          "latitude": 47.6940002,
          "longitude": -2.013,
          "distance_km": 13.72
        },
        {
          "code_insee": "56111",
          "nom": "Limerzel",
          "slug": "limerzel",
          "code_postal": "56220",
          "population": 1307,
          "superficie_km2": 25.0,
          "latitude": 47.6360016,
          "longitude": -2.3610001,
          "distance_km": 13.79
        },
        {
          "code_insee": "56061",
          "nom": "La Gacilly",
          "slug": "la-gacilly",
          "code_postal": "56200",
          "population": 3993,
          "superficie_km2": 17.0,
          "latitude": 47.7729988,
          "longitude": -2.1559999,
          "distance_km": 14.98
        }
      ],
      "zonage_abc": "C",
      "reclassement_abc": "Non",
      "codes_postaux": [
        {
          "code_postal": "56350",
          "libelle_acheminement": "ALLAIRE"
        }
      ],
      "logement": {
        "logements_total": 1955,
        "residences_principales": 1675,
        "logements_vacants": 187,
        "residences_secondaires": 92,
        "maisons": 1829,
        "appartements": 122,
        "proprietaires": 1234,
        "locataires": 421,
        "hlm": 100,
        "construits_avant_1919": 172,
        "construits_1919_1945": 94,
        "construits_1946_1970": 181,
        "construits_1971_1990": 462,
        "construits_1991_2005": 324,
        "construits_2006_2019": 343,
        "chauffage_electrique": 654,
        "chauffage_fioul": 207,
        "chauffage_gaz_ville": 221,
        "chauffage_gaz_bouteille": 35,
        "chauffage_autre": 555,
        "menages": 1675,
        "logements_avant_1990": 909
      },
      "artisans": {
        "monte_escalier": 1,
        "chauffage_pac_clim": 2,
        "isolation": 3,
        "menuiserie": 11,
        "fenetres_velux": 11,
        "couverture_toiture": 4,
        "facade_peinture": 5,
        "portes_volets": 11,
        "piscine": 7,
        "vmc_ventilation": 0,
        "assainissement": 2
      },
      "revenus": {
        "revenu_median": 21560.0,
        "part_menages_imposes": 45.0,
        "taux_pauvrete": 12.0
      },
      "aides_etat": {
        "zone_climatique": "H1",
        "qpv": false,
        "action_coeur_de_ville": false,
        "petites_villes_de_demain": true
      }
    },
    {
      "code_insee": "56002",
      "nom": "Ambon",
      "nom_a": null,
      "nom_de": null,
      "slug": "ambon",
      "code_postal": "56190",
      "population": 2055,
      "superficie_km2": 38.0,
      "latitude": 47.5569992,
      "longitude": -2.5409999,
      "villes_proches": [
        {
          "code_insee": "56052",
          "nom": "Damgan",
          "slug": "damgan",
          "code_postal": "56750",
          "population": 1917,
          "superficie_km2": 12.0,
          "latitude": 47.5229988,
          "longitude": -2.586,
          "distance_km": 5.07
        },
        {
          "code_insee": "56143",
          "nom": "Muzillac",
          "slug": "muzillac",
          "code_postal": "56190",
          "population": 5041,
          "superficie_km2": 38.0,
          "latitude": 47.5550003,
          "longitude": -2.4730001,
          "distance_km": 5.11
        },
        {
          "code_insee": "56018",
          "nom": "Billiers",
          "slug": "billiers",
          "code_postal": "56190",
          "population": 1047,
          "superficie_km2": 6.0,
          "latitude": 47.5239983,
          "longitude": -2.48,
          "distance_km": 5.87
        },
        {
          "code_insee": "56109",
          "nom": "Lauzach",
          "slug": "lauzach",
          "code_postal": "56190",
          "population": 1199,
          "superficie_km2": 11.0,
          "latitude": 47.6110001,
          "longitude": -2.556,
          "distance_km": 6.11
        },
        {
          "code_insee": "56259",
          "nom": "La Trinité-Surzur",
          "slug": "la-trinite-surzur",
          "code_postal": "56190",
          "population": 1721,
          "superficie_km2": 2.0,
          "latitude": 47.6049995,
          "longitude": -2.592,
          "distance_km": 6.57
        },
        {
          "code_insee": "56248",
          "nom": "Surzur",
          "slug": "surzur",
          "code_postal": "56450",
          "population": 5008,
          "superficie_km2": 59.0,
          "latitude": 47.5690002,
          "longitude": -2.6270001,
          "distance_km": 6.59
        },
        {
          "code_insee": "56149",
          "nom": "Noyal-Muzillac",
          "slug": "noyal-muzillac",
          "code_postal": "56190",
          "population": 2516,
          "superficie_km2": 49.0,
          "latitude": 47.5999985,
          "longitude": -2.46,
          "distance_km": 7.73
        },
        {
          "code_insee": "56252",
          "nom": "Le Tour-du-Parc",
          "slug": "le-tour-du-parc",
          "code_postal": "56370",
          "population": 1237,
          "superficie_km2": 10.0,
          "latitude": 47.5289993,
          "longitude": -2.654,
          "distance_km": 9.04
        },
        {
          "code_insee": "56015",
          "nom": "Berric",
          "slug": "berric",
          "code_postal": "56230",
          "population": 2109,
          "superficie_km2": 22.0,
          "latitude": 47.6380005,
          "longitude": -2.5280001,
          "distance_km": 9.06
        },
        {
          "code_insee": "56155",
          "nom": "Pénestin",
          "slug": "penestin",
          "code_postal": "56760",
          "population": 2028,
          "superficie_km2": 21.0,
          "latitude": 47.4729996,
          "longitude": -2.4649999,
          "distance_km": 10.95
        },
        {
          "code_insee": "56004",
          "nom": "Arzal",
          "slug": "arzal",
          "code_postal": "56190",
          "population": 1742,
          "superficie_km2": 25.0,
          "latitude": 47.5200005,
          "longitude": -2.405,
          "distance_km": 11.01
        },
        {
          "code_insee": "56247",
          "nom": "Sulniac",
          "slug": "sulniac",
          "code_postal": "56250",
          "population": 3829,
          "superficie_km2": 28.0,
          "latitude": 47.6599999,
          "longitude": -2.563,
          "distance_km": 11.57
        },
        {
          "code_insee": "56251",
          "nom": "Theix-Noyalo",
          "slug": "theix-noyalo",
          "code_postal": "56450",
          "population": 8403,
          "superficie_km2": 48.0,
          "latitude": 47.6360016,
          "longitude": -2.6470001,
          "distance_km": 11.85
        },
        {
          "code_insee": "56030",
          "nom": "Camoël",
          "slug": "camoel",
          "code_postal": "56130",
          "population": 1122,
          "superficie_km2": 15.0,
          "latitude": 47.4790001,
          "longitude": -2.3989999,
          "distance_km": 13.75
        },
        {
          "code_insee": "56126",
          "nom": "Marzan",
          "slug": "marzan",
          "code_postal": "56130",
          "population": 2539,
          "superficie_km2": 34.0,
          "latitude": 47.5419998,
          "longitude": -2.3540001,
          "distance_km": 14.13
        },
        {
          "code_insee": "56184",
          "nom": "Questembert",
          "slug": "questembert",
          "code_postal": "56230",
          "population": 8001,
          "superficie_km2": 66.0,
          "latitude": 47.6640015,
          "longitude": -2.437,
          "distance_km": 14.22
        },
        {
          "code_insee": "56255",
          "nom": "Treffléan",
          "slug": "trefflean",
          "code_postal": "56250",
          "population": 2491,
          "superficie_km2": 18.0,
          "latitude": 47.6780014,
          "longitude": -2.622,
          "distance_km": 14.76
        },
        {
          "code_insee": "56261",
          "nom": "La Vraie-Croix",
          "slug": "la-vraie-croix",
          "code_postal": "56250",
          "population": 1474,
          "superficie_km2": 17.0,
          "latitude": 47.6899986,
          "longitude": -2.5190001,
          "distance_km": 14.88
        },
        {
          "code_insee": "56243",
          "nom": "Séné",
          "slug": "sene",
          "code_postal": "56860",
          "population": 8944,
          "superficie_km2": 22.0,
          "latitude": 47.6230011,
          "longitude": -2.724,
          "distance_km": 15.56
        },
        {
          "code_insee": "56153",
          "nom": "Péaule",
          "slug": "peaule",
          "code_postal": "56130",
          "population": 2782,
          "superficie_km2": 39.0,
          "latitude": 47.5830002,
          "longitude": -2.336,
          "distance_km": 15.65
        }
      ],
      "zonage_abc": "C",
      "reclassement_abc": "Non",
      "codes_postaux": [
        {
          "code_postal": "56190",
          "libelle_acheminement": "AMBON"
        }
      ],
      "logement": {
        "logements_total": 1700,
        "residences_principales": 1003,
        "logements_vacants": 20,
        "residences_secondaires": 676,
        "maisons": 1412,
        "appartements": 152,
        "proprietaires": 724,
        "locataires": 265,
        "hlm": 57,
        "construits_avant_1919": 80,
        "construits_1919_1945": 34,
        "construits_1946_1970": 64,
        "construits_1971_1990": 281,
        "construits_1991_2005": 233,
        "construits_2006_2019": 297,
        "chauffage_electrique": 569,
        "chauffage_fioul": 109,
        "chauffage_gaz_ville": 8,
        "chauffage_gaz_bouteille": 35,
        "chauffage_autre": 281,
        "menages": 1003,
        "logements_avant_1990": 459
      },
      "artisans": {
        "monte_escalier": 0,
        "chauffage_pac_clim": 3,
        "isolation": 7,
        "menuiserie": 6,
        "fenetres_velux": 6,
        "couverture_toiture": 6,
        "facade_peinture": 9,
        "portes_volets": 6,
        "piscine": 0,
        "vmc_ventilation": 0,
        "assainissement": 4
      },
      "revenus": {
        "revenu_median": 23770.0,
        "part_menages_imposes": 54.0,
        "taux_pauvrete": null
      },
      "aides_etat": {
        "zone_climatique": "H1",
        "qpv": false,
        "action_coeur_de_ville": false,
        "petites_villes_de_demain": false
      }
    },
    {
      "code_insee": "56003",
      "nom": "Arradon",
      "nom_a": null,
      "nom_de": null,
      "slug": "arradon",
      "code_postal": "56610",
      "population": 5685,
      "superficie_km2": 19.0,
      "latitude": 47.6339989,
      "longitude": -2.822,
      "villes_proches": [
        {
          "code_insee": "56164",
          "nom": "Ploeren",
          "slug": "ploeren",
          "code_postal": "56880",
          "population": 6699,
          "superficie_km2": 20.0,
          "latitude": 47.6619988,
          "longitude": -2.8429999,
          "distance_km": 3.49
        },
        {
          "code_insee": "56260",
          "nom": "Vannes",
          "slug": "vannes",
          "code_postal": "56000",
          "population": 54420,
          "superficie_km2": 33.0,
          "latitude": 47.6599999,
          "longitude": -2.757,
          "distance_km": 5.66
        },
        {
          "code_insee": "56167",
          "nom": "Plougoumelen",
          "slug": "plougoumelen",
          "code_postal": "56400",
          "population": 2605,
          "superficie_km2": 22.0,
          "latitude": 47.6609993,
          "longitude": -2.898,
          "distance_km": 6.44
        },
        {
          "code_insee": "56008",
          "nom": "Baden",
          "slug": "baden",
          "code_postal": "56870",
          "population": 4642,
          "superficie_km2": 23.0,
          "latitude": 47.6150017,
          "longitude": -2.904,
          "distance_km": 6.5
        },
        {
          "code_insee": "56158",
          "nom": "Plescop",
          "slug": "plescop",
          "code_postal": "56890",
          "population": 6225,
          "superficie_km2": 23.0,
          "latitude": 47.6969986,
          "longitude": -2.8310001,
          "distance_km": 7.04
        },
        {
          "code_insee": "56243",
          "nom": "Séné",
          "slug": "sene",
          "code_postal": "56860",
          "population": 8944,
          "superficie_km2": 22.0,
          "latitude": 47.6230011,
          "longitude": -2.724,
          "distance_km": 7.45
        },
        {
          "code_insee": "56262",
          "nom": "Le Bono",
          "slug": "le-bono",
          "code_postal": "56400",
          "population": 2581,
          "superficie_km2": 6.0,
          "latitude": 47.637001,
          "longitude": -2.9400001,
          "distance_km": 8.85
        },
        {
          "code_insee": "56206",
          "nom": "Saint-Avé",
          "slug": "saint-ave",
          "code_postal": "56890",
          "population": 11927,
          "superficie_km2": 26.0,
          "latitude": 47.6990013,
          "longitude": -2.7420001,
          "distance_km": 9.39
        },
        {
          "code_insee": "56176",
          "nom": "Pluneret",
          "slug": "pluneret",
          "code_postal": "56400",
          "population": 6140,
          "superficie_km2": 27.0,
          "latitude": 47.6780014,
          "longitude": -2.9460001,
          "distance_km": 10.5
        },
        {
          "code_insee": "56132",
          "nom": "Meucon",
          "slug": "meucon",
          "code_postal": "56890",
          "population": 2277,
          "superficie_km2": 6.0,
          "latitude": 47.723999,
          "longitude": -2.7739999,
          "distance_km": 10.63
        },
        {
          "code_insee": "56005",
          "nom": "Arzon",
          "slug": "arzon",
          "code_postal": "56640",
          "population": 2269,
          "superficie_km2": 9.0,
          "latitude": 47.5470009,
          "longitude": -2.888,
          "distance_km": 10.87
        },
        {
          "code_insee": "56116",
          "nom": "Locmariaquer",
          "slug": "locmariaquer",
          "code_postal": "56740",
          "population": 1557,
          "superficie_km2": 11.0,
          "latitude": 47.5779991,
          "longitude": -2.9630001,
          "distance_km": 12.27
        },
        {
          "code_insee": "56263",
          "nom": "Sainte-Anne-d'Auray",
          "slug": "sainte-anne-d-auray",
          "code_postal": "56400",
          "population": 2827,
          "superficie_km2": 5.0,
          "latitude": 47.7010002,
          "longitude": -2.9530001,
          "distance_km": 12.32
        },
        {
          "code_insee": "56175",
          "nom": "Plumergat",
          "slug": "plumergat",
          "code_postal": "56400",
          "population": 4179,
          "superficie_km2": 42.0,
          "latitude": 47.7280006,
          "longitude": -2.9230001,
          "distance_km": 12.9
        },
        {
          "code_insee": "56251",
          "nom": "Theix-Noyalo",
          "slug": "theix-noyalo",
          "code_postal": "56450",
          "population": 8403,
          "superficie_km2": 48.0,
          "latitude": 47.6360016,
          "longitude": -2.6470001,
          "distance_km": 13.11
        },
        {
          "code_insee": "56007",
          "nom": "Auray",
          "slug": "auray",
          "code_postal": "56400",
          "population": 14222,
          "superficie_km2": 7.0,
          "latitude": 47.6679993,
          "longitude": -2.99,
          "distance_km": 13.14
        },
        {
          "code_insee": "56240",
          "nom": "Sarzeau",
          "slug": "sarzeau",
          "code_postal": "56370",
          "population": 8977,
          "superficie_km2": 60.0,
          "latitude": 47.5239983,
          "longitude": -2.7509999,
          "distance_km": 13.34
        },
        {
          "code_insee": "56046",
          "nom": "Crach",
          "slug": "crach",
          "code_postal": "56950",
          "population": 3422,
          "superficie_km2": 32.0,
          "latitude": 47.6300011,
          "longitude": -3.0009999,
          "distance_km": 13.42
        },
        {
          "code_insee": "56214",
          "nom": "Saint-Gildas-de-Rhuys",
          "slug": "saint-gildas-de-rhuys",
          "code_postal": "56730",
          "population": 1565,
          "superficie_km2": 15.0,
          "latitude": 47.5130005,
          "longitude": -2.8329999,
          "distance_km": 13.48
        },
        {
          "code_insee": "56231",
          "nom": "Saint-Nolff",
          "slug": "saint-nolff",
          "code_postal": "56250",
          "population": 3901,
          "superficie_km2": 26.0,
          "latitude": 47.6980019,
          "longitude": -2.6659999,
          "distance_km": 13.68
        }
      ],
      "zonage_abc": "B1",
      "reclassement_abc": "Non",
      "codes_postaux": [
        {
          "code_postal": "56610",
          "libelle_acheminement": "ARRADON"
        }
      ],
      "logement": {
        "logements_total": 3577,
        "residences_principales": 2842,
        "logements_vacants": 137,
        "residences_secondaires": 598,
        "maisons": 2677,
        "appartements": 871,
        "proprietaires": 2038,
        "locataires": 777,
        "hlm": 211,
        "construits_avant_1919": 180,
        "construits_1919_1945": 82,
        "construits_1946_1970": 286,
        "construits_1971_1990": 927,
        "construits_1991_2005": 653,
        "construits_2006_2019": 595,
        "chauffage_electrique": 1090,
        "chauffage_fioul": 274,
        "chauffage_gaz_ville": 1163,
        "chauffage_gaz_bouteille": 62,
        "chauffage_autre": 253,
        "menages": 2842,
        "logements_avant_1990": 1475
      },
      "artisans": {
        "monte_escalier": 0,
        "chauffage_pac_clim": 6,
        "isolation": 2,
        "menuiserie": 2,
        "fenetres_velux": 2,
        "couverture_toiture": 3,
        "facade_peinture": 11,
        "portes_volets": 2,
        "piscine": 1,
        "vmc_ventilation": 0,
        "assainissement": 6
      },
      "revenus": {
        "revenu_median": 28870.0,
        "part_menages_imposes": 67.0,
        "taux_pauvrete": 6.0
      },
      "aides_etat": {
        "zone_climatique": "H1",
        "qpv": false,
        "action_coeur_de_ville": false,
        "petites_villes_de_demain": false
      }
    },
    {
      "code_insee": "56004",
      "nom": "Arzal",
      "nom_a": null,
      "nom_de": null,
      "slug": "arzal",
      "code_postal": "56190",
      "population": 1742,
      "superficie_km2": 25.0,
      "latitude": 47.5200005,
      "longitude": -2.405,
      "villes_proches": [
        {
          "code_insee": "56126",
          "nom": "Marzan",
          "slug": "marzan",
          "code_postal": "56130",
          "population": 2539,
          "superficie_km2": 34.0,
          "latitude": 47.5419998,
          "longitude": -2.3540001,
          "distance_km": 4.54
        },
        {
          "code_insee": "56030",
          "nom": "Camoël",
          "slug": "camoel",
          "code_postal": "56130",
          "population": 1122,
          "superficie_km2": 15.0,
          "latitude": 47.4790001,
          "longitude": -2.3989999,
          "distance_km": 4.58
        },
        {
          "code_insee": "56018",
          "nom": "Billiers",
          "slug": "billiers",
          "code_postal": "56190",
          "population": 1047,
          "superficie_km2": 6.0,
          "latitude": 47.5239983,
          "longitude": -2.48,
          "distance_km": 5.65
        },
        {
          "code_insee": "56058",
          "nom": "Férel",
          "slug": "ferel",
          "code_postal": "56130",
          "population": 3404,
          "superficie_km2": 30.0,
          "latitude": 47.4869995,
          "longitude": -2.3399999,
          "distance_km": 6.11
        },
        {
          "code_insee": "56143",
          "nom": "Muzillac",
          "slug": "muzillac",
          "code_postal": "56190",
          "population": 5041,
          "superficie_km2": 38.0,
          "latitude": 47.5550003,
          "longitude": -2.4730001,
          "distance_km": 6.42
        },
        {
          "code_insee": "56155",
          "nom": "Pénestin",
          "slug": "penestin",
          "code_postal": "56760",
          "population": 2028,
          "superficie_km2": 21.0,
          "latitude": 47.4729996,
          "longitude": -2.4649999,
          "distance_km": 6.9
        },
        {
          "code_insee": "56153",
          "nom": "Péaule",
          "slug": "peaule",
          "code_postal": "56130",
          "population": 2782,
          "superficie_km2": 39.0,
          "latitude": 47.5830002,
          "longitude": -2.336,
          "distance_km": 8.71
        },
        {
          "code_insee": "44006",
          "nom": "Assérac",
          "slug": "asserac",
          "code_postal": "44410",
          "population": 1880,
          "superficie_km2": 34.0,
          "latitude": 47.4379997,
          "longitude": -2.4130001,
          "distance_km": 9.14
        },
        {
          "code_insee": "56149",
          "nom": "Noyal-Muzillac",
          "slug": "noyal-muzillac",
          "code_postal": "56190",
          "population": 2516,
          "superficie_km2": 49.0,
          "latitude": 47.5999985,
          "longitude": -2.46,
          "distance_km": 9.81
        },
        {
          "code_insee": "44072",
          "nom": "Herbignac",
          "slug": "herbignac",
          "code_postal": "44410",
          "population": 7133,
          "superficie_km2": 71.0,
          "latitude": 47.4469986,
          "longitude": -2.313,
          "distance_km": 10.66
        },
        {
          "code_insee": "56002",
          "nom": "Ambon",
          "slug": "ambon",
          "code_postal": "56190",
          "population": 2055,
          "superficie_km2": 38.0,
          "latitude": 47.5569992,
          "longitude": -2.5409999,
          "distance_km": 11.01
        },
        {
          "code_insee": "56147",
          "nom": "Nivillac",
          "slug": "nivillac",
          "code_postal": "56130",
          "population": 4810,
          "superficie_km2": 56.0,
          "latitude": 47.5410004,
          "longitude": -2.2490001,
          "distance_km": 11.94
        },
        {
          "code_insee": "56111",
          "nom": "Limerzel",
          "slug": "limerzel",
          "code_postal": "56220",
          "population": 1307,
          "superficie_km2": 25.0,
          "latitude": 47.6360016,
          "longitude": -2.3610001,
          "distance_km": 13.31
        },
        {
          "code_insee": "56052",
          "nom": "Damgan",
          "slug": "damgan",
          "code_postal": "56750",
          "population": 1917,
          "superficie_km2": 12.0,
          "latitude": 47.5229988,
          "longitude": -2.586,
          "distance_km": 13.6
        },
        {
          "code_insee": "44097",
          "nom": "Mesquer",
          "slug": "mesquer",
          "code_postal": "44420",
          "population": 2112,
          "superficie_km2": 17.0,
          "latitude": 47.3959999,
          "longitude": -2.471,
          "distance_km": 14.65
        },
        {
          "code_insee": "44183",
          "nom": "Saint-Molf",
          "slug": "saint-molf",
          "code_postal": "44350",
          "population": 2848,
          "superficie_km2": 23.0,
          "latitude": 47.3880005,
          "longitude": -2.415,
          "distance_km": 14.7
        },
        {
          "code_insee": "44030",
          "nom": "La Chapelle-des-Marais",
          "slug": "la-chapelle-des-marais",
          "code_postal": "44410",
          "population": 4386,
          "superficie_km2": 18.0,
          "latitude": 47.4370003,
          "longitude": -2.2460001,
          "distance_km": 15.1
        },
        {
          "code_insee": "56109",
          "nom": "Lauzach",
          "slug": "lauzach",
          "code_postal": "56190",
          "population": 1199,
          "superficie_km2": 11.0,
          "latitude": 47.6110001,
          "longitude": -2.556,
          "distance_km": 15.19
        },
        {
          "code_insee": "56011",
          "nom": "Béganne",
          "slug": "beganne",
          "code_postal": "56350",
          "population": 1423,
          "superficie_km2": 35.0,
          "latitude": 47.6030006,
          "longitude": -2.244,
          "distance_km": 15.2
        },
        {
          "code_insee": "56028",
          "nom": "Caden",
          "slug": "caden",
          "code_postal": "56220",
          "population": 1579,
          "superficie_km2": 38.0,
          "latitude": 47.6399994,
          "longitude": -2.299,
          "distance_km": 15.53
        }
      ],
      "zonage_abc": "C",
      "reclassement_abc": "Non",
      "codes_postaux": [
        {
          "code_postal": "56190",
          "libelle_acheminement": "ARZAL"
        }
      ],
      "logement": {
        "logements_total": 1239,
        "residences_principales": 821,
        "logements_vacants": 87,
        "residences_secondaires": 329,
        "maisons": 1022,
        "appartements": 164,
        "proprietaires": 558,
        "locataires": 252,
        "hlm": 24,
        "construits_avant_1919": 63,
        "construits_1919_1945": 36,
        "construits_1946_1970": 53,
        "construits_1971_1990": 142,
        "construits_1991_2005": 210,
        "construits_2006_2019": 248,
        "chauffage_electrique": 460,
        "chauffage_fioul": 54,
        "chauffage_gaz_ville": 0,
        "chauffage_gaz_bouteille": 55,
        "chauffage_autre": 250,
        "menages": 821,
        "logements_avant_1990": 294
      },
      "artisans": {
        "monte_escalier": 0,
        "chauffage_pac_clim": 6,
        "isolation": 9,
        "menuiserie": 10,
        "fenetres_velux": 10,
        "couverture_toiture": 6,
        "facade_peinture": 3,
        "portes_volets": 10,
        "piscine": 1,
        "vmc_ventilation": 3,
        "assainissement": 4
      },
      "revenus": {
        "revenu_median": 22310.0,
        "part_menages_imposes": null,
        "taux_pauvrete": null
      },
      "aides_etat": {
        "zone_climatique": "H1",
        "qpv": false,
        "action_coeur_de_ville": false,
        "petites_villes_de_demain": false
      }
    },
    {
      "code_insee": "56005",
      "nom": "Arzon",
      "nom_a": null,
      "nom_de": null,
      "slug": "arzon",
      "code_postal": "56640",
      "population": 2269,
      "superficie_km2": 9.0,
      "latitude": 47.5470009,
      "longitude": -2.888,
      "villes_proches": [
        {
          "code_insee": "56214",
          "nom": "Saint-Gildas-de-Rhuys",
          "slug": "saint-gildas-de-rhuys",
          "code_postal": "56730",
          "population": 1565,
          "superficie_km2": 15.0,
          "latitude": 47.5130005,
          "longitude": -2.8329999,
          "distance_km": 5.6
        },
        {
          "code_insee": "56116",
          "nom": "Locmariaquer",
          "slug": "locmariaquer",
          "code_postal": "56740",
          "population": 1557,
          "superficie_km2": 11.0,
          "latitude": 47.5779991,
          "longitude": -2.9630001,
          "distance_km": 6.6
        },
        {
          "code_insee": "56008",
          "nom": "Baden",
          "slug": "baden",
          "code_postal": "56870",
          "population": 4642,
          "superficie_km2": 23.0,
          "latitude": 47.6150017,
          "longitude": -2.904,
          "distance_km": 7.66
        },
        {
          "code_insee": "56233",
          "nom": "Saint-Philibert",
          "slug": "saint-philibert",
          "code_postal": "56470",
          "population": 1552,
          "superficie_km2": 7.0,
          "latitude": 47.5880013,
          "longitude": -3.0009999,
          "distance_km": 9.63
        },
        {
          "code_insee": "56240",
          "nom": "Sarzeau",
          "slug": "sarzeau",
          "code_postal": "56370",
          "population": 8977,
          "superficie_km2": 60.0,
          "latitude": 47.5239983,
          "longitude": -2.7509999,
          "distance_km": 10.6
        },
        {
          "code_insee": "56262",
          "nom": "Le Bono",
          "slug": "le-bono",
          "code_postal": "56400",
          "population": 2581,
          "superficie_km2": 6.0,
          "latitude": 47.637001,
          "longitude": -2.9400001,
          "distance_km": 10.74
        },
        {
          "code_insee": "56003",
          "nom": "Arradon",
          "slug": "arradon",
          "code_postal": "56610",
          "population": 5685,
          "superficie_km2": 19.0,
          "latitude": 47.6339989,
          "longitude": -2.822,
          "distance_km": 10.87
        },
        {
          "code_insee": "56258",
          "nom": "La Trinité-sur-Mer",
          "slug": "la-trinite-sur-mer",
          "code_postal": "56470",
          "population": 1768,
          "superficie_km2": 6.0,
          "latitude": 47.5909996,
          "longitude": -3.0369999,
          "distance_km": 12.2
        },
        {
          "code_insee": "56046",
          "nom": "Crach",
          "slug": "crach",
          "code_postal": "56950",
          "population": 3422,
          "superficie_km2": 32.0,
          "latitude": 47.6300011,
          "longitude": -3.0009999,
          "distance_km": 12.53
        },
        {
          "code_insee": "56167",
          "nom": "Plougoumelen",
          "slug": "plougoumelen",
          "code_postal": "56400",
          "population": 2605,
          "superficie_km2": 22.0,
          "latitude": 47.6609993,
          "longitude": -2.898,
          "distance_km": 12.7
        },
        {
          "code_insee": "56164",
          "nom": "Ploeren",
          "slug": "ploeren",
          "code_postal": "56880",
          "population": 6699,
          "superficie_km2": 20.0,
          "latitude": 47.6619988,
          "longitude": -2.8429999,
          "distance_km": 13.22
        },
        {
          "code_insee": "56243",
          "nom": "Séné",
          "slug": "sene",
          "code_postal": "56860",
          "population": 8944,
          "superficie_km2": 22.0,
          "latitude": 47.6230011,
          "longitude": -2.724,
          "distance_km": 14.92
        },
        {
          "code_insee": "56176",
          "nom": "Pluneret",
          "slug": "pluneret",
          "code_postal": "56400",
          "population": 6140,
          "superficie_km2": 27.0,
          "latitude": 47.6780014,
          "longitude": -2.9460001,
          "distance_km": 15.2
        },
        {
          "code_insee": "56034",
          "nom": "Carnac",
          "slug": "carnac",
          "code_postal": "56340",
          "population": 4223,
          "superficie_km2": 34.0,
          "latitude": 47.6080017,
          "longitude": -3.0699999,
          "distance_km": 15.24
        },
        {
          "code_insee": "56007",
          "nom": "Auray",
          "slug": "auray",
          "code_postal": "56400",
          "population": 14222,
          "superficie_km2": 7.0,
          "latitude": 47.6679993,
          "longitude": -2.99,
          "distance_km": 15.48
        },
        {
          "code_insee": "56260",
          "nom": "Vannes",
          "slug": "vannes",
          "code_postal": "56000",
          "population": 54420,
          "superficie_km2": 33.0,
          "latitude": 47.6599999,
          "longitude": -2.757,
          "distance_km": 15.95
        },
        {
          "code_insee": "56158",
          "nom": "Plescop",
          "slug": "plescop",
          "code_postal": "56890",
          "population": 6225,
          "superficie_km2": 23.0,
          "latitude": 47.6969986,
          "longitude": -2.8310001,
          "distance_km": 17.22
        },
        {
          "code_insee": "56252",
          "nom": "Le Tour-du-Parc",
          "slug": "le-tour-du-parc",
          "code_postal": "56370",
          "population": 1237,
          "superficie_km2": 10.0,
          "latitude": 47.5289993,
          "longitude": -2.654,
          "distance_km": 17.68
        },
        {
          "code_insee": "56263",
          "nom": "Sainte-Anne-d'Auray",
          "slug": "sainte-anne-d-auray",
          "code_postal": "56400",
          "population": 2827,
          "superficie_km2": 5.0,
          "latitude": 47.7010002,
          "longitude": -2.9530001,
          "distance_km": 17.8
        },
        {
          "code_insee": "56168",
          "nom": "Plouharnel",
          "slug": "plouharnel",
          "code_postal": "56340",
          "population": 2261,
          "superficie_km2": 19.0,
          "latitude": 47.5999985,
          "longitude": -3.1229999,
          "distance_km": 18.59
        }
      ],
      "zonage_abc": "B1",
      "reclassement_abc": "Non",
      "codes_postaux": [
        {
          "code_postal": "56640",
          "libelle_acheminement": "ARZON"
        }
      ],
      "logement": {
        "logements_total": 6533,
        "residences_principales": 1354,
        "logements_vacants": 163,
        "residences_secondaires": 5015,
        "maisons": 3603,
        "appartements": 2864,
        "proprietaires": 976,
        "locataires": 345,
        "hlm": 150,
        "construits_avant_1919": 95,
        "construits_1919_1945": 35,
        "construits_1946_1970": 123,
        "construits_1971_1990": 475,
        "construits_1991_2005": 409,
        "construits_2006_2019": 212,
        "chauffage_electrique": 960,
        "chauffage_fioul": 117,
        "chauffage_gaz_ville": 23,
        "chauffage_gaz_bouteille": 62,
        "chauffage_autre": 190,
        "menages": 1354,
        "logements_avant_1990": 728
      },
      "artisans": {
        "monte_escalier": 0,
        "chauffage_pac_clim": 4,
        "isolation": 1,
        "menuiserie": 1,
        "fenetres_velux": 1,
        "couverture_toiture": 1,
        "facade_peinture": 0,
        "portes_volets": 1,
        "piscine": 2,
        "vmc_ventilation": 0,
        "assainissement": 4
      },
      "revenus": {
        "revenu_median": 26640.0,
        "part_menages_imposes": 62.0,
        "taux_pauvrete": 10.0
      },
      "aides_etat": {
        "zone_climatique": "H1",
        "qpv": false,
        "action_coeur_de_ville": false,
        "petites_villes_de_demain": false
      }
    },
    {
      "code_insee": "56006",
      "nom": "Augan",
      "nom_a": null,
      "nom_de": null,
      "slug": "augan",
      "code_postal": "56800",
      "population": 1513,
      "superficie_km2": 41.0,
      "latitude": 47.9119988,
      "longitude": -2.2679999,
      "villes_proches": [
        {
          "code_insee": "56032",
          "nom": "Campénéac",
          "slug": "campeneac",
          "code_postal": "56800",
          "population": 1891,
          "superficie_km2": 61.0,
          "latitude": 47.9620018,
          "longitude": -2.2780001,
          "distance_km": 5.61
        },
        {
          "code_insee": "56035",
          "nom": "Caro",
          "slug": "caro",
          "code_postal": "56140",
          "population": 1138,
          "superficie_km2": 38.0,
          "latitude": 47.8619995,
          "longitude": -2.3280001,
          "distance_km": 7.14
        },
        {
          "code_insee": "56165",
          "nom": "Ploërmel",
          "slug": "ploermel",
          "code_postal": "56800",
          "population": 9879,
          "superficie_km2": 51.0,
          "latitude": 47.9220009,
          "longitude": -2.3829999,
          "distance_km": 8.64
        },
        {
          "code_insee": "56012",
          "nom": "Beignon",
          "slug": "beignon",
          "code_postal": "56380",
          "population": 1947,
          "superficie_km2": 25.0,
          "latitude": 47.9659996,
          "longitude": -2.1800001,
          "distance_km": 8.89
        },
        {
          "code_insee": "56075",
          "nom": "Guer",
          "slug": "guer",
          "code_postal": "56380",
          "population": 6068,
          "superficie_km2": 52.0,
          "latitude": 47.9070015,
          "longitude": -2.1289999,
          "distance_km": 10.38
        },
        {
          "code_insee": "56200",
          "nom": "Ruffiac",
          "slug": "ruffiac",
          "code_postal": "56140",
          "population": 1370,
          "superficie_km2": 37.0,
          "latitude": 47.8139992,
          "longitude": -2.2850001,
          "distance_km": 10.97
        },
        {
          "code_insee": "56133",
          "nom": "Missiriac",
          "slug": "missiriac",
          "code_postal": "56140",
          "population": 1180,
          "superficie_km2": 13.0,
          "latitude": 47.8240013,
          "longitude": -2.3559999,
          "distance_km": 11.78
        },
        {
          "code_insee": "56122",
          "nom": "Loyat",
          "slug": "loyat",
          "code_postal": "56800",
          "population": 1701,
          "superficie_km2": 42.0,
          "latitude": 47.9920006,
          "longitude": -2.3840001,
          "distance_km": 12.4
        },
        {
          "code_insee": "56145",
          "nom": "Néant-sur-Yvel",
          "slug": "neant-sur-yvel",
          "code_postal": "56430",
          "population": 1094,
          "superficie_km2": 33.0,
          "latitude": 48.0219994,
          "longitude": -2.3329999,
          "distance_km": 13.15
        },
        {
          "code_insee": "56033",
          "nom": "Carentoir",
          "slug": "carentoir",
          "code_postal": "56910",
          "population": 3043,
          "superficie_km2": 59.0,
          "latitude": 47.8199997,
          "longitude": -2.1459999,
          "distance_km": 13.69
        },
        {
          "code_insee": "56249",
          "nom": "Taupont",
          "slug": "taupont",
          "code_postal": "56800",
          "population": 2330,
          "superficie_km2": 31.0,
          "latitude": 47.9620018,
          "longitude": -2.4430001,
          "distance_km": 14.17
        },
        {
          "code_insee": "56124",
          "nom": "Malestroit",
          "slug": "malestroit",
          "code_postal": "56140",
          "population": 2509,
          "superficie_km2": 6.0,
          "latitude": 47.8079987,
          "longitude": -2.3870001,
          "distance_km": 14.58
        },
        {
          "code_insee": "56197",
          "nom": "Val d'Oust",
          "slug": "val-d-oust",
          "code_postal": "56460",
          "population": 2790,
          "superficie_km2": 10.0,
          "latitude": 47.8689995,
          "longitude": -2.4560001,
          "distance_km": 14.81
        },
        {
          "code_insee": "35211",
          "nom": "Paimpont",
          "slug": "paimpont",
          "code_postal": "35380",
          "population": 1781,
          "superficie_km2": 110.0,
          "latitude": 48.0299988,
          "longitude": -2.1730001,
          "distance_km": 14.91
        },
        {
          "code_insee": "56228",
          "nom": "Saint-Marcel",
          "slug": "saint-marcel",
          "code_postal": "56140",
          "population": 1127,
          "superficie_km2": 13.0,
          "latitude": 47.8110008,
          "longitude": -2.4159999,
          "distance_km": 15.75
        },
        {
          "code_insee": "56079",
          "nom": "Guillac",
          "slug": "guillac",
          "code_postal": "56800",
          "population": 1383,
          "superficie_km2": 22.0,
          "latitude": 47.9239998,
          "longitude": -2.48,
          "distance_km": 15.85
        },
        {
          "code_insee": "56229",
          "nom": "Saint-Martin-sur-Oust",
          "slug": "saint-martin-sur-oust",
          "code_postal": "56200",
          "population": 1298,
          "superficie_km2": 28.0,
          "latitude": 47.7630005,
          "longitude": -2.2639999,
          "distance_km": 16.57
        },
        {
          "code_insee": "35223",
          "nom": "Plélan-le-Grand",
          "slug": "plelan-le-grand",
          "code_postal": "35380",
          "population": 4048,
          "superficie_km2": 50.0,
          "latitude": 47.9970017,
          "longitude": -2.0799999,
          "distance_km": 16.89
        },
        {
          "code_insee": "56061",
          "nom": "La Gacilly",
          "slug": "la-gacilly",
          "code_postal": "56200",
          "population": 3993,
          "superficie_km2": 17.0,
          "latitude": 47.7729988,
          "longitude": -2.1559999,
          "distance_km": 17.57
        },
        {
          "code_insee": "56159",
          "nom": "Pleucadeuc",
          "slug": "pleucadeuc",
          "code_postal": "56140",
          "population": 1835,
          "superficie_km2": 35.0,
          "latitude": 47.7700005,
          "longitude": -2.3870001,
          "distance_km": 18.12
        }
      ],
      "zonage_abc": "C",
      "reclassement_abc": "Non",
      "codes_postaux": [
        {
          "code_postal": "56800",
          "libelle_acheminement": "AUGAN"
        }
      ],
      "logement": {
        "logements_total": 861,
        "residences_principales": 703,
        "logements_vacants": 105,
        "residences_secondaires": 52,
        "maisons": 825,
        "appartements": 30,
        "proprietaires": 510,
        "locataires": 176,
        "hlm": 25,
        "construits_avant_1919": 92,
        "construits_1919_1945": 46,
        "construits_1946_1970": 101,
        "construits_1971_1990": 186,
        "construits_1991_2005": 115,
        "construits_2006_2019": 131,
        "chauffage_electrique": 315,
        "chauffage_fioul": 93,
        "chauffage_gaz_ville": 1,
        "chauffage_gaz_bouteille": 23,
        "chauffage_autre": 269,
        "menages": 703,
        "logements_avant_1990": 425
      },
      "artisans": {
        "monte_escalier": 0,
        "chauffage_pac_clim": 0,
        "isolation": 4,
        "menuiserie": 3,
        "fenetres_velux": 3,
        "couverture_toiture": 3,
        "facade_peinture": 3,
        "portes_volets": 3,
        "piscine": 1,
        "vmc_ventilation": 0,
        "assainissement": 1
      },
      "revenus": {
        "revenu_median": 20470.0,
        "part_menages_imposes": null,
        "taux_pauvrete": null
      },
      "aides_etat": {
        "zone_climatique": "H1",
        "qpv": false,
        "action_coeur_de_ville": false,
        "petites_villes_de_demain": false
      }
    },
    {
      "code_insee": "56007",
      "nom": "Auray",
      "nom_a": null,
      "nom_de": null,
      "slug": "auray",
      "code_postal": "56400",
      "population": 14222,
      "superficie_km2": 7.0,
      "latitude": 47.6679993,
      "longitude": -2.99,
      "villes_proches": [
        {
          "code_insee": "56176",
          "nom": "Pluneret",
          "slug": "pluneret",
          "code_postal": "56400",
          "population": 6140,
          "superficie_km2": 27.0,
          "latitude": 47.6780014,
          "longitude": -2.9460001,
          "distance_km": 3.48
        },
        {
          "code_insee": "56046",
          "nom": "Crach",
          "slug": "crach",
          "code_postal": "56950",
          "population": 3422,
          "superficie_km2": 32.0,
          "latitude": 47.6300011,
          "longitude": -3.0009999,
          "distance_km": 4.3
        },
        {
          "code_insee": "56263",
          "nom": "Sainte-Anne-d'Auray",
          "slug": "sainte-anne-d-auray",
          "code_postal": "56400",
          "population": 2827,
          "superficie_km2": 5.0,
          "latitude": 47.7010002,
          "longitude": -2.9530001,
          "distance_km": 4.6
        },
        {
          "code_insee": "56262",
          "nom": "Le Bono",
          "slug": "le-bono",
          "code_postal": "56400",
          "population": 2581,
          "superficie_km2": 6.0,
          "latitude": 47.637001,
          "longitude": -2.9400001,
          "distance_km": 5.09
        },
        {
          "code_insee": "56023",
          "nom": "Brech",
          "slug": "brech",
          "code_postal": "56400",
          "population": 6924,
          "superficie_km2": 40.0,
          "latitude": 47.7089996,
          "longitude": -3.0239999,
          "distance_km": 5.22
        },
        {
          "code_insee": "56161",
          "nom": "Ploemel",
          "slug": "ploemel",
          "code_postal": "56400",
          "population": 3056,
          "superficie_km2": 25.0,
          "latitude": 47.6599999,
          "longitude": -3.072,
          "distance_km": 6.2
        },
        {
          "code_insee": "56167",
          "nom": "Plougoumelen",
          "slug": "plougoumelen",
          "code_postal": "56400",
          "population": 2605,
          "superficie_km2": 22.0,
          "latitude": 47.6609993,
          "longitude": -2.898,
          "distance_km": 6.93
        },
        {
          "code_insee": "56175",
          "nom": "Plumergat",
          "slug": "plumergat",
          "code_postal": "56400",
          "population": 4179,
          "superficie_km2": 42.0,
          "latitude": 47.7280006,
          "longitude": -2.9230001,
          "distance_km": 8.35
        },
        {
          "code_insee": "56008",
          "nom": "Baden",
          "slug": "baden",
          "code_postal": "56870",
          "population": 4642,
          "superficie_km2": 23.0,
          "latitude": 47.6150017,
          "longitude": -2.904,
          "distance_km": 8.73
        },
        {
          "code_insee": "56233",
          "nom": "Saint-Philibert",
          "slug": "saint-philibert",
          "code_postal": "56470",
          "population": 1552,
          "superficie_km2": 7.0,
          "latitude": 47.5880013,
          "longitude": -3.0009999,
          "distance_km": 8.93
        },
        {
          "code_insee": "56034",
          "nom": "Carnac",
          "slug": "carnac",
          "code_postal": "56340",
          "population": 4223,
          "superficie_km2": 34.0,
          "latitude": 47.6080017,
          "longitude": -3.0699999,
          "distance_km": 8.97
        },
        {
          "code_insee": "56258",
          "nom": "La Trinité-sur-Mer",
          "slug": "la-trinite-sur-mer",
          "code_postal": "56470",
          "population": 1768,
          "superficie_km2": 6.0,
          "latitude": 47.5909996,
          "longitude": -3.0369999,
          "distance_km": 9.26
        },
        {
          "code_insee": "56119",
          "nom": "Locoal-Mendon",
          "slug": "locoal-mendon",
          "code_postal": "56550",
          "population": 3507,
          "superficie_km2": 45.0,
          "latitude": 47.7019997,
          "longitude": -3.1099999,
          "distance_km": 9.75
        },
        {
          "code_insee": "56116",
          "nom": "Locmariaquer",
          "slug": "locmariaquer",
          "code_postal": "56740",
          "population": 1557,
          "superficie_km2": 11.0,
          "latitude": 47.5779991,
          "longitude": -2.9630001,
          "distance_km": 10.21
        },
        {
          "code_insee": "56164",
          "nom": "Ploeren",
          "slug": "ploeren",
          "code_postal": "56880",
          "population": 6699,
          "superficie_km2": 20.0,
          "latitude": 47.6619988,
          "longitude": -2.8429999,
          "distance_km": 11.03
        },
        {
          "code_insee": "56096",
          "nom": "Landaul",
          "slug": "landaul",
          "code_postal": "56690",
          "population": 2458,
          "superficie_km2": 18.0,
          "latitude": 47.7420006,
          "longitude": -3.099,
          "distance_km": 11.59
        },
        {
          "code_insee": "56158",
          "nom": "Plescop",
          "slug": "plescop",
          "code_postal": "56890",
          "population": 6225,
          "superficie_km2": 23.0,
          "latitude": 47.6969986,
          "longitude": -2.8310001,
          "distance_km": 12.33
        },
        {
          "code_insee": "56168",
          "nom": "Plouharnel",
          "slug": "plouharnel",
          "code_postal": "56340",
          "population": 2261,
          "superficie_km2": 19.0,
          "latitude": 47.5999985,
          "longitude": -3.1229999,
          "distance_km": 12.51
        },
        {
          "code_insee": "56177",
          "nom": "Pluvigner",
          "slug": "pluvigner",
          "code_postal": "56330",
          "population": 7651,
          "superficie_km2": 83.0,
          "latitude": 47.7820015,
          "longitude": -3.016,
          "distance_km": 12.82
        },
        {
          "code_insee": "56013",
          "nom": "Belz",
          "slug": "belz",
          "code_postal": "56550",
          "population": 3834,
          "superficie_km2": 16.0,
          "latitude": 47.6720009,
          "longitude": -3.1619999,
          "distance_km": 12.89
        }
      ],
      "zonage_abc": "B1",
      "reclassement_abc": "Non",
      "codes_postaux": [
        {
          "code_postal": "56400",
          "libelle_acheminement": "AURAY"
        }
      ],
      "logement": {
        "logements_total": 9113,
        "residences_principales": 7925,
        "logements_vacants": 561,
        "residences_secondaires": 626,
        "maisons": 3502,
        "appartements": 5474,
        "proprietaires": 3706,
        "locataires": 4132,
        "hlm": 1500,
        "construits_avant_1919": 319,
        "construits_1919_1945": 514,
        "construits_1946_1970": 1035,
        "construits_1971_1990": 2203,
        "construits_1991_2005": 1547,
        "construits_2006_2019": 2252,
        "chauffage_electrique": 3462,
        "chauffage_fioul": 205,
        "chauffage_gaz_ville": 3867,
        "chauffage_gaz_bouteille": 22,
        "chauffage_autre": 367,
        "menages": 7925,
        "logements_avant_1990": 4071
      },
      "artisans": {
        "monte_escalier": 0,
        "chauffage_pac_clim": 20,
        "isolation": 52,
        "menuiserie": 25,
        "fenetres_velux": 25,
        "couverture_toiture": 14,
        "facade_peinture": 19,
        "portes_volets": 25,
        "piscine": 4,
        "vmc_ventilation": 6,
        "assainissement": 15
      },
      "revenus": {
        "revenu_median": 21750.0,
        "part_menages_imposes": 46.0,
        "taux_pauvrete": 15.0
      },
      "aides_etat": {
        "zone_climatique": "H1",
        "qpv": true,
        "action_coeur_de_ville": false,
        "petites_villes_de_demain": true
      }
    },
    {
      "code_insee": "56008",
      "nom": "Baden",
      "nom_a": null,
      "nom_de": null,
      "slug": "baden",
      "code_postal": "56870",
      "population": 4642,
      "superficie_km2": 23.0,
      "latitude": 47.6150017,
      "longitude": -2.904,
      "villes_proches": [
        {
          "code_insee": "56262",
          "nom": "Le Bono",
          "slug": "le-bono",
          "code_postal": "56400",
          "population": 2581,
          "superficie_km2": 6.0,
          "latitude": 47.637001,
          "longitude": -2.9400001,
          "distance_km": 3.64
        },
        {
          "code_insee": "56167",
          "nom": "Plougoumelen",
          "slug": "plougoumelen",
          "code_postal": "56400",
          "population": 2605,
          "superficie_km2": 22.0,
          "latitude": 47.6609993,
          "longitude": -2.898,
          "distance_km": 5.13
        },
        {
          "code_insee": "56116",
          "nom": "Locmariaquer",
          "slug": "locmariaquer",
          "code_postal": "56740",
          "population": 1557,
          "superficie_km2": 11.0,
          "latitude": 47.5779991,
          "longitude": -2.9630001,
          "distance_km": 6.04
        },
        {
          "code_insee": "56003",
          "nom": "Arradon",
          "slug": "arradon",
          "code_postal": "56610",
          "population": 5685,
          "superficie_km2": 19.0,
          "latitude": 47.6339989,
          "longitude": -2.822,
          "distance_km": 6.5
        },
        {
          "code_insee": "56164",
          "nom": "Ploeren",
          "slug": "ploeren",
          "code_postal": "56880",
          "population": 6699,
          "superficie_km2": 20.0,
          "latitude": 47.6619988,
          "longitude": -2.8429999,
          "distance_km": 6.94
        },
        {
          "code_insee": "56046",
          "nom": "Crach",
          "slug": "crach",
          "code_postal": "56950",
          "population": 3422,
          "superficie_km2": 32.0,
          "latitude": 47.6300011,
          "longitude": -3.0009999,
          "distance_km": 7.46
        },
        {
          "code_insee": "56005",
          "nom": "Arzon",
          "slug": "arzon",
          "code_postal": "56640",
          "population": 2269,
          "superficie_km2": 9.0,
          "latitude": 47.5470009,
          "longitude": -2.888,
          "distance_km": 7.66
        },
        {
          "code_insee": "56176",
          "nom": "Pluneret",
          "slug": "pluneret",
          "code_postal": "56400",
          "population": 6140,
          "superficie_km2": 27.0,
          "latitude": 47.6780014,
          "longitude": -2.9460001,
          "distance_km": 7.68
        },
        {
          "code_insee": "56233",
          "nom": "Saint-Philibert",
          "slug": "saint-philibert",
          "code_postal": "56470",
          "population": 1552,
          "superficie_km2": 7.0,
          "latitude": 47.5880013,
          "longitude": -3.0009999,
          "distance_km": 7.87
        },
        {
          "code_insee": "56007",
          "nom": "Auray",
          "slug": "auray",
          "code_postal": "56400",
          "population": 14222,
          "superficie_km2": 7.0,
          "latitude": 47.6679993,
          "longitude": -2.99,
          "distance_km": 8.73
        },
        {
          "code_insee": "56263",
          "nom": "Sainte-Anne-d'Auray",
          "slug": "sainte-anne-d-auray",
          "code_postal": "56400",
          "population": 2827,
          "superficie_km2": 5.0,
          "latitude": 47.7010002,
          "longitude": -2.9530001,
          "distance_km": 10.24
        },
        {
          "code_insee": "56258",
          "nom": "La Trinité-sur-Mer",
          "slug": "la-trinite-sur-mer",
          "code_postal": "56470",
          "population": 1768,
          "superficie_km2": 6.0,
          "latitude": 47.5909996,
          "longitude": -3.0369999,
          "distance_km": 10.32
        },
        {
          "code_insee": "56158",
          "nom": "Plescop",
          "slug": "plescop",
          "code_postal": "56890",
          "population": 6225,
          "superficie_km2": 23.0,
          "latitude": 47.6969986,
          "longitude": -2.8310001,
          "distance_km": 10.63
        },
        {
          "code_insee": "56260",
          "nom": "Vannes",
          "slug": "vannes",
          "code_postal": "56000",
          "population": 54420,
          "superficie_km2": 33.0,
          "latitude": 47.6599999,
          "longitude": -2.757,
          "distance_km": 12.1
        },
        {
          "code_insee": "56034",
          "nom": "Carnac",
          "slug": "carnac",
          "code_postal": "56340",
          "population": 4223,
          "superficie_km2": 34.0,
          "latitude": 47.6080017,
          "longitude": -3.0699999,
          "distance_km": 12.47
        },
        {
          "code_insee": "56214",
          "nom": "Saint-Gildas-de-Rhuys",
          "slug": "saint-gildas-de-rhuys",
          "code_postal": "56730",
          "population": 1565,
          "superficie_km2": 15.0,
          "latitude": 47.5130005,
          "longitude": -2.8329999,
          "distance_km": 12.53
        },
        {
          "code_insee": "56175",
          "nom": "Plumergat",
          "slug": "plumergat",
          "code_postal": "56400",
          "population": 4179,
          "superficie_km2": 42.0,
          "latitude": 47.7280006,
          "longitude": -2.9230001,
          "distance_km": 12.65
        },
        {
          "code_insee": "56243",
          "nom": "Séné",
          "slug": "sene",
          "code_postal": "56860",
          "population": 8944,
          "superficie_km2": 22.0,
          "latitude": 47.6230011,
          "longitude": -2.724,
          "distance_km": 13.52
        },
        {
          "code_insee": "56161",
          "nom": "Ploemel",
          "slug": "ploemel",
          "code_postal": "56400",
          "population": 3056,
          "superficie_km2": 25.0,
          "latitude": 47.6599999,
          "longitude": -3.072,
          "distance_km": 13.55
        },
        {
          "code_insee": "56023",
          "nom": "Brech",
          "slug": "brech",
          "code_postal": "56400",
          "population": 6924,
          "superficie_km2": 40.0,
          "latitude": 47.7089996,
          "longitude": -3.0239999,
          "distance_km": 13.78
        }
      ],
      "zonage_abc": "B1",
      "reclassement_abc": "Non",
      "codes_postaux": [
        {
          "code_postal": "56870",
          "libelle_acheminement": "BADEN"
        }
      ],
      "logement": {
        "logements_total": 3355,
        "residences_principales": 2334,
        "logements_vacants": 181,
        "residences_secondaires": 839,
        "maisons": 2924,
        "appartements": 425,
        "proprietaires": 1767,
        "locataires": 529,
        "hlm": 205,
        "construits_avant_1919": 138,
        "construits_1919_1945": 58,
        "construits_1946_1970": 143,
        "construits_1971_1990": 529,
        "construits_1991_2005": 651,
        "construits_2006_2019": 651,
        "chauffage_electrique": 1286,
        "chauffage_fioul": 271,
        "chauffage_gaz_ville": 66,
        "chauffage_gaz_bouteille": 136,
        "chauffage_autre": 573,
        "menages": 2334,
        "logements_avant_1990": 868
      },
      "artisans": {
        "monte_escalier": 1,
        "chauffage_pac_clim": 7,
        "isolation": 5,
        "menuiserie": 13,
        "fenetres_velux": 13,
        "couverture_toiture": 4,
        "facade_peinture": 3,
        "portes_volets": 13,
        "piscine": 2,
        "vmc_ventilation": 4,
        "assainissement": 4
      },
      "revenus": {
        "revenu_median": 26950.0,
        "part_menages_imposes": 63.0,
        "taux_pauvrete": 7.0
      },
      "aides_etat": {
        "zone_climatique": "H1",
        "qpv": false,
        "action_coeur_de_ville": false,
        "petites_villes_de_demain": false
      }
    },
    {
      "code_insee": "56009",
      "nom": "Bangor",
      "nom_a": null,
      "nom_de": null,
      "slug": "bangor",
      "code_postal": "56360",
      "population": 1010,
      "superficie_km2": 26.0,
      "latitude": 47.3129997,
      "longitude": -3.1919999,
      "villes_proches": [
        {
          "code_insee": "56152",
          "nom": "Le Palais",
          "slug": "le-palais",
          "code_postal": "56360",
          "population": 2552,
          "superficie_km2": 18.0,
          "latitude": 47.3429985,
          "longitude": -3.171,
          "distance_km": 3.69
        },
        {
          "code_insee": "56241",
          "nom": "Sauzon",
          "slug": "sauzon",
          "code_postal": "56360",
          "population": 1027,
          "superficie_km2": 23.0,
          "latitude": 47.3540001,
          "longitude": -3.23,
          "distance_km": 5.38
        },
        {
          "code_insee": "56186",
          "nom": "Quiberon",
          "slug": "quiberon",
          "code_postal": "56170",
          "population": 4688,
          "superficie_km2": 9.0,
          "latitude": 47.487999,
          "longitude": -3.1229999,
          "distance_km": 20.14
        },
        {
          "code_insee": "56234",
          "nom": "Saint-Pierre-Quiberon",
          "slug": "saint-pierre-quiberon",
          "code_postal": "56510",
          "population": 2236,
          "superficie_km2": 8.0,
          "latitude": 47.5229988,
          "longitude": -3.138,
          "distance_km": 23.7
        },
        {
          "code_insee": "56168",
          "nom": "Plouharnel",
          "slug": "plouharnel",
          "code_postal": "56340",
          "population": 2261,
          "superficie_km2": 19.0,
          "latitude": 47.5999985,
          "longitude": -3.1229999,
          "distance_km": 32.33
        },
        {
          "code_insee": "56258",
          "nom": "La Trinité-sur-Mer",
          "slug": "la-trinite-sur-mer",
          "code_postal": "56470",
          "population": 1768,
          "superficie_km2": 6.0,
          "latitude": 47.5909996,
          "longitude": -3.0369999,
          "distance_km": 33.04
        },
        {
          "code_insee": "56233",
          "nom": "Saint-Philibert",
          "slug": "saint-philibert",
          "code_postal": "56470",
          "population": 1552,
          "superficie_km2": 7.0,
          "latitude": 47.5880013,
          "longitude": -3.0009999,
          "distance_km": 33.78
        },
        {
          "code_insee": "56034",
          "nom": "Carnac",
          "slug": "carnac",
          "code_postal": "56340",
          "population": 4223,
          "superficie_km2": 34.0,
          "latitude": 47.6080017,
          "longitude": -3.0699999,
          "distance_km": 34.06
        },
        {
          "code_insee": "56116",
          "nom": "Locmariaquer",
          "slug": "locmariaquer",
          "code_postal": "56740",
          "population": 1557,
          "superficie_km2": 11.0,
          "latitude": 47.5779991,
          "longitude": -2.9630001,
          "distance_km": 34.13
        },
        {
          "code_insee": "56005",
          "nom": "Arzon",
          "slug": "arzon",
          "code_postal": "56640",
          "population": 2269,
          "superficie_km2": 9.0,
          "latitude": 47.5470009,
          "longitude": -2.888,
          "distance_km": 34.64
        },
        {
          "code_insee": "56214",
          "nom": "Saint-Gildas-de-Rhuys",
          "slug": "saint-gildas-de-rhuys",
          "code_postal": "56730",
          "population": 1565,
          "superficie_km2": 15.0,
          "latitude": 47.5130005,
          "longitude": -2.8329999,
          "distance_km": 34.99
        },
        {
          "code_insee": "56054",
          "nom": "Erdeven",
          "slug": "erdeven",
          "code_postal": "56410",
          "population": 3974,
          "superficie_km2": 31.0,
          "latitude": 47.637001,
          "longitude": -3.1559999,
          "distance_km": 36.13
        },
        {
          "code_insee": "56046",
          "nom": "Crach",
          "slug": "crach",
          "code_postal": "56950",
          "population": 3422,
          "superficie_km2": 32.0,
          "latitude": 47.6300011,
          "longitude": -3.0009999,
          "distance_km": 38.06
        },
        {
          "code_insee": "56055",
          "nom": "Étel",
          "slug": "etel",
          "code_postal": "56410",
          "population": 2055,
          "superficie_km2": 2.0,
          "latitude": 47.6570015,
          "longitude": -3.198,
          "distance_km": 38.25
        },
        {
          "code_insee": "56161",
          "nom": "Ploemel",
          "slug": "ploemel",
          "code_postal": "56400",
          "population": 3056,
          "superficie_km2": 25.0,
          "latitude": 47.6599999,
          "longitude": -3.072,
          "distance_km": 39.62
        },
        {
          "code_insee": "56008",
          "nom": "Baden",
          "slug": "baden",
          "code_postal": "56870",
          "population": 4642,
          "superficie_km2": 23.0,
          "latitude": 47.6150017,
          "longitude": -2.904,
          "distance_km": 39.96
        },
        {
          "code_insee": "56013",
          "nom": "Belz",
          "slug": "belz",
          "code_postal": "56550",
          "population": 3834,
          "superficie_km2": 16.0,
          "latitude": 47.6720009,
          "longitude": -3.1619999,
          "distance_km": 39.98
        },
        {
          "code_insee": "56240",
          "nom": "Sarzeau",
          "slug": "sarzeau",
          "code_postal": "56370",
          "population": 8977,
          "superficie_km2": 60.0,
          "latitude": 47.5239983,
          "longitude": -2.7509999,
          "distance_km": 40.64
        },
        {
          "code_insee": "56262",
          "nom": "Le Bono",
          "slug": "le-bono",
          "code_postal": "56400",
          "population": 2581,
          "superficie_km2": 6.0,
          "latitude": 47.637001,
          "longitude": -2.9400001,
          "distance_km": 40.7
        },
        {
          "code_insee": "56069",
          "nom": "Groix",
          "slug": "groix",
          "code_postal": "56590",
          "population": 2282,
          "superficie_km2": 15.0,
          "latitude": 47.637001,
          "longitude": -3.464,
          "distance_km": 41.42
        }
      ],
      "zonage_abc": "B1",
      "reclassement_abc": "Non",
      "codes_postaux": [
        {
          "code_postal": "56360",
          "libelle_acheminement": "BANGOR"
        }
      ],
      "logement": {
        "logements_total": 1364,
        "residences_principales": 491,
        "logements_vacants": 18,
        "residences_secondaires": 854,
        "maisons": 1323,
        "appartements": 34,
        "proprietaires": 374,
        "locataires": 94,
        "hlm": 31,
        "construits_avant_1919": 60,
        "construits_1919_1945": 11,
        "construits_1946_1970": 38,
        "construits_1971_1990": 112,
        "construits_1991_2005": 148,
        "construits_2006_2019": 111,
        "chauffage_electrique": 262,
        "chauffage_fioul": 17,
        "chauffage_gaz_ville": 0,
        "chauffage_gaz_bouteille": 0,
        "chauffage_autre": 211,
        "menages": 491,
        "logements_avant_1990": 221
      },
      "artisans": {
        "monte_escalier": 0,
        "chauffage_pac_clim": 2,
        "isolation": 4,
        "menuiserie": 5,
        "fenetres_velux": 5,
        "couverture_toiture": 5,
        "facade_peinture": 2,
        "portes_volets": 5,
        "piscine": 0,
        "vmc_ventilation": 0,
        "assainissement": 2
      },
      "revenus": {
        "revenu_median": 22710.0,
        "part_menages_imposes": null,
        "taux_pauvrete": null
      },
      "aides_etat": {
        "zone_climatique": "H1",
        "qpv": false,
        "action_coeur_de_ville": false,
        "petites_villes_de_demain": false
      }
    },
    {
      "code_insee": "56010",
      "nom": "Baud",
      "nom_a": null,
      "nom_de": null,
      "slug": "baud",
      "code_postal": "56150",
      "population": 6228,
      "superficie_km2": 49.0,
      "latitude": 47.875,
      "longitude": -3.0309999,
      "villes_proches": [
        {
          "code_insee": "56031",
          "nom": "Camors",
          "slug": "camors",
          "code_postal": "56330",
          "population": 3099,
          "superficie_km2": 37.0,
          "latitude": 47.8300018,
          "longitude": -3.0,
          "distance_km": 5.51
        },
        {
          "code_insee": "56207",
          "nom": "Saint-Barthélemy",
          "slug": "saint-barthelemy",
          "code_postal": "56150",
          "population": 1168,
          "superficie_km2": 22.0,
          "latitude": 47.9259987,
          "longitude": -3.0409999,
          "distance_km": 5.72
        },
        {
          "code_insee": "56074",
          "nom": "Guénin",
          "slug": "guenin",
          "code_postal": "56150",
          "population": 1856,
          "superficie_km2": 29.0,
          "latitude": 47.9059982,
          "longitude": -2.967,
          "distance_km": 5.89
        },
        {
          "code_insee": "56188",
          "nom": "Quistinic",
          "slug": "quistinic",
          "code_postal": "56310",
          "population": 1421,
          "superficie_km2": 43.0,
          "latitude": 47.9090004,
          "longitude": -3.128,
          "distance_km": 8.16
        },
        {
          "code_insee": "56101",
          "nom": "Languidic",
          "slug": "languidic",
          "code_postal": "56440",
          "population": 8047,
          "superficie_km2": 105.0,
          "latitude": 47.8370018,
          "longitude": -3.148,
          "distance_km": 9.7
        },
        {
          "code_insee": "56177",
          "nom": "Pluvigner",
          "slug": "pluvigner",
          "code_postal": "56330",
          "population": 7651,
          "superficie_km2": 83.0,
          "latitude": 47.7820015,
          "longitude": -3.016,
          "distance_km": 10.4
        },
        {
          "code_insee": "56173",
          "nom": "Pluméliau-Bieuzy",
          "slug": "plumeliau-bieuzy",
          "code_postal": "56310",
          "population": 4438,
          "superficie_km2": 69.0,
          "latitude": 47.9650002,
          "longitude": -2.9809999,
          "distance_km": 10.68
        },
        {
          "code_insee": "56174",
          "nom": "Plumelin",
          "slug": "plumelin",
          "code_postal": "56500",
          "population": 2796,
          "superficie_km2": 31.0,
          "latitude": 47.882,
          "longitude": -2.888,
          "distance_km": 10.69
        },
        {
          "code_insee": "56128",
          "nom": "Melrand",
          "slug": "melrand",
          "code_postal": "56310",
          "population": 1519,
          "superficie_km2": 41.0,
          "latitude": 47.9749985,
          "longitude": -3.0999999,
          "distance_km": 12.25
        },
        {
          "code_insee": "56022",
          "nom": "Brandivy",
          "slug": "brandivy",
          "code_postal": "56390",
          "population": 1382,
          "superficie_km2": 26.0,
          "latitude": 47.7840004,
          "longitude": -2.9219999,
          "distance_km": 12.98
        },
        {
          "code_insee": "56097",
          "nom": "Landévant",
          "slug": "landevant",
          "code_postal": "56690",
          "population": 4044,
          "superficie_km2": 23.0,
          "latitude": 47.7709999,
          "longitude": -3.1140001,
          "distance_km": 13.12
        },
        {
          "code_insee": "56141",
          "nom": "Moustoir-Ac",
          "slug": "moustoir-ac",
          "code_postal": "56500",
          "population": 1714,
          "superficie_km2": 34.0,
          "latitude": 47.8429985,
          "longitude": -2.858,
          "distance_km": 13.39
        },
        {
          "code_insee": "56117",
          "nom": "Locminé",
          "slug": "locmine",
          "code_postal": "56500",
          "population": 4626,
          "superficie_km2": 5.0,
          "latitude": 47.8800011,
          "longitude": -2.8380001,
          "distance_km": 14.4
        },
        {
          "code_insee": "56026",
          "nom": "Bubry",
          "slug": "bubry",
          "code_postal": "56310",
          "population": 2273,
          "superficie_km2": 69.0,
          "latitude": 47.9690018,
          "longitude": -3.1760001,
          "distance_km": 15.03
        },
        {
          "code_insee": "56021",
          "nom": "Brandérion",
          "slug": "branderion",
          "code_postal": "56700",
          "population": 1473,
          "superficie_km2": 6.0,
          "latitude": 47.7919998,
          "longitude": -3.1930001,
          "distance_km": 15.21
        },
        {
          "code_insee": "56096",
          "nom": "Landaul",
          "slug": "landaul",
          "code_postal": "56690",
          "population": 2458,
          "superficie_km2": 18.0,
          "latitude": 47.7420006,
          "longitude": -3.099,
          "distance_km": 15.64
        },
        {
          "code_insee": "56090",
          "nom": "Inzinzac-Lochrist",
          "slug": "inzinzac-lochrist",
          "code_postal": "56650",
          "population": 6571,
          "superficie_km2": 45.0,
          "latitude": 47.855999,
          "longitude": -3.2520001,
          "distance_km": 16.62
        },
        {
          "code_insee": "56237",
          "nom": "Saint-Thuriau",
          "slug": "saint-thuriau",
          "code_postal": "56300",
          "population": 1875,
          "superficie_km2": 22.0,
          "latitude": 48.0159988,
          "longitude": -2.9430001,
          "distance_km": 16.99
        },
        {
          "code_insee": "56148",
          "nom": "Nostang",
          "slug": "nostang",
          "code_postal": "56690",
          "population": 1626,
          "superficie_km2": 17.0,
          "latitude": 47.7550011,
          "longitude": -3.175,
          "distance_km": 17.14
        },
        {
          "code_insee": "56042",
          "nom": "Colpo",
          "slug": "colpo",
          "code_postal": "56390",
          "population": 2237,
          "superficie_km2": 27.0,
          "latitude": 47.8160019,
          "longitude": -2.8069999,
          "distance_km": 17.96
        }
      ],
      "zonage_abc": "C",
      "reclassement_abc": "Non",
      "codes_postaux": [
        {
          "code_postal": "56150",
          "libelle_acheminement": "BAUD"
        }
      ],
      "logement": {
        "logements_total": 3355,
        "residences_principales": 2849,
        "logements_vacants": 328,
        "residences_secondaires": 177,
        "maisons": 2826,
        "appartements": 522,
        "proprietaires": 2111,
        "locataires": 699,
        "hlm": 61,
        "construits_avant_1919": 220,
        "construits_1919_1945": 193,
        "construits_1946_1970": 599,
        "construits_1971_1990": 713,
        "construits_1991_2005": 571,
        "construits_2006_2019": 550,
        "chauffage_electrique": 1066,
        "chauffage_fioul": 583,
        "chauffage_gaz_ville": 560,
        "chauffage_gaz_bouteille": 36,
        "chauffage_autre": 602,
        "menages": 2849,
        "logements_avant_1990": 1725
      },
      "artisans": {
        "monte_escalier": 0,
        "chauffage_pac_clim": 9,
        "isolation": 18,
        "menuiserie": 9,
        "fenetres_velux": 9,
        "couverture_toiture": 17,
        "facade_peinture": 11,
        "portes_volets": 9,
        "piscine": 4,
        "vmc_ventilation": 3,
        "assainissement": 9
      },
      "revenus": {
        "revenu_median": 22010.0,
        "part_menages_imposes": 44.0,
        "taux_pauvrete": 9.0
      },
      "aides_etat": {
        "zone_climatique": "H1",
        "qpv": false,
        "action_coeur_de_ville": false,
        "petites_villes_de_demain": true
      }
    },
    {
      "code_insee": "56012",
      "nom": "Beignon",
      "nom_a": null,
      "nom_de": null,
      "slug": "beignon",
      "code_postal": "56380",
      "population": 1947,
      "superficie_km2": 25.0,
      "latitude": 47.9659996,
      "longitude": -2.1800001,
      "villes_proches": [
        {
          "code_insee": "35211",
          "nom": "Paimpont",
          "slug": "paimpont",
          "code_postal": "35380",
          "population": 1781,
          "superficie_km2": 110.0,
          "latitude": 48.0299988,
          "longitude": -2.1730001,
          "distance_km": 7.14
        },
        {
          "code_insee": "56032",
          "nom": "Campénéac",
          "slug": "campeneac",
          "code_postal": "56800",
          "population": 1891,
          "superficie_km2": 61.0,
          "latitude": 47.9620018,
          "longitude": -2.2780001,
          "distance_km": 7.31
        },
        {
          "code_insee": "56075",
          "nom": "Guer",
          "slug": "guer",
          "code_postal": "56380",
          "population": 6068,
          "superficie_km2": 52.0,
          "latitude": 47.9070015,
          "longitude": -2.1289999,
          "distance_km": 7.58
        },
        {
          "code_insee": "35223",
          "nom": "Plélan-le-Grand",
          "slug": "plelan-le-grand",
          "code_postal": "35380",
          "population": 4048,
          "superficie_km2": 50.0,
          "latitude": 47.9970017,
          "longitude": -2.0799999,
          "distance_km": 8.2
        },
        {
          "code_insee": "56006",
          "nom": "Augan",
          "slug": "augan",
          "code_postal": "56800",
          "population": 1513,
          "superficie_km2": 41.0,
          "latitude": 47.9119988,
          "longitude": -2.2679999,
          "distance_km": 8.89
        },
        {
          "code_insee": "35169",
          "nom": "Maxent",
          "slug": "maxent",
          "code_postal": "35380",
          "population": 1465,
          "superficie_km2": 40.0,
          "latitude": 47.9790001,
          "longitude": -2.0150001,
          "distance_km": 12.37
        },
        {
          "code_insee": "56145",
          "nom": "Néant-sur-Yvel",
          "slug": "neant-sur-yvel",
          "code_postal": "56430",
          "population": 1094,
          "superficie_km2": 33.0,
          "latitude": 48.0219994,
          "longitude": -2.3329999,
          "distance_km": 12.98
        },
        {
          "code_insee": "35340",
          "nom": "Treffendel",
          "slug": "treffendel",
          "code_postal": "35380",
          "population": 1321,
          "superficie_km2": 19.0,
          "latitude": 48.0309982,
          "longitude": -2.0079999,
          "distance_km": 14.7
        },
        {
          "code_insee": "56122",
          "nom": "Loyat",
          "slug": "loyat",
          "code_postal": "56800",
          "population": 1701,
          "superficie_km2": 42.0,
          "latitude": 47.9920006,
          "longitude": -2.3840001,
          "distance_km": 15.46
        },
        {
          "code_insee": "35168",
          "nom": "Val d'Anast",
          "slug": "val-d-anast",
          "code_postal": "35330",
          "population": 3932,
          "superficie_km2": 65.0,
          "latitude": 47.8969994,
          "longitude": -1.999,
          "distance_km": 15.51
        },
        {
          "code_insee": "56127",
          "nom": "Mauron",
          "slug": "mauron",
          "code_postal": "56430",
          "population": 3170,
          "superficie_km2": 67.0,
          "latitude": 48.0820007,
          "longitude": -2.3039999,
          "distance_km": 15.86
        },
        {
          "code_insee": "56165",
          "nom": "Ploërmel",
          "slug": "ploermel",
          "code_postal": "56800",
          "population": 9879,
          "superficie_km2": 51.0,
          "latitude": 47.9220009,
          "longitude": -2.3829999,
          "distance_km": 15.89
        },
        {
          "code_insee": "56035",
          "nom": "Caro",
          "slug": "caro",
          "code_postal": "56140",
          "population": 1138,
          "superficie_km2": 38.0,
          "latitude": 47.8619995,
          "longitude": -2.3280001,
          "distance_km": 15.98
        },
        {
          "code_insee": "56033",
          "nom": "Carentoir",
          "slug": "carentoir",
          "code_postal": "56910",
          "population": 3043,
          "superficie_km2": 59.0,
          "latitude": 47.8199997,
          "longitude": -2.1459999,
          "distance_km": 16.43
        },
        {
          "code_insee": "35117",
          "nom": "Gaël",
          "slug": "gael",
          "code_postal": "35290",
          "population": 1619,
          "superficie_km2": 53.0,
          "latitude": 48.118,
          "longitude": -2.2279999,
          "distance_km": 17.27
        },
        {
          "code_insee": "35187",
          "nom": "Monterfil",
          "slug": "monterfil",
          "code_postal": "35160",
          "population": 1338,
          "superficie_km2": 17.0,
          "latitude": 48.0600014,
          "longitude": -1.99,
          "distance_km": 17.58
        },
        {
          "code_insee": "56200",
          "nom": "Ruffiac",
          "slug": "ruffiac",
          "code_postal": "56140",
          "population": 1370,
          "superficie_km2": 37.0,
          "latitude": 47.8139992,
          "longitude": -2.2850001,
          "distance_km": 18.63
        },
        {
          "code_insee": "35175",
          "nom": "Mernel",
          "slug": "mernel",
          "code_postal": "35330",
          "population": 1014,
          "superficie_km2": 17.0,
          "latitude": 47.8979988,
          "longitude": -1.951,
          "distance_km": 18.66
        },
        {
          "code_insee": "35016",
          "nom": "Baulon",
          "slug": "baulon",
          "code_postal": "35580",
          "population": 2197,
          "superficie_km2": 25.0,
          "latitude": 47.9949989,
          "longitude": -1.928,
          "distance_km": 19.03
        },
        {
          "code_insee": "35319",
          "nom": "Saint-Thurial",
          "slug": "saint-thurial",
          "code_postal": "35310",
          "population": 2152,
          "superficie_km2": 18.0,
          "latitude": 48.0340004,
          "longitude": -1.9400001,
          "distance_km": 19.39
        }
      ],
      "zonage_abc": "C",
      "reclassement_abc": "Non",
      "codes_postaux": [
        {
          "code_postal": "56380",
          "libelle_acheminement": "BEIGNON"
        }
      ],
      "logement": {
        "logements_total": 780,
        "residences_principales": 683,
        "logements_vacants": 64,
        "residences_secondaires": 33,
        "maisons": 741,
        "appartements": 37,
        "proprietaires": 495,
        "locataires": 176,
        "hlm": 40,
        "construits_avant_1919": 46,
        "construits_1919_1945": 25,
        "construits_1946_1970": 69,
        "construits_1971_1990": 111,
        "construits_1991_2005": 168,
        "construits_2006_2019": 234,
        "chauffage_electrique": 316,
        "chauffage_fioul": 62,
        "chauffage_gaz_ville": 6,
        "chauffage_gaz_bouteille": 26,
        "chauffage_autre": 273,
        "menages": 683,
        "logements_avant_1990": 251
      },
      "artisans": {
        "monte_escalier": 0,
        "chauffage_pac_clim": 5,
        "isolation": 2,
        "menuiserie": 4,
        "fenetres_velux": 4,
        "couverture_toiture": 2,
        "facade_peinture": 1,
        "portes_volets": 4,
        "piscine": 3,
        "vmc_ventilation": 0,
        "assainissement": 6
      },
      "revenus": {
        "revenu_median": 22600.0,
        "part_menages_imposes": null,
        "taux_pauvrete": null
      },
      "aides_etat": {
        "zone_climatique": "H1",
        "qpv": false,
        "action_coeur_de_ville": false,
        "petites_villes_de_demain": false
      }
    },
    {
      "code_insee": "56013",
      "nom": "Belz",
      "nom_a": null,
      "nom_de": null,
      "slug": "belz",
      "code_postal": "56550",
      "population": 3834,
      "superficie_km2": 16.0,
      "latitude": 47.6720009,
      "longitude": -3.1619999,
      "villes_proches": [
        {
          "code_insee": "56055",
          "nom": "Étel",
          "slug": "etel",
          "code_postal": "56410",
          "population": 2055,
          "superficie_km2": 2.0,
          "latitude": 47.6570015,
          "longitude": -3.198,
          "distance_km": 3.17
        },
        {
          "code_insee": "56054",
          "nom": "Erdeven",
          "slug": "erdeven",
          "code_postal": "56410",
          "population": 3974,
          "superficie_km2": 31.0,
          "latitude": 47.637001,
          "longitude": -3.1559999,
          "distance_km": 3.92
        },
        {
          "code_insee": "56119",
          "nom": "Locoal-Mendon",
          "slug": "locoal-mendon",
          "code_postal": "56550",
          "population": 3507,
          "superficie_km2": 45.0,
          "latitude": 47.7019997,
          "longitude": -3.1099999,
          "distance_km": 5.13
        },
        {
          "code_insee": "56220",
          "nom": "Sainte-Hélène",
          "slug": "sainte-helene",
          "code_postal": "56700",
          "population": 1294,
          "superficie_km2": 11.0,
          "latitude": 47.7169991,
          "longitude": -3.1849999,
          "distance_km": 5.29
        },
        {
          "code_insee": "56169",
          "nom": "Plouhinec",
          "slug": "plouhinec",
          "code_postal": "56680",
          "population": 5354,
          "superficie_km2": 37.0,
          "latitude": 47.6930008,
          "longitude": -3.234,
          "distance_km": 5.87
        },
        {
          "code_insee": "56161",
          "nom": "Ploemel",
          "slug": "ploemel",
          "code_postal": "56400",
          "population": 3056,
          "superficie_km2": 25.0,
          "latitude": 47.6599999,
          "longitude": -3.072,
          "distance_km": 6.87
        },
        {
          "code_insee": "56168",
          "nom": "Plouharnel",
          "slug": "plouharnel",
          "code_postal": "56340",
          "population": 2261,
          "superficie_km2": 19.0,
          "latitude": 47.5999985,
          "longitude": -3.1229999,
          "distance_km": 8.52
        },
        {
          "code_insee": "56130",
          "nom": "Merlevenez",
          "slug": "merlevenez",
          "code_postal": "56700",
          "population": 3203,
          "superficie_km2": 18.0,
          "latitude": 47.7330017,
          "longitude": -3.243,
          "distance_km": 9.1
        },
        {
          "code_insee": "56096",
          "nom": "Landaul",
          "slug": "landaul",
          "code_postal": "56690",
          "population": 2458,
          "superficie_km2": 18.0,
          "latitude": 47.7420006,
          "longitude": -3.099,
          "distance_km": 9.1
        },
        {
          "code_insee": "56148",
          "nom": "Nostang",
          "slug": "nostang",
          "code_postal": "56690",
          "population": 1626,
          "superficie_km2": 17.0,
          "latitude": 47.7550011,
          "longitude": -3.175,
          "distance_km": 9.28
        },
        {
          "code_insee": "56034",
          "nom": "Carnac",
          "slug": "carnac",
          "code_postal": "56340",
          "population": 4223,
          "superficie_km2": 34.0,
          "latitude": 47.6080017,
          "longitude": -3.0699999,
          "distance_km": 9.91
        },
        {
          "code_insee": "56023",
          "nom": "Brech",
          "slug": "brech",
          "code_postal": "56400",
          "population": 6924,
          "superficie_km2": 40.0,
          "latitude": 47.7089996,
          "longitude": -3.0239999,
          "distance_km": 11.12
        },
        {
          "code_insee": "56097",
          "nom": "Landévant",
          "slug": "landevant",
          "code_postal": "56690",
          "population": 4044,
          "superficie_km2": 23.0,
          "latitude": 47.7709999,
          "longitude": -3.1140001,
          "distance_km": 11.58
        },
        {
          "code_insee": "56193",
          "nom": "Riantec",
          "slug": "riantec",
          "code_postal": "56670",
          "population": 5772,
          "superficie_km2": 14.0,
          "latitude": 47.7179985,
          "longitude": -3.302,
          "distance_km": 11.66
        },
        {
          "code_insee": "56094",
          "nom": "Kervignac",
          "slug": "kervignac",
          "code_postal": "56700",
          "population": 6966,
          "superficie_km2": 39.0,
          "latitude": 47.769001,
          "longitude": -3.2479999,
          "distance_km": 12.56
        },
        {
          "code_insee": "56007",
          "nom": "Auray",
          "slug": "auray",
          "code_postal": "56400",
          "population": 14222,
          "superficie_km2": 7.0,
          "latitude": 47.6679993,
          "longitude": -2.99,
          "distance_km": 12.89
        },
        {
          "code_insee": "56046",
          "nom": "Crach",
          "slug": "crach",
          "code_postal": "56950",
          "population": 3422,
          "superficie_km2": 32.0,
          "latitude": 47.6300011,
          "longitude": -3.0009999,
          "distance_km": 12.93
        },
        {
          "code_insee": "56258",
          "nom": "La Trinité-sur-Mer",
          "slug": "la-trinite-sur-mer",
          "code_postal": "56470",
          "population": 1768,
          "superficie_km2": 6.0,
          "latitude": 47.5909996,
          "longitude": -3.0369999,
          "distance_km": 12.99
        },
        {
          "code_insee": "56021",
          "nom": "Brandérion",
          "slug": "branderion",
          "code_postal": "56700",
          "population": 1473,
          "superficie_km2": 6.0,
          "latitude": 47.7919998,
          "longitude": -3.1930001,
          "distance_km": 13.54
        },
        {
          "code_insee": "56118",
          "nom": "Locmiquélic",
          "slug": "locmiquelic",
          "code_postal": "56570",
          "population": 4075,
          "superficie_km2": 4.0,
          "latitude": 47.7299995,
          "longitude": -3.3280001,
          "distance_km": 14
        }
      ],
      "zonage_abc": "B1",
      "reclassement_abc": "Non",
      "codes_postaux": [
        {
          "code_postal": "56550",
          "libelle_acheminement": "BELZ"
        }
      ],
      "logement": {
        "logements_total": 2799,
        "residences_principales": 1947,
        "logements_vacants": 210,
        "residences_secondaires": 641,
        "maisons": 2395,
        "appartements": 401,
        "proprietaires": 1491,
        "locataires": 436,
        "hlm": 80,
        "construits_avant_1919": 118,
        "construits_1919_1945": 119,
        "construits_1946_1970": 352,
        "construits_1971_1990": 537,
        "construits_1991_2005": 361,
        "construits_2006_2019": 455,
        "chauffage_electrique": 789,
        "chauffage_fioul": 258,
        "chauffage_gaz_ville": 494,
        "chauffage_gaz_bouteille": 50,
        "chauffage_autre": 355,
        "menages": 1947,
        "logements_avant_1990": 1126
      },
      "artisans": {
        "monte_escalier": 0,
        "chauffage_pac_clim": 4,
        "isolation": 7,
        "menuiserie": 15,
        "fenetres_velux": 15,
        "couverture_toiture": 7,
        "facade_peinture": 9,
        "portes_volets": 15,
        "piscine": 2,
        "vmc_ventilation": 3,
        "assainissement": 3
      },
      "revenus": {
        "revenu_median": 22680.0,
        "part_menages_imposes": 48.0,
        "taux_pauvrete": 10.0
      },
      "aides_etat": {
        "zone_climatique": "H1",
        "qpv": false,
        "action_coeur_de_ville": false,
        "petites_villes_de_demain": false
      }
    },
    {
      "code_insee": "56014",
      "nom": "Berné",
      "nom_a": null,
      "nom_de": null,
      "slug": "berne",
      "code_postal": "56240",
      "population": 1562,
      "superficie_km2": 35.0,
      "latitude": 47.9850006,
      "longitude": -3.3740001,
      "villes_proches": [
        {
          "code_insee": "56131",
          "nom": "Meslan",
          "slug": "meslan",
          "code_postal": "56320",
          "population": 1456,
          "superficie_km2": 39.0,
          "latitude": 47.987999,
          "longitude": -3.448,
          "distance_km": 5.52
        },
        {
          "code_insee": "56166",
          "nom": "Plouay",
          "slug": "plouay",
          "code_postal": "56240",
          "population": 5784,
          "superficie_km2": 67.0,
          "latitude": 47.9269981,
          "longitude": -3.3369999,
          "distance_km": 7.01
        },
        {
          "code_insee": "56089",
          "nom": "Inguiniel",
          "slug": "inguiniel",
          "code_postal": "56240",
          "population": 2191,
          "superficie_km2": 51.0,
          "latitude": 47.9560013,
          "longitude": -3.26,
          "distance_km": 9.08
        },
        {
          "code_insee": "56182",
          "nom": "Priziac",
          "slug": "priziac",
          "code_postal": "56320",
          "population": 1011,
          "superficie_km2": 46.0,
          "latitude": 48.0559998,
          "longitude": -3.4349999,
          "distance_km": 9.11
        },
        {
          "code_insee": "29136",
          "nom": "Locunolé",
          "slug": "locunole",
          "code_postal": "29310",
          "population": 1169,
          "superficie_km2": 17.0,
          "latitude": 47.9239998,
          "longitude": -3.4860001,
          "distance_km": 10.75
        },