{
  "departement": {
    "code": "69",
    "nom": "Rhône",
    "slug": "rhone",
    "population_totale": 1895074
  },
  "region": {
    "id": 2,
    "code": "01",
    "nom": "Auvergne-Rhône-Alpes",
    "slug": "auvergne-rhone-alpes"
  },
  "voisins": [
    {
      "dep_code": "01",
      "dep_nom": "Ain",
      "dep_slug": "ain"
    },
    {
      "dep_code": "03",
      "dep_nom": "Allier",
      "dep_slug": "allier"
    },
    {
      "dep_code": "07",
      "dep_nom": "Ardèche",
      "dep_slug": "ardeche"
    },
    {
      "dep_code": "15",
      "dep_nom": "Cantal",
      "dep_slug": "cantal"
    }
  ],
  "communes_count": 267,
  "communes": [
    {
      "code_insee": "69001",
      "nom": "Affoux",
      "nom_a": null,
      "nom_de": null,
      "slug": "affoux",
      "code_postal": "69170",
      "population": 398,
      "superficie_km2": 1063.77,
      "latitude": 45.8448,
      "longitude": 4.4116,
      "villes_proches": [
        {
          "code_insee": "69225",
          "nom": "Saint-Marcel-l'Éclairé",
          "slug": "saint-marcel-l-eclaire",
          "code_postal": "69170",
          "population": 575,
          "superficie_km2": 1185.87,
          "latitude": 45.8712,
          "longitude": 4.4279,
          "distance_km": 3.2
        },
        {
          "code_insee": "69263",
          "nom": "Villechenève",
          "slug": "villecheneve",
          "code_postal": "69770",
          "population": 922,
          "superficie_km2": 1411.22,
          "latitude": 45.8144,
          "longitude": 4.4082,
          "distance_km": 3.39
        },
        {
          "code_insee": "69200",
          "nom": "Saint-Forgeux",
          "slug": "saint-forgeux",
          "code_postal": "69490",
          "population": 1544,
          "superficie_km2": 2229.37,
          "latitude": 45.8522,
          "longitude": 4.4583,
          "distance_km": 3.71
        },
        {
          "code_insee": "42334",
          "nom": "Violay",
          "slug": "violay",
          "code_postal": "42780",
          "population": 1218,
          "superficie_km2": 2711.57,
          "latitude": 45.8517,
          "longitude": 4.3458,
          "distance_km": 5.15
        },
        {
          "code_insee": "69102",
          "nom": "Joux",
          "slug": "joux",
          "code_postal": "69170",
          "population": 752,
          "superficie_km2": 2504.87,
          "latitude": 45.8895,
          "longitude": 4.368,
          "distance_km": 6.01
        },
        {
          "code_insee": "69139",
          "nom": "Montrottier",
          "slug": "montrottier",
          "code_postal": "69770",
          "population": 1400,
          "superficie_km2": 2305.83,
          "latitude": 45.8014,
          "longitude": 4.4654,
          "distance_km": 6.38
        },
        {
          "code_insee": "42148",
          "nom": "Montchal",
          "slug": "montchal",
          "code_postal": "42360",
          "population": 512,
          "superficie_km2": 887.94,
          "latitude": 45.8263,
          "longitude": 4.3328,
          "distance_km": 6.44
        },
        {
          "code_insee": "69120",
          "nom": "Longessaigne",
          "slug": "longessaigne",
          "code_postal": "69770",
          "population": 589,
          "superficie_km2": 1196.62,
          "latitude": 45.7833,
          "longitude": 4.4277,
          "distance_km": 6.95
        },
        {
          "code_insee": "69243",
          "nom": "Tarare",
          "slug": "tarare",
          "code_postal": "69170",
          "population": 10893,
          "superficie_km2": 1410.11,
          "latitude": 45.9071,
          "longitude": 4.4302,
          "distance_km": 7.08
        },
        {
          "code_insee": "69008",
          "nom": "Ancy",
          "slug": "ancy",
          "code_postal": "69490",
          "population": 671,
          "superficie_km2": 1183.62,
          "latitude": 45.8362,
          "longitude": 4.5098,
          "distance_km": 7.67
        },
        {
          "code_insee": "69038",
          "nom": "Chambost-Longessaigne",
          "slug": "chambost-longessaigne",
          "code_postal": "69770",
          "population": 930,
          "superficie_km2": 1541.71,
          "latitude": 45.778,
          "longitude": 4.3784,
          "distance_km": 7.86
        },
        {
          "code_insee": "42165",
          "nom": "Panissières",
          "slug": "panissieres",
          "code_postal": "42360",
          "population": 2911,
          "superficie_km2": 2652.1,
          "latitude": 45.7926,
          "longitude": 4.3428,
          "distance_km": 7.88
        },
        {
          "code_insee": "69157",
          "nom": "Vindry-sur-Turdine",
          "slug": "vindry-sur-turdine",
          "code_postal": "69490",
          "population": 5305,
          "superficie_km2": 2376.69,
          "latitude": 45.8886,
          "longitude": 4.4948,
          "distance_km": 8.08
        },
        {
          "code_insee": "42196",
          "nom": "Sainte-Agathe-en-Donzy",
          "slug": "sainte-agathe-en-donzy",
          "code_postal": "42510",
          "population": 121,
          "superficie_km2": 339.75,
          "latitude": 45.8358,
          "longitude": 4.3061,
          "distance_km": 8.23
        },
        {
          "code_insee": "69216",
          "nom": "Saint-Julien-sur-Bibost",
          "slug": "saint-julien-sur-bibost",
          "code_postal": "69690",
          "population": 622,
          "superficie_km2": 1332.83,
          "latitude": 45.7984,
          "longitude": 4.5087,
          "distance_km": 9.12
        },
        {
          "code_insee": "42213",
          "nom": "Saint-Cyr-de-Valorges",
          "slug": "saint-cyr-de-valorges",
          "code_postal": "42114",
          "population": 304,
          "superficie_km2": 995.77,
          "latitude": 45.8901,
          "longitude": 4.3134,
          "distance_km": 9.12
        },
        {
          "code_insee": "69174",
          "nom": "Les Sauvages",
          "slug": "les-sauvages",
          "code_postal": "69170",
          "population": 626,
          "superficie_km2": 1251.79,
          "latitude": 45.9245,
          "longitude": 4.3695,
          "distance_km": 9.44
        },
        {
          "code_insee": "69188",
          "nom": "Saint-Clément-sur-Valsonne",
          "slug": "saint-clement-sur-valsonne",
          "code_postal": "69170",
          "population": 900,
          "superficie_km2": 1458.46,
          "latitude": 45.926,
          "longitude": 4.4585,
          "distance_km": 9.73
        },
        {
          "code_insee": "69187",
          "nom": "Saint-Clément-les-Places",
          "slug": "saint-clement-les-places",
          "code_postal": "69930",
          "population": 684,
          "superficie_km2": 1240.93,
          "latitude": 45.7561,
          "longitude": 4.4207,
          "distance_km": 9.89
        },
        {
          "code_insee": "69254",
          "nom": "Valsonne",
          "slug": "valsonne",
          "code_postal": "69170",
          "population": 1005,
          "superficie_km2": 1837.0,
          "latitude": 45.9463,
          "longitude": 4.4264,
          "distance_km": 11.34
        }
      ],
      "zonage_abc": "C",
      "reclassement_abc": "Non",
      "codes_postaux": [
        {
          "code_postal": "69170",
          "libelle_acheminement": "AFFOUX"
        }
      ],
      "logement": {
        "logements_total": 181,
        "residences_principales": 153,
        "logements_vacants": 12,
        "residences_secondaires": 15,
        "maisons": 177,
        "appartements": 4,
        "proprietaires": 137,
        "locataires": 13,
        "hlm": 3,
        "construits_avant_1919": 39,
        "construits_1919_1945": 8,
        "construits_1946_1970": 6,
        "construits_1971_1990": 21,
        "construits_1991_2005": 32,
        "construits_2006_2019": 34,
        "chauffage_electrique": 41,
        "chauffage_fioul": 21,
        "chauffage_gaz_ville": 0,
        "chauffage_gaz_bouteille": 7,
        "chauffage_autre": 82,
        "menages": 153,
        "logements_avant_1990": 74
      },
      "artisans": {
        "monte_escalier": 0,
        "chauffage_pac_clim": 2,
        "isolation": 0,
        "menuiserie": 1,
        "fenetres_velux": 1,
        "couverture_toiture": 0,
        "facade_peinture": 0,
        "portes_volets": 1,
        "piscine": 0,
        "vmc_ventilation": 0,
        "assainissement": 2
      },
      "revenus": {
        "revenu_median": 24170.0,
        "part_menages_imposes": null,
        "taux_pauvrete": null
      },
      "aides_etat": {
        "zone_climatique": "H1",
        "qpv": false,
        "action_coeur_de_ville": false,
        "petites_villes_de_demain": false
      }
    },
    {
      "code_insee": "69002",
      "nom": "Aigueperse",
      "nom_a": null,
      "nom_de": null,
      "slug": "aigueperse",
      "code_postal": "69790",
      "population": 235,
      "superficie_km2": 1293.9,
      "latitude": 46.2822,
      "longitude": 4.4268,
      "villes_proches": [
        {
          "code_insee": "71116",
          "nom": "Châtenay",
          "slug": "chatenay",
          "code_postal": "71800",
          "population": 166,
          "superficie_km2": 828.12,
          "latitude": 46.2898,
          "longitude": 4.3814,
          "distance_km": 3.59
        },
        {
          "code_insee": "69182",
          "nom": "Saint-Bonnet-des-Bruyères",
          "slug": "saint-bonnet-des-bruyeres",
          "code_postal": "69790",
          "population": 368,
          "superficie_km2": 2125.79,
          "latitude": 46.2669,
          "longitude": 4.4721,
          "distance_km": 3.88
        },
        {
          "code_insee": "71473",
          "nom": "Saint-Racho",
          "slug": "saint-racho",
          "code_postal": "71800",
          "population": 158,
          "superficie_km2": 1058.4,
          "latitude": 46.2632,
          "longitude": 4.3702,
          "distance_km": 4.84
        },
        {
          "code_insee": "71289",
          "nom": "Matour",
          "slug": "matour",
          "code_postal": "71520",
          "population": 1161,
          "superficie_km2": 2807.21,
          "latitude": 46.3095,
          "longitude": 4.4785,
          "distance_km": 5.0
        },
        {
          "code_insee": "69209",
          "nom": "Saint-Igny-de-Vers",
          "slug": "saint-igny-de-vers",
          "code_postal": "69790",
          "population": 593,
          "superficie_km2": 2720.97,
          "latitude": 46.2368,
          "longitude": 4.4381,
          "distance_km": 5.12
        },
        {
          "code_insee": "71218",
          "nom": "Gibles",
          "slug": "gibles",
          "code_postal": "71800",
          "population": 571,
          "superficie_km2": 1969.75,
          "latitude": 46.3227,
          "longitude": 4.3836,
          "distance_km": 5.59
        },
        {
          "code_insee": "69186",
          "nom": "Saint-Clément-de-Vers",
          "slug": "saint-clement-de-vers",
          "code_postal": "69790",
          "population": 206,
          "superficie_km2": 894.33,
          "latitude": 46.2272,
          "longitude": 4.4157,
          "distance_km": 6.17
        },
        {
          "code_insee": "71559",
          "nom": "Varennes-sous-Dun",
          "slug": "varennes-sous-dun",
          "code_postal": "71800",
          "population": 519,
          "superficie_km2": 1762.83,
          "latitude": 46.2789,
          "longitude": 4.3392,
          "distance_km": 6.74
        },
        {
          "code_insee": "71008",
          "nom": "Anglure-sous-Dun",
          "slug": "anglure-sous-dun",
          "code_postal": "71170",
          "population": 143,
          "superficie_km2": 710.68,
          "latitude": 46.2359,
          "longitude": 4.3694,
          "distance_km": 6.78
        },
        {
          "code_insee": "71316",
          "nom": "Montmelard",
          "slug": "montmelard",
          "code_postal": "71520",
          "population": 344,
          "superficie_km2": 2235.15,
          "latitude": 46.3425,
          "longitude": 4.4112,
          "distance_km": 6.81
        },
        {
          "code_insee": "71469",
          "nom": "Saint-Pierre-le-Vieux",
          "slug": "saint-pierre-le-vieux",
          "code_postal": "71520",
          "population": 378,
          "superficie_km2": 1581.41,
          "latitude": 46.2888,
          "longitude": 4.5232,
          "distance_km": 7.44
        },
        {
          "code_insee": "71041",
          "nom": "Bois-Sainte-Marie",
          "slug": "bois-sainte-marie",
          "code_postal": "71800",
          "population": 189,
          "superficie_km2": 268.46,
          "latitude": 46.3345,
          "longitude": 4.352,
          "distance_km": 8.17
        },
        {
          "code_insee": "71327",
          "nom": "Mussy-sous-Dun",
          "slug": "mussy-sous-dun",
          "code_postal": "71170",
          "population": 327,
          "superficie_km2": 876.79,
          "latitude": 46.238,
          "longitude": 4.335,
          "distance_km": 8.6
        },
        {
          "code_insee": "71178",
          "nom": "Dompierre-les-Ormes",
          "slug": "dompierre-les-ormes",
          "code_postal": "71520",
          "population": 893,
          "superficie_km2": 3024.75,
          "latitude": 46.3543,
          "longitude": 4.4802,
          "distance_km": 9.01
        },
        {
          "code_insee": "71160",
          "nom": "Curbigny",
          "slug": "curbigny",
          "code_postal": "71800",
          "population": 303,
          "superficie_km2": 960.63,
          "latitude": 46.3119,
          "longitude": 4.316,
          "distance_km": 9.13
        },
        {
          "code_insee": "42229",
          "nom": "Saint-Germain-la-Montagne",
          "slug": "saint-germain-la-montagne",
          "code_postal": "42670",
          "population": 211,
          "superficie_km2": 1257.41,
          "latitude": 46.1965,
          "longitude": 4.3925,
          "distance_km": 9.89
        },
        {
          "code_insee": "69016",
          "nom": "Azolette",
          "slug": "azolette",
          "code_postal": "69790",
          "population": 120,
          "superficie_km2": 425.76,
          "latitude": 46.1917,
          "longitude": 4.4146,
          "distance_km": 10.11
        },
        {
          "code_insee": "69161",
          "nom": "Propières",
          "slug": "propieres",
          "code_postal": "69790",
          "population": 484,
          "superficie_km2": 1627.78,
          "latitude": 46.1909,
          "longitude": 4.4503,
          "distance_km": 10.31
        },
        {
          "code_insee": "71120",
          "nom": "Chauffailles",
          "slug": "chauffailles",
          "code_postal": "71170",
          "population": 3638,
          "superficie_km2": 2276.15,
          "latitude": 46.2055,
          "longitude": 4.3418,
          "distance_km": 10.75
        },
        {
          "code_insee": "71571",
          "nom": "Verosvres",
          "slug": "verosvres",
          "code_postal": "71220",
          "population": 423,
          "superficie_km2": 2310.14,
          "latitude": 46.3939,
          "longitude": 4.4448,
          "distance_km": 12.5
        }
      ],
      "zonage_abc": "C",
      "reclassement_abc": "Non",
      "codes_postaux": [
        {
          "code_postal": "69790",
          "libelle_acheminement": "AIGUEPERSE"
        }
      ],
      "logement": {
        "logements_total": 196,
        "residences_principales": 118,
        "logements_vacants": 35,
        "residences_secondaires": 42,
        "maisons": 180,
        "appartements": 14,
        "proprietaires": 99,
        "locataires": 16,
        "hlm": 2,
        "construits_avant_1919": 67,
        "construits_1919_1945": 5,
        "construits_1946_1970": 9,
        "construits_1971_1990": 9,
        "construits_1991_2005": 17,
        "construits_2006_2019": 7,
        "chauffage_electrique": 24,
        "chauffage_fioul": 17,
        "chauffage_gaz_ville": 0,
        "chauffage_gaz_bouteille": 2,
        "chauffage_autre": 74,
        "menages": 118,
        "logements_avant_1990": 90
      },
      "artisans": {
        "monte_escalier": 0,
        "chauffage_pac_clim": 0,
        "isolation": 0,
        "menuiserie": 0,
        "fenetres_velux": 0,
        "couverture_toiture": 0,
        "facade_peinture": 0,
        "portes_volets": 0,
        "piscine": 0,
        "vmc_ventilation": 0,
        "assainissement": 1
      },
      "revenus": {
        "revenu_median": 18990.0,
        "part_menages_imposes": null,
        "taux_pauvrete": null
      },
      "aides_etat": {
        "zone_climatique": "H1",
        "qpv": false,
        "action_coeur_de_ville": false,
        "petites_villes_de_demain": false
      }
    },
    {
      "code_insee": "69003",
      "nom": "Albigny-sur-Saône",
      "nom_a": null,
      "nom_de": null,
      "slug": "albigny-sur-saone",
      "code_postal": "69250",
      "population": 2991,
      "superficie_km2": 3.0,
      "latitude": 45.8639984,
      "longitude": 4.8309999,
      "villes_proches": [
        {
          "code_insee": "69071",
          "nom": "Curis-au-Mont-d'Or",
          "slug": "curis-au-mont-d-or",
          "code_postal": "69250",
          "population": 1179,
          "superficie_km2": 3.0,
          "latitude": 45.8689995,
          "longitude": 4.8179998,
          "distance_km": 1.15
        },
        {
          "code_insee": "69085",
          "nom": "Fleurieu-sur-Saône",
          "slug": "fleurieu-sur-saone",
          "code_postal": "69250",
          "population": 1501,
          "superficie_km2": 3.0,
          "latitude": 45.8590012,
          "longitude": 4.8499999,
          "distance_km": 1.57
        },
        {
          "code_insee": "69068",
          "nom": "Couzon-au-Mont-d'Or",
          "slug": "couzon-au-mont-d-or",
          "code_postal": "69270",
          "population": 2452,
          "superficie_km2": 3.0,
          "latitude": 45.8479996,
          "longitude": 4.822,
          "distance_km": 1.91
        },
        {
          "code_insee": "69143",
          "nom": "Neuville-sur-Saône",
          "slug": "neuville-sur-saone",
          "code_postal": "69250",
          "population": 7721,
          "superficie_km2": 5.0,
          "latitude": 45.8829994,
          "longitude": 4.8439999,
          "distance_km": 2.34
        },
        {
          "code_insee": "69168",
          "nom": "Rochetaillée-sur-Saône",
          "slug": "rochetaillee-sur-saone",
          "code_postal": "69270",
          "population": 1543,
          "superficie_km2": 1.0,
          "latitude": 45.8429985,
          "longitude": 4.8379998,
          "distance_km": 2.4
        },
        {
          "code_insee": "69087",
          "nom": "Fontaines-Saint-Martin",
          "slug": "fontaines-saint-martin",
          "code_postal": "69270",
          "population": 3043,
          "superficie_km2": 3.0,
          "latitude": 45.8429985,
          "longitude": 4.8540001,
          "distance_km": 2.94
        },
        {
          "code_insee": "69153",
          "nom": "Poleymieux-au-Mont-d'Or",
          "slug": "poleymieux-au-mont-d-or",
          "code_postal": "69250",
          "population": 1403,
          "superficie_km2": 6.0,
          "latitude": 45.8549995,
          "longitude": 4.7950001,
          "distance_km": 2.96
        },
        {
          "code_insee": "69207",
          "nom": "Saint-Germain-au-Mont-d'Or",
          "slug": "saint-germain-au-mont-d-or",
          "code_postal": "69650",
          "population": 2978,
          "superficie_km2": 5.0,
          "latitude": 45.882,
          "longitude": 4.8010001,
          "distance_km": 3.07
        },
        {
          "code_insee": "69233",
          "nom": "Saint-Romain-au-Mont-d'Or",
          "slug": "saint-romain-au-mont-d-or",
          "code_postal": "69270",
          "population": 1238,
          "superficie_km2": 3.0,
          "latitude": 45.8359985,
          "longitude": 4.8210001,
          "distance_km": 3.21
        },
        {
          "code_insee": "69284",
          "nom": "Montanay",
          "slug": "montanay",
          "code_postal": "69250",
          "population": 3249,
          "superficie_km2": 7.0,
          "latitude": 45.8769989,
          "longitude": 4.868,
          "distance_km": 3.21
        },
        {
          "code_insee": "69278",
          "nom": "Genay",
          "slug": "genay",
          "code_postal": "69730",
          "population": 5520,
          "superficie_km2": 9.0,
          "latitude": 45.8979988,
          "longitude": 4.8390002,
          "distance_km": 3.83
        },
        {
          "code_insee": "69033",
          "nom": "Cailloux-sur-Fontaines",
          "slug": "cailloux-sur-fontaines",
          "code_postal": "69270",
          "population": 2937,
          "superficie_km2": 8.0,
          "latitude": 45.8600006,
          "longitude": 4.8839998,
          "distance_km": 4.13
        },
        {
          "code_insee": "69088",
          "nom": "Fontaines-sur-Saône",
          "slug": "fontaines-sur-saone",
          "code_postal": "69270",
          "population": 7047,
          "superficie_km2": 2.0,
          "latitude": 45.8279991,
          "longitude": 4.8569999,
          "distance_km": 4.48
        },
        {
          "code_insee": "69063",
          "nom": "Collonges-au-Mont-d'Or",
          "slug": "collonges-au-mont-d-or",
          "code_postal": "69660",
          "population": 4517,
          "superficie_km2": 4.0,
          "latitude": 45.8219986,
          "longitude": 4.842,
          "distance_km": 4.75
        },
        {
          "code_insee": "69049",
          "nom": "Chasselay",
          "slug": "chasselay",
          "code_postal": "69380",
          "population": 2828,
          "superficie_km2": 13.0,
          "latitude": 45.875,
          "longitude": 4.7709999,
          "distance_km": 4.8
        },
        {
          "code_insee": "01238",
          "nom": "Massieux",
          "slug": "massieux",
          "code_postal": "01600",
          "population": 2721,
          "superficie_km2": 3.0,
          "latitude": 45.9090004,
          "longitude": 4.8280001,
          "distance_km": 5.01
        },
        {
          "code_insee": "69293",
          "nom": "Sathonay-Village",
          "slug": "sathonay-village",
          "code_postal": "69580",
          "population": 2423,
          "superficie_km2": 5.0,
          "latitude": 45.8400002,
          "longitude": 4.8860002,
          "distance_km": 5.03
        },
        {
          "code_insee": "69191",
          "nom": "Saint-Cyr-au-Mont-d'Or",
          "slug": "saint-cyr-au-mont-d-or",
          "code_postal": "69450",
          "population": 5900,
          "superficie_km2": 7.0,
          "latitude": 45.8190002,
          "longitude": 4.8179998,
          "distance_km": 5.1
        },
        {
          "code_insee": "69292",
          "nom": "Sathonay-Camp",
          "slug": "sathonay-camp",
          "code_postal": "69580",
          "population": 6858,
          "superficie_km2": 2.0,
          "latitude": 45.8260002,
          "longitude": 4.8740001,
          "distance_km": 5.38
        },
        {
          "code_insee": "69116",
          "nom": "Limonest",
          "slug": "limonest",
          "code_postal": "69760",
          "population": 3838,
          "superficie_km2": 9.0,
          "latitude": 45.8300018,
          "longitude": 4.7719998,
          "distance_km": 5.93
        }
      ],
      "zonage_abc": "B1",
      "reclassement_abc": "Non",
      "codes_postaux": [
        {
          "code_postal": "69250",
          "libelle_acheminement": "ALBIGNY SUR SAONE"
        }
      ],
      "logement": {
        "logements_total": 1247,
        "residences_principales": 1124,
        "logements_vacants": 99,
        "residences_secondaires": 23,
        "maisons": 604,
        "appartements": 638,
        "proprietaires": 635,
        "locataires": 476,
        "hlm": 237,
        "construits_avant_1919": 129,
        "construits_1919_1945": 83,
        "construits_1946_1970": 231,
        "construits_1971_1990": 287,
        "construits_1991_2005": 117,
        "construits_2006_2019": 271,
        "chauffage_electrique": 272,
        "chauffage_fioul": 59,
        "chauffage_gaz_ville": 723,
        "chauffage_gaz_bouteille": 1,
        "chauffage_autre": 68,
        "menages": 1124,
        "logements_avant_1990": 730
      },
      "artisans": {
        "monte_escalier": 0,
        "chauffage_pac_clim": 4,
        "isolation": 5,
        "menuiserie": 2,
        "fenetres_velux": 2,
        "couverture_toiture": 2,
        "facade_peinture": 2,
        "portes_volets": 2,
        "piscine": 0,
        "vmc_ventilation": 0,
        "assainissement": 4
      },
      "revenus": {
        "revenu_median": 25740.0,
        "part_menages_imposes": 62.0,
        "taux_pauvrete": 9.0
      },
      "aides_etat": {
        "zone_climatique": "H1",
        "qpv": false,
        "action_coeur_de_ville": false,
        "petites_villes_de_demain": false
      }
    },
    {
      "code_insee": "69004",
      "nom": "Alix",
      "nom_a": null,
      "nom_de": null,
      "slug": "alix",
      "code_postal": "69380",
      "population": 777,
      "superficie_km2": 361.21,
      "latitude": 45.9162,
      "longitude": 4.6534,
      "villes_proches": [
        {
          "code_insee": "69090",
          "nom": "Frontenas",
          "slug": "frontenas",
          "code_postal": "69620",
          "population": 915,
          "superficie_km2": 348.85,
          "latitude": 45.9186,
          "longitude": 4.632,
          "distance_km": 1.68
        },
        {
          "code_insee": "69126",
          "nom": "Marcy",
          "slug": "marcy",
          "code_postal": "69480",
          "population": 916,
          "superficie_km2": 333.57,
          "latitude": 45.9141,
          "longitude": 4.6755,
          "distance_km": 1.73
        },
        {
          "code_insee": "69106",
          "nom": "Lachassagne",
          "slug": "lachassagne",
          "code_postal": "69480",
          "population": 1332,
          "superficie_km2": 353.51,
          "latitude": 45.9264,
          "longitude": 4.6779,
          "distance_km": 2.21
        },
        {
          "code_insee": "69017",
          "nom": "Bagnols",
          "slug": "bagnols",
          "code_postal": "69620",
          "population": 765,
          "superficie_km2": 745.58,
          "latitude": 45.9104,
          "longitude": 4.6205,
          "distance_km": 2.63
        },
        {
          "code_insee": "69047",
          "nom": "Charnay",
          "slug": "charnay",
          "code_postal": "69380",
          "population": 1023,
          "superficie_km2": 722.23,
          "latitude": 45.8876,
          "longitude": 4.6602,
          "distance_km": 3.22
        },
        {
          "code_insee": "69246",
          "nom": "Theizé",
          "slug": "theize",
          "code_postal": "69620",
          "population": 1278,
          "superficie_km2": 1190.23,
          "latitude": 45.9418,
          "longitude": 4.6277,
          "distance_km": 3.47
        },
        {
          "code_insee": "69056",
          "nom": "Chessy",
          "slug": "chessy",
          "code_postal": "69380",
          "population": 2055,
          "superficie_km2": 454.51,
          "latitude": 45.8914,
          "longitude": 4.6168,
          "distance_km": 3.95
        },
        {
          "code_insee": "69134",
          "nom": "Moiré",
          "slug": "moire",
          "code_postal": "69620",
          "population": 240,
          "superficie_km2": 204.26,
          "latitude": 45.9262,
          "longitude": 4.6034,
          "distance_km": 4.02
        },
        {
          "code_insee": "69122",
          "nom": "Lucenay",
          "slug": "lucenay",
          "code_postal": "69480",
          "population": 2070,
          "superficie_km2": 646.66,
          "latitude": 45.9138,
          "longitude": 4.7095,
          "distance_km": 4.35
        },
        {
          "code_insee": "69140",
          "nom": "Morancé",
          "slug": "morance",
          "code_postal": "69480",
          "population": 2261,
          "superficie_km2": 929.07,
          "latitude": 45.8938,
          "longitude": 4.7016,
          "distance_km": 4.48
        },
        {
          "code_insee": "69050",
          "nom": "Châtillon",
          "slug": "chatillon",
          "code_postal": "69380",
          "population": 2252,
          "superficie_km2": 1078.22,
          "latitude": 45.872,
          "longitude": 4.6487,
          "distance_km": 4.93
        },
        {
          "code_insee": "69009",
          "nom": "Anse",
          "slug": "anse",
          "code_postal": "69480",
          "population": 8206,
          "superficie_km2": 1527.91,
          "latitude": 45.9451,
          "longitude": 4.7049,
          "distance_km": 5.12
        },
        {
          "code_insee": "69212",
          "nom": "Saint-Jean-des-Vignes",
          "slug": "saint-jean-des-vignes",
          "code_postal": "69380",
          "population": 486,
          "superficie_km2": 259.31,
          "latitude": 45.8746,
          "longitude": 4.683,
          "distance_km": 5.16
        },
        {
          "code_insee": "69114",
          "nom": "Porte des Pierres Dorées",
          "slug": "porte-des-pierres-dorees",
          "code_postal": "69400",
          "population": 4185,
          "superficie_km2": 1352.23,
          "latitude": 45.9628,
          "longitude": 4.6509,
          "distance_km": 5.19
        },
        {
          "code_insee": "69020",
          "nom": "Belmont-d'Azergues",
          "slug": "belmont-d-azergues",
          "code_postal": "69380",
          "population": 720,
          "superficie_km2": 156.12,
          "latitude": 45.8673,
          "longitude": 4.6685,
          "distance_km": 5.56
        },
        {
          "code_insee": "69156",
          "nom": "Pommiers",
          "slug": "pommiers",
          "code_postal": "69480",
          "population": 2618,
          "superficie_km2": 783.78,
          "latitude": 45.9581,
          "longitude": 4.6928,
          "distance_km": 5.57
        },
        {
          "code_insee": "69026",
          "nom": "Le Breuil",
          "slug": "le-breuil",
          "code_postal": "69620",
          "population": 533,
          "superficie_km2": 565.55,
          "latitude": 45.8909,
          "longitude": 4.5889,
          "distance_km": 5.73
        },
        {
          "code_insee": "69052",
          "nom": "Chazay-d'Azergues",
          "slug": "chazay-d-azergues",
          "code_postal": "69380",
          "population": 4410,
          "superficie_km2": 597.33,
          "latitude": 45.8743,
          "longitude": 4.71,
          "distance_km": 6.39
        },
        {
          "code_insee": "69208",
          "nom": "Saint-Germain-Nuelles",
          "slug": "saint-germain-nuelles",
          "code_postal": "69210",
          "population": 2246,
          "superficie_km2": 864.97,
          "latitude": 45.8604,
          "longitude": 4.6167,
          "distance_km": 6.82
        },
        {
          "code_insee": "69121",
          "nom": "Lozanne",
          "slug": "lozanne",
          "code_postal": "69380",
          "population": 3182,
          "superficie_km2": 552.92,
          "latitude": 45.853,
          "longitude": 4.6846,
          "distance_km": 7.43
        }
      ],
      "zonage_abc": "C",
      "reclassement_abc": "Non",
      "codes_postaux": [
        {
          "code_postal": "69380",
          "libelle_acheminement": "ALIX"
        }
      ],
      "logement": {
        "logements_total": 302,
        "residences_principales": 269,
        "logements_vacants": 27,
        "residences_secondaires": 5,
        "maisons": 263,
        "appartements": 31,
        "proprietaires": 222,
        "locataires": 36,
        "hlm": 13,
        "construits_avant_1919": 45,
        "construits_1919_1945": 3,
        "construits_1946_1970": 39,
        "construits_1971_1990": 82,
        "construits_1991_2005": 41,
        "construits_2006_2019": 48,
        "chauffage_electrique": 130,
        "chauffage_fioul": 44,
        "chauffage_gaz_ville": 1,
        "chauffage_gaz_bouteille": 10,
        "chauffage_autre": 82,
        "menages": 269,
        "logements_avant_1990": 169
      },
      "artisans": {
        "monte_escalier": 0,
        "chauffage_pac_clim": 3,
        "isolation": 0,
        "menuiserie": 2,
        "fenetres_velux": 2,
        "couverture_toiture": 0,
        "facade_peinture": 1,
        "portes_volets": 2,
        "piscine": 0,
        "vmc_ventilation": 1,
        "assainissement": 2
      },
      "revenus": {
        "revenu_median": 26980.0,
        "part_menages_imposes": null,
        "taux_pauvrete": null
      },
      "aides_etat": {
        "zone_climatique": "H1",
        "qpv": false,
        "action_coeur_de_ville": false,
        "petites_villes_de_demain": false
      }
    },
    {
      "code_insee": "69005",
      "nom": "Ambérieux",
      "nom_a": null,
      "nom_de": null,
      "slug": "amberieux",
      "code_postal": "69480",
      "population": 651,
      "superficie_km2": 461.01,
      "latitude": 45.9264,
      "longitude": 4.7427,
      "villes_proches": [
        {
          "code_insee": "69163",
          "nom": "Quincieux",
          "slug": "quincieux",
          "code_postal": "69650",
          "population": 3679,
          "superficie_km2": 1797.69,
          "latitude": 45.9168,
          "longitude": 4.7724,
          "distance_km": 2.53
        },
        {
          "code_insee": "01339",
          "nom": "Saint-Bernard",
          "slug": "saint-bernard",
          "code_postal": "01600",
          "population": 1590,
          "superficie_km2": 320.82,
          "latitude": 45.95,
          "longitude": 4.7419,
          "distance_km": 2.62
        },
        {
          "code_insee": "01427",
          "nom": "Trévoux",
          "slug": "trevoux",
          "code_postal": "01600",
          "population": 7013,
          "superficie_km2": 563.37,
          "latitude": 45.9398,
          "longitude": 4.771,
          "distance_km": 2.65
        },
        {
          "code_insee": "69122",
          "nom": "Lucenay",
          "slug": "lucenay",
          "code_postal": "69480",
          "population": 2070,
          "superficie_km2": 646.66,
          "latitude": 45.9138,
          "longitude": 4.7095,
          "distance_km": 2.93
        },
        {
          "code_insee": "69055",
          "nom": "Les Chères",
          "slug": "les-cheres",
          "code_postal": "69380",
          "population": 1503,
          "superficie_km2": 556.77,
          "latitude": 45.8948,
          "longitude": 4.7454,
          "distance_km": 3.52
        },
        {
          "code_insee": "69009",
          "nom": "Anse",
          "slug": "anse",
          "code_postal": "69480",
          "population": 8206,
          "superficie_km2": 1527.91,
          "latitude": 45.9451,
          "longitude": 4.7049,
          "distance_km": 3.59
        },
        {
          "code_insee": "01347",
          "nom": "Saint-Didier-de-Formans",
          "slug": "saint-didier-de-formans",
          "code_postal": "01600",
          "population": 2203,
          "superficie_km2": 660.18,
          "latitude": 45.9587,
          "longitude": 4.7767,
          "distance_km": 4.45
        },
        {
          "code_insee": "69140",
          "nom": "Morancé",
          "slug": "morance",
          "code_postal": "69480",
          "population": 2261,
          "superficie_km2": 929.07,
          "latitude": 45.8938,
          "longitude": 4.7016,
          "distance_km": 4.82
        },
        {
          "code_insee": "69106",
          "nom": "Lachassagne",
          "slug": "lachassagne",
          "code_postal": "69480",
          "population": 1332,
          "superficie_km2": 353.51,
          "latitude": 45.9264,
          "longitude": 4.6779,
          "distance_km": 5.01
        },
        {
          "code_insee": "69156",
          "nom": "Pommiers",
          "slug": "pommiers",
          "code_postal": "69480",
          "population": 2618,
          "superficie_km2": 783.78,
          "latitude": 45.9581,
          "longitude": 4.6928,
          "distance_km": 5.23
        },
        {
          "code_insee": "69115",
          "nom": "Limas",
          "slug": "limas",
          "code_postal": "69400",
          "population": 4750,
          "superficie_km2": 556.86,
          "latitude": 45.9717,
          "longitude": 4.7196,
          "distance_km": 5.34
        },
        {
          "code_insee": "69126",
          "nom": "Marcy",
          "slug": "marcy",
          "code_postal": "69480",
          "population": 916,
          "superficie_km2": 333.57,
          "latitude": 45.9141,
          "longitude": 4.6755,
          "distance_km": 5.38
        },
        {
          "code_insee": "01353",
          "nom": "Sainte-Euphémie",
          "slug": "sainte-euphemie",
          "code_postal": "01600",
          "population": 1757,
          "superficie_km2": 464.01,
          "latitude": 45.9651,
          "longitude": 4.7927,
          "distance_km": 5.78
        },
        {
          "code_insee": "01194",
          "nom": "Jassans-Riottier",
          "slug": "jassans-riottier",
          "code_postal": "01480",
          "population": 6247,
          "superficie_km2": 502.24,
          "latitude": 45.9771,
          "longitude": 4.7626,
          "distance_km": 5.84
        },
        {
          "code_insee": "69049",
          "nom": "Chasselay",
          "slug": "chasselay",
          "code_postal": "69380",
          "population": 2973,
          "superficie_km2": 1289.26,
          "latitude": 45.8733,
          "longitude": 4.7699,
          "distance_km": 6.27
        },
        {
          "code_insee": "69052",
          "nom": "Chazay-d'Azergues",
          "slug": "chazay-d-azergues",
          "code_postal": "69380",
          "population": 4410,
          "superficie_km2": 597.33,
          "latitude": 45.8743,
          "longitude": 4.71,
          "distance_km": 6.32
        },
        {
          "code_insee": "69264",
          "nom": "Villefranche-sur-Saône",
          "slug": "villefranche-sur-saone",
          "code_postal": "69400",
          "population": 36172,
          "superficie_km2": 937.29,
          "latitude": 45.9837,
          "longitude": 4.726,
          "distance_km": 6.5
        },
        {
          "code_insee": "69125",
          "nom": "Marcilly-d'Azergues",
          "slug": "marcilly-d-azergues",
          "code_postal": "69380",
          "population": 1066,
          "superficie_km2": 423.79,
          "latitude": 45.8685,
          "longitude": 4.7301,
          "distance_km": 6.51
        },
        {
          "code_insee": "69207",
          "nom": "Saint-Germain-au-Mont-d'Or",
          "slug": "saint-germain-au-mont-d-or",
          "code_postal": "69650",
          "population": 3124,
          "superficie_km2": 544.3,
          "latitude": 45.8842,
          "longitude": 4.8036,
          "distance_km": 6.65
        },
        {
          "code_insee": "69117",
          "nom": "Lissieu",
          "slug": "lissieu",
          "code_postal": "69380",
          "population": 3181,
          "superficie_km2": 573.6,
          "latitude": 45.8582,
          "longitude": 4.7496,
          "distance_km": 7.6
        }
      ],
      "zonage_abc": "B1",
      "reclassement_abc": "Non",
      "codes_postaux": [
        {
          "code_postal": "69480",
          "libelle_acheminement": "AMBERIEUX D AZERGUES"
        }
      ],
      "logement": {
        "logements_total": 249,
        "residences_principales": 231,
        "logements_vacants": 16,
        "residences_secondaires": 1,
        "maisons": 220,
        "appartements": 28,
        "proprietaires": 190,
        "locataires": 37,
        "hlm": 0,
        "construits_avant_1919": 23,
        "construits_1919_1945": 10,
        "construits_1946_1970": 26,
        "construits_1971_1990": 41,
        "construits_1991_2005": 64,
        "construits_2006_2019": 30,
        "chauffage_electrique": 101,
        "chauffage_fioul": 7,
        "chauffage_gaz_ville": 80,
        "chauffage_gaz_bouteille": 0,
        "chauffage_autre": 41,
        "menages": 231,
        "logements_avant_1990": 100
      },
      "artisans": {
        "monte_escalier": 1,
        "chauffage_pac_clim": 2,
        "isolation": 2,
        "menuiserie": 0,
        "fenetres_velux": 0,
        "couverture_toiture": 4,
        "facade_peinture": 2,
        "portes_volets": 0,
        "piscine": 1,
        "vmc_ventilation": 0,
        "assainissement": 3
      },
      "revenus": {
        "revenu_median": 24930.0,
        "part_menages_imposes": null,
        "taux_pauvrete": null
      },
      "aides_etat": {
        "zone_climatique": "H1",
        "qpv": false,
        "action_coeur_de_ville": false,
        "petites_villes_de_demain": false
      }
    },
    {
      "code_insee": "69006",
      "nom": "Amplepuis",
      "nom_a": null,
      "nom_de": null,
      "slug": "amplepuis",
      "code_postal": "69550",
      "population": 4840,
      "superficie_km2": 39.0,
      "latitude": 45.9650002,
      "longitude": 4.3270001,
      "villes_proches": [
        {
          "code_insee": "69214",
          "nom": "Saint-Jean-la-Bussière",
          "slug": "saint-jean-la-bussiere",
          "code_postal": "69550",
          "population": 1187,
          "superficie_km2": 16.0,
          "latitude": 46.0019989,
          "longitude": 4.3330002,
          "distance_km": 4.14
        },
        {
          "code_insee": "42293",
          "nom": "Saint-Victor-sur-Rhins",
          "slug": "saint-victor-sur-rhins",
          "code_postal": "42630",
          "population": 1187,
          "superficie_km2": 11.0,
          "latitude": 46.0060005,
          "longitude": 4.283,
          "distance_km": 5.69
        },
        {
          "code_insee": "69248",
          "nom": "Thizy-les-Bourgs",
          "slug": "thizy-les-bourgs",
          "code_postal": "69240",
          "population": 5869,
          "superficie_km2": 2.0,
          "latitude": 46.0299988,
          "longitude": 4.3140001,
          "distance_km": 7.3
        },
        {
          "code_insee": "69070",
          "nom": "Cublize",
          "slug": "cublize",
          "code_postal": "69550",
          "population": 1327,
          "superficie_km2": 16.0,
          "latitude": 46.0239983,
          "longitude": 4.3870001,
          "distance_km": 8.03
        },
        {
          "code_insee": "42289",
          "nom": "Saint-Symphorien-de-Lay",
          "slug": "saint-symphorien-de-lay",
          "code_postal": "42470",
          "population": 1949,
          "superficie_km2": 33.0,
          "latitude": 45.9440002,
          "longitude": 4.217,
          "distance_km": 8.82
        },
        {
          "code_insee": "42181",
          "nom": "Régny",
          "slug": "regny",
          "code_postal": "42630",
          "population": 1469,
          "superficie_km2": 14.0,
          "latitude": 45.9970017,
          "longitude": 4.2140002,
          "distance_km": 9.43
        },
        {
          "code_insee": "69243",
          "nom": "Tarare",
          "slug": "tarare",
          "code_postal": "69170",
          "population": 10428,
          "superficie_km2": 14.0,
          "latitude": 45.9039993,
          "longitude": 4.4239998,
          "distance_km": 10.11
        },
        {
          "code_insee": "42249",
          "nom": "Saint-Just-la-Pendue",
          "slug": "saint-just-la-pendue",
          "code_postal": "42540",
          "population": 1652,
          "superficie_km2": 20.0,
          "latitude": 45.8880005,
          "longitude": 4.2420001,
          "distance_km": 10.79
        },
        {
          "code_insee": "42145",
          "nom": "Montagny",
          "slug": "montagny",
          "code_postal": "42840",
          "population": 1100,
          "superficie_km2": 26.0,
          "latitude": 46.033001,
          "longitude": 4.2259998,
          "distance_km": 10.86
        },
        {
          "code_insee": "42334",
          "nom": "Violay",
          "slug": "violay",
          "code_postal": "42780",
          "population": 1215,
          "superficie_km2": 27.0,
          "latitude": 45.8520012,
          "longitude": 4.349,
          "distance_km": 12.68
        },
        {
          "code_insee": "69093",
          "nom": "Grandris",
          "slug": "grandris",
          "code_postal": "69870",
          "population": 1198,
          "superficie_km2": 15.0,
          "latitude": 46.033001,
          "longitude": 4.4590001,
          "distance_km": 12.69
        },
        {
          "code_insee": "42156",
          "nom": "Neulise",
          "slug": "neulise",
          "code_postal": "42590",
          "population": 1367,
          "superficie_km2": 23.0,
          "latitude": 45.9000015,
          "longitude": 4.1680002,
          "distance_km": 14.26
        },
        {
          "code_insee": "42029",
          "nom": "Bussières",
          "slug": "bussieres",
          "code_postal": "42510",
          "population": 1521,
          "superficie_km2": 17.0,
          "latitude": 45.8400002,
          "longitude": 4.2639999,
          "distance_km": 14.73
        },
        {
          "code_insee": "42074",
          "nom": "Coutouvre",
          "slug": "coutouvre",
          "code_postal": "42460",
          "population": 1074,
          "superficie_km2": 22.0,
          "latitude": 46.0730019,
          "longitude": 4.2059999,
          "distance_km": 15.22
        },
        {
          "code_insee": "69239",
          "nom": "Saint-Vérand",
          "slug": "saint-verand",
          "code_postal": "69620",
          "population": 1169,
          "superficie_km2": 17.0,
          "latitude": 45.9220009,
          "longitude": 4.52,
          "distance_km": 15.67
        },
        {
          "code_insee": "69066",
          "nom": "Cours",
          "slug": "cours",
          "code_postal": "69470",
          "population": 4352,
          "superficie_km2": 19.0,
          "latitude": 46.1090012,
          "longitude": 4.3369999,
          "distance_km": 16.03
        },
        {
          "code_insee": "69200",
          "nom": "Saint-Forgeux",
          "slug": "saint-forgeux",
          "code_postal": "69490",
          "population": 1516,
          "superficie_km2": 22.0,
          "latitude": 45.8540001,
          "longitude": 4.4629998,
          "distance_km": 16.22
        },
        {
          "code_insee": "69157",
          "nom": "Vindry-sur-Turdine",
          "slug": "vindry-sur-turdine",
          "code_postal": "69490",
          "population": 5282,
          "superficie_km2": 5.0,
          "latitude": 45.8769989,
          "longitude": 4.4959998,
          "distance_km": 16.33
        },
        {
          "code_insee": "42170",
          "nom": "Perreux",
          "slug": "perreux",
          "code_postal": "42120",
          "population": 2099,
          "superficie_km2": 42.0,
          "latitude": 46.0400009,
          "longitude": 4.145,
          "distance_km": 16.35
        },
        {
          "code_insee": "69107",
          "nom": "Lamure-sur-Azergues",
          "slug": "lamure-sur-azergues",
          "code_postal": "69870",
          "population": 1055,
          "superficie_km2": 15.0,
          "latitude": 46.0530014,
          "longitude": 4.5089998,
          "distance_km": 17.13
        }
      ],
      "zonage_abc": "C",
      "reclassement_abc": "Non",
      "codes_postaux": [
        {
          "code_postal": "69550",
          "libelle_acheminement": "AMPLEPUIS"
        }
      ],
      "logement": {
        "logements_total": 2688,
        "residences_principales": 2264,
        "logements_vacants": 335,
        "residences_secondaires": 87,
        "maisons": 1591,
        "appartements": 1091,
        "proprietaires": 1267,
        "locataires": 963,
        "hlm": 272,
        "construits_avant_1919": 470,
        "construits_1919_1945": 341,
        "construits_1946_1970": 412,
        "construits_1971_1990": 461,
        "construits_1991_2005": 268,
        "construits_2006_2019": 265,
        "chauffage_electrique": 597,
        "chauffage_fioul": 191,
        "chauffage_gaz_ville": 1017,
        "chauffage_gaz_bouteille": 16,
        "chauffage_autre": 442,
        "menages": 2264,
        "logements_avant_1990": 1684
      },
      "artisans": {
        "monte_escalier": 0,
        "chauffage_pac_clim": 5,
        "isolation": 5,
        "menuiserie": 7,
        "fenetres_velux": 7,
        "couverture_toiture": 3,
        "facade_peinture": 0,
        "portes_volets": 7,
        "piscine": 1,
        "vmc_ventilation": 2,
        "assainissement": 3
      },
      "revenus": {
        "revenu_median": 20520.0,
        "part_menages_imposes": 39.0,
        "taux_pauvrete": 15.0
      },
      "aides_etat": {
        "zone_climatique": "H1",
        "qpv": false,
        "action_coeur_de_ville": false,
        "petites_villes_de_demain": true
      }
    },
    {
      "code_insee": "69007",
      "nom": "Ampuis",
      "nom_a": null,
      "nom_de": null,
      "slug": "ampuis",
      "code_postal": "69420",
      "population": 2751,
      "superficie_km2": 15.0,
      "latitude": 45.5029984,
      "longitude": 4.803,
      "villes_proches": [
        {
          "code_insee": "69193",
          "nom": "Saint-Cyr-sur-le-Rhône",
          "slug": "saint-cyr-sur-le-rhone",
          "code_postal": "69560",
          "population": 1275,
          "superficie_km2": 6.0,
          "latitude": 45.5169983,
          "longitude": 4.8330002,
          "distance_km": 2.81
        },
        {
          "code_insee": "69235",
          "nom": "Saint-Romain-en-Gal",
          "slug": "saint-romain-en-gal",
          "code_postal": "69560",
          "population": 1980,
          "superficie_km2": 14.0,
          "latitude": 45.5359993,
          "longitude": 4.8260002,
          "distance_km": 4.08
        },
        {
          "code_insee": "38336",
          "nom": "Reventin-Vaugris",
          "slug": "reventin-vaugris",
          "code_postal": "38121",
          "population": 2028,
          "superficie_km2": 18.0,
          "latitude": 45.4799995,
          "longitude": 4.8439999,
          "distance_km": 4.09
        },
        {
          "code_insee": "38107",
          "nom": "Chonas-l'Amballan",
          "slug": "chonas-l-amballan",
          "code_postal": "38121",
          "population": 1698,
          "superficie_km2": 7.0,
          "latitude": 45.4640007,
          "longitude": 4.803,
          "distance_km": 4.34
        },
        {
          "code_insee": "69064",
          "nom": "Condrieu",
          "slug": "condrieu",
          "code_postal": "69420",
          "population": 3933,
          "superficie_km2": 9.0,
          "latitude": 45.473999,
          "longitude": 4.757,
          "distance_km": 4.82
        },
        {
          "code_insee": "69189",
          "nom": "Sainte-Colombe",
          "slug": "sainte-colombe",
          "code_postal": "69560",
          "population": 1953,
          "superficie_km2": 2.0,
          "latitude": 45.5250015,
          "longitude": 4.8590002,
          "distance_km": 5
        },
        {
          "code_insee": "69118",
          "nom": "Loire-sur-Rhône",
          "slug": "loire-sur-rhone",
          "code_postal": "69700",
          "population": 2698,
          "superficie_km2": 16.0,
          "latitude": 45.5470009,
          "longitude": 4.783,
          "distance_km": 5.13
        },
        {
          "code_insee": "38340",
          "nom": "Les Roches-de-Condrieu",
          "slug": "les-roches-de-condrieu",
          "code_postal": "38370",
          "population": 2007,
          "superficie_km2": 1.0,
          "latitude": 45.4539986,
          "longitude": 4.7639999,
          "distance_km": 6.24
        },
        {
          "code_insee": "38544",
          "nom": "Vienne",
          "slug": "vienne",
          "code_postal": "38200",
          "population": 31051,
          "superficie_km2": 23.0,
          "latitude": 45.5209999,
          "longitude": 4.881,
          "distance_km": 6.4
        },
        {
          "code_insee": "38448",
          "nom": "Saint-Prim",
          "slug": "saint-prim",
          "code_postal": "38370",
          "population": 1406,
          "superficie_km2": 7.0,
          "latitude": 45.4449997,
          "longitude": 4.8010001,
          "distance_km": 6.45
        },
        {
          "code_insee": "38487",
          "nom": "Seyssuel",
          "slug": "seyssuel",
          "code_postal": "38200",
          "population": 2080,
          "superficie_km2": 10.0,
          "latitude": 45.5600014,
          "longitude": 4.8439999,
          "distance_km": 7.1
        },
        {
          "code_insee": "69080",
          "nom": "Échalas",
          "slug": "echalas",
          "code_postal": "69700",
          "population": 1927,
          "superficie_km2": 21.0,
          "latitude": 45.5509987,
          "longitude": 4.73,
          "distance_km": 7.8
        },
        {
          "code_insee": "38131",
          "nom": "Les Côtes-d'Arey",
          "slug": "les-cotes-d-arey",
          "code_postal": "38138",
          "population": 2024,
          "superficie_km2": 24.0,
          "latitude": 45.4570007,
          "longitude": 4.8790002,
          "distance_km": 7.83
        },
        {
          "code_insee": "38378",
          "nom": "Saint-Clair-du-Rhône",
          "slug": "saint-clair-du-rhone",
          "code_postal": "38370",
          "population": 3689,
          "superficie_km2": 7.0,
          "latitude": 45.4350014,
          "longitude": 4.7729998,
          "distance_km": 7.91
        },
        {
          "code_insee": "38199",
          "nom": "Jardin",
          "slug": "jardin",
          "code_postal": "38200",
          "population": 2168,
          "superficie_km2": 9.0,
          "latitude": 45.493,
          "longitude": 4.9109998,
          "distance_km": 8.49
        },
        {
          "code_insee": "38087",
          "nom": "Chasse-sur-Rhône",
          "slug": "chasse-sur-rhone",
          "code_postal": "38670",
          "population": 6372,
          "superficie_km2": 8.0,
          "latitude": 45.5800018,
          "longitude": 4.8140001,
          "distance_km": 8.61
        },
        {
          "code_insee": "38019",
          "nom": "Auberives-sur-Varèze",
          "slug": "auberives-sur-vareze",
          "code_postal": "38550",
          "population": 1472,
          "superficie_km2": 7.0,
          "latitude": 45.4259987,
          "longitude": 4.8189998,
          "distance_km": 8.65
        },
        {
          "code_insee": "38101",
          "nom": "Cheyssieu",
          "slug": "cheyssieu",
          "code_postal": "38550",
          "population": 1036,
          "superficie_km2": 9.0,
          "latitude": 45.4259987,
          "longitude": 4.8429999,
          "distance_km": 9.11
        },
        {
          "code_insee": "69091",
          "nom": "Givors",
          "slug": "givors",
          "code_postal": "69700",
          "population": 20654,
          "superficie_km2": 17.0,
          "latitude": 45.5820007,
          "longitude": 4.757,
          "distance_km": 9.49
        },
        {
          "code_insee": "38114",
          "nom": "Clonas-sur-Varèze",
          "slug": "clonas-sur-vareze",
          "code_postal": "38550",
          "population": 1519,
          "superficie_km2": 7.0,
          "latitude": 45.4150009,
          "longitude": 4.7919998,
          "distance_km": 9.82
        }
      ],
      "zonage_abc": "B2",
      "reclassement_abc": "Non",
      "codes_postaux": [
        {
          "code_postal": "69420",
          "libelle_acheminement": "AMPUIS"
        }
      ],
      "logement": {
        "logements_total": 1320,
        "residences_principales": 1197,
        "logements_vacants": 109,
        "residences_secondaires": 14,
        "maisons": 971,
        "appartements": 345,
        "proprietaires": 762,
        "locataires": 399,
        "hlm": 49,
        "construits_avant_1919": 150,
        "construits_1919_1945": 79,
        "construits_1946_1970": 146,
        "construits_1971_1990": 283,
        "construits_1991_2005": 279,
        "construits_2006_2019": 196,
        "chauffage_electrique": 493,
        "chauffage_fioul": 103,
        "chauffage_gaz_ville": 415,
        "chauffage_gaz_bouteille": 14,
        "chauffage_autre": 170,
        "menages": 1197,
        "logements_avant_1990": 658
      },
      "artisans": {
        "monte_escalier": 0,
        "chauffage_pac_clim": 6,
        "isolation": 2,
        "menuiserie": 5,
        "fenetres_velux": 5,
        "couverture_toiture": 1,
        "facade_peinture": 4,
        "portes_volets": 5,
        "piscine": 0,
        "vmc_ventilation": 2,
        "assainissement": 4
      },
      "revenus": {
        "revenu_median": 26050.0,
        "part_menages_imposes": 64.0,
        "taux_pauvrete": null
      },
      "aides_etat": {
        "zone_climatique": "H1",
        "qpv": false,
        "action_coeur_de_ville": false,
        "petites_villes_de_demain": false
      }
    },
    {
      "code_insee": "69008",
      "nom": "Ancy",
      "nom_a": null,
      "nom_de": null,
      "slug": "ancy",
      "code_postal": "69490",
      "population": 671,
      "superficie_km2": 1183.62,
      "latitude": 45.8362,
      "longitude": 4.5098,
      "villes_proches": [
        {
          "code_insee": "69234",
          "nom": "Saint-Romain-de-Popey",
          "slug": "saint-romain-de-popey",
          "code_postal": "69490",
          "population": 1725,
          "superficie_km2": 1708.97,
          "latitude": 45.855,
          "longitude": 4.5291,
          "distance_km": 2.57
        },
        {
          "code_insee": "69216",
          "nom": "Saint-Julien-sur-Bibost",
          "slug": "saint-julien-sur-bibost",
          "code_postal": "69690",
          "population": 622,
          "superficie_km2": 1332.83,
          "latitude": 45.7984,
          "longitude": 4.5087,
          "distance_km": 4.2
        },
        {
          "code_insee": "69200",
          "nom": "Saint-Forgeux",
          "slug": "saint-forgeux",
          "code_postal": "69490",
          "population": 1544,
          "superficie_km2": 2229.37,
          "latitude": 45.8522,
          "longitude": 4.4583,
          "distance_km": 4.37
        },
        {
          "code_insee": "69175",
          "nom": "Savigny",
          "slug": "savigny",
          "code_postal": "69210",
          "population": 1995,
          "superficie_km2": 2140.81,
          "latitude": 45.8174,
          "longitude": 4.5599,
          "distance_km": 4.41
        },
        {
          "code_insee": "69139",
          "nom": "Montrottier",
          "slug": "montrottier",
          "code_postal": "69770",
          "population": 1400,
          "superficie_km2": 2305.83,
          "latitude": 45.8014,
          "longitude": 4.4654,
          "distance_km": 5.18
        },
        {
          "code_insee": "69022",
          "nom": "Bibost",
          "slug": "bibost",
          "code_postal": "69690",
          "population": 538,
          "superficie_km2": 534.86,
          "latitude": 45.7976,
          "longitude": 4.5494,
          "distance_km": 5.28
        },
        {
          "code_insee": "69032",
          "nom": "Bully",
          "slug": "bully",
          "code_postal": "69210",
          "population": 2213,
          "superficie_km2": 1277.8,
          "latitude": 45.8595,
          "longitude": 4.5786,
          "distance_km": 5.93
        },
        {
          "code_insee": "69157",
          "nom": "Vindry-sur-Turdine",
          "slug": "vindry-sur-turdine",
          "code_postal": "69490",
          "population": 5305,
          "superficie_km2": 2376.69,
          "latitude": 45.8886,
          "longitude": 4.4948,
          "distance_km": 5.94
        },
        {
          "code_insee": "69173",
          "nom": "Sarcey",
          "slug": "sarcey",
          "code_postal": "69490",
          "population": 980,
          "superficie_km2": 1005.31,
          "latitude": 45.8839,
          "longitude": 4.5572,
          "distance_km": 6.45
        },
        {
          "code_insee": "69225",
          "nom": "Saint-Marcel-l'Éclairé",
          "slug": "saint-marcel-l-eclaire",
          "code_postal": "69170",
          "population": 575,
          "superficie_km2": 1185.87,
          "latitude": 45.8712,
          "longitude": 4.4279,
          "distance_km": 7.44
        },
        {
          "code_insee": "69171",
          "nom": "Sain-Bel",
          "slug": "sain-bel",
          "code_postal": "69210",
          "population": 2566,
          "superficie_km2": 381.65,
          "latitude": 45.8115,
          "longitude": 4.6017,
          "distance_km": 7.63
        },
        {
          "code_insee": "69001",
          "nom": "Affoux",
          "slug": "affoux",
          "code_postal": "69170",
          "population": 398,
          "superficie_km2": 1063.77,
          "latitude": 45.8448,
          "longitude": 4.4116,
          "distance_km": 7.67
        },
        {
          "code_insee": "69010",
          "nom": "L'Arbresle",
          "slug": "l-arbresle",
          "code_postal": "69210",
          "population": 6537,
          "superficie_km2": 335.51,
          "latitude": 45.8347,
          "longitude": 4.6102,
          "distance_km": 7.78
        },
        {
          "code_insee": "69021",
          "nom": "Bessenay",
          "slug": "bessenay",
          "code_postal": "69690",
          "population": 2331,
          "superficie_km2": 1398.72,
          "latitude": 45.7712,
          "longitude": 4.5484,
          "distance_km": 7.82
        },
        {
          "code_insee": "69030",
          "nom": "Brullioles",
          "slug": "brullioles",
          "code_postal": "69690",
          "population": 821,
          "superficie_km2": 1252.93,
          "latitude": 45.7617,
          "longitude": 4.49,
          "distance_km": 8.43
        },
        {
          "code_insee": "69026",
          "nom": "Le Breuil",
          "slug": "le-breuil",
          "code_postal": "69620",
          "population": 533,
          "superficie_km2": 565.55,
          "latitude": 45.8909,
          "longitude": 4.5889,
          "distance_km": 8.63
        },
        {
          "code_insee": "69120",
          "nom": "Longessaigne",
          "slug": "longessaigne",
          "code_postal": "69770",
          "population": 589,
          "superficie_km2": 1196.62,
          "latitude": 45.7833,
          "longitude": 4.4277,
          "distance_km": 8.67
        },
        {
          "code_insee": "69111",
          "nom": "Légny",
          "slug": "legny",
          "code_postal": "69620",
          "population": 685,
          "superficie_km2": 407.81,
          "latitude": 45.905,
          "longitude": 4.5742,
          "distance_km": 9.13
        },
        {
          "code_insee": "69239",
          "nom": "Saint-Vérand",
          "slug": "saint-verand",
          "code_postal": "69620",
          "population": 1164,
          "superficie_km2": 1756.88,
          "latitude": 45.9234,
          "longitude": 4.5208,
          "distance_km": 9.73
        },
        {
          "code_insee": "69031",
          "nom": "Brussieu",
          "slug": "brussieu",
          "code_postal": "69690",
          "population": 1382,
          "superficie_km2": 681.52,
          "latitude": 45.745,
          "longitude": 4.5201,
          "distance_km": 10.17
        }
      ],
      "zonage_abc": "C",
      "reclassement_abc": "Non",
      "codes_postaux": [
        {
          "code_postal": "69490",
          "libelle_acheminement": "ANCY"
        }
      ],
      "logement": {
        "logements_total": 307,
        "residences_principales": 259,
        "logements_vacants": 32,
        "residences_secondaires": 15,
        "maisons": 293,
        "appartements": 10,
        "proprietaires": 214,
        "locataires": 39,
        "hlm": 4,
        "construits_avant_1919": 81,
        "construits_1919_1945": 14,
        "construits_1946_1970": 19,
        "construits_1971_1990": 38,
        "construits_1991_2005": 34,
        "construits_2006_2019": 50,
        "chauffage_electrique": 90,
        "chauffage_fioul": 37,
        "chauffage_gaz_ville": 0,
        "chauffage_gaz_bouteille": 0,
        "chauffage_autre": 130,
        "menages": 259,
        "logements_avant_1990": 152
      },
      "artisans": {
        "monte_escalier": 0,
        "chauffage_pac_clim": 0,
        "isolation": 1,
        "menuiserie": 1,
        "fenetres_velux": 1,
        "couverture_toiture": 1,
        "facade_peinture": 0,
        "portes_volets": 1,
        "piscine": 0,
        "vmc_ventilation": 0,
        "assainissement": 0
      },
      "revenus": {
        "revenu_median": 23800.0,
        "part_menages_imposes": null,
        "taux_pauvrete": null
      },
      "aides_etat": {
        "zone_climatique": "H1",
        "qpv": false,
        "action_coeur_de_ville": false,
        "petites_villes_de_demain": false
      }
    },
    {
      "code_insee": "69009",
      "nom": "Anse",
      "nom_a": null,
      "nom_de": null,
      "slug": "anse",
      "code_postal": "69480",
      "population": 7947,
      "superficie_km2": 15.0,
      "latitude": 45.9420013,
      "longitude": 4.7080002,
      "villes_proches": [
        {
          "code_insee": "69156",
          "nom": "Pommiers",
          "slug": "pommiers",
          "code_postal": "69480",
          "population": 2657,
          "superficie_km2": 8.0,
          "latitude": 45.9580002,
          "longitude": 4.6880002,
          "distance_km": 2.36
        },
        {
          "code_insee": "69106",
          "nom": "Lachassagne",
          "slug": "lachassagne",
          "code_postal": "69480",
          "population": 1264,
          "superficie_km2": 4.0,
          "latitude": 45.9269981,
          "longitude": 4.6789999,
          "distance_km": 2.8
        },
        {
          "code_insee": "01339",
          "nom": "Saint-Bernard",
          "slug": "saint-bernard",
          "code_postal": "01600",
          "population": 1497,
          "superficie_km2": 3.0,
          "latitude": 45.9490013,
          "longitude": 4.743,
          "distance_km": 2.82
        },
        {
          "code_insee": "69122",
          "nom": "Lucenay",
          "slug": "lucenay",
          "code_postal": "69480",
          "population": 2051,
          "superficie_km2": 6.0,
          "latitude": 45.9140015,
          "longitude": 4.7090001,
          "distance_km": 3.11
        },
        {
          "code_insee": "69115",
          "nom": "Limas",
          "slug": "limas",
          "code_postal": "69400",
          "population": 4790,
          "superficie_km2": 6.0,
          "latitude": 45.9720001,
          "longitude": 4.7189999,
          "distance_km": 3.44
        },
        {
          "code_insee": "01427",
          "nom": "Trévoux",
          "slug": "trevoux",
          "code_postal": "01600",
          "population": 6947,
          "superficie_km2": 6.0,
          "latitude": 45.9410019,
          "longitude": 4.7709999,
          "distance_km": 4.87
        },
        {
          "code_insee": "69159",
          "nom": "Porte des Pierres Dorées",
          "slug": "porte-des-pierres-dorees",
          "code_postal": "69640",
          "population": 3975,
          "superficie_km2": 4.0,
          "latitude": 45.9550018,
          "longitude": 4.6459999,
          "distance_km": 5.01
        },
        {
          "code_insee": "69140",
          "nom": "Morancé",
          "slug": "morance",
          "code_postal": "69480",
          "population": 2176,
          "superficie_km2": 9.0,
          "latitude": 45.894001,
          "longitude": 4.6999998,
          "distance_km": 5.37
        },
        {
          "code_insee": "69264",
          "nom": "Villefranche-sur-Saône",
          "slug": "villefranche-sur-saone",
          "code_postal": "69400",
          "population": 35913,
          "superficie_km2": 9.0,
          "latitude": 45.987999,
          "longitude": 4.7319999,
          "distance_km": 5.44
        },
        {
          "code_insee": "01347",
          "nom": "Saint-Didier-de-Formans",
          "slug": "saint-didier-de-formans",
          "code_postal": "01600",
          "population": 2141,
          "superficie_km2": 7.0,
          "latitude": 45.9560013,
          "longitude": 4.7779999,
          "distance_km": 5.63
        },
        {
          "code_insee": "69092",
          "nom": "Gleizé",
          "slug": "gleize",
          "code_postal": "69400",
          "population": 7614,
          "superficie_km2": 10.0,
          "latitude": 45.9910011,
          "longitude": 4.6880002,
          "distance_km": 5.66
        },
        {
          "code_insee": "01194",
          "nom": "Jassans-Riottier",
          "slug": "jassans-riottier",
          "code_postal": "01480",
          "population": 6355,
          "superficie_km2": 5.0,
          "latitude": 45.9780006,
          "longitude": 4.7600002,
          "distance_km": 5.67
        },
        {
          "code_insee": "69163",
          "nom": "Quincieux",
          "slug": "quincieux",
          "code_postal": "69650",
          "population": 3549,
          "superficie_km2": 18.0,
          "latitude": 45.9140015,
          "longitude": 4.7740002,
          "distance_km": 5.98
        },
        {
          "code_insee": "69055",
          "nom": "Les Chères",
          "slug": "les-cheres",
          "code_postal": "69380",
          "population": 1506,
          "superficie_km2": 6.0,
          "latitude": 45.8930016,
          "longitude": 4.743,
          "distance_km": 6.08
        },
        {
          "code_insee": "69246",
          "nom": "Theizé",
          "slug": "theize",
          "code_postal": "69620",
          "population": 1309,
          "superficie_km2": 12.0,
          "latitude": 45.9410019,
          "longitude": 4.6269999,
          "distance_km": 6.26
        },
        {
          "code_insee": "69105",
          "nom": "Lacenas",
          "slug": "lacenas",
          "code_postal": "69640",
          "population": 1027,
          "superficie_km2": 3.0,
          "latitude": 45.9860001,
          "longitude": 4.6479998,
          "distance_km": 6.74
        },
        {
          "code_insee": "69047",
          "nom": "Charnay",
          "slug": "charnay",
          "code_postal": "69380",
          "population": 1039,
          "superficie_km2": 7.0,
          "latitude": 45.8909988,
          "longitude": 4.6609998,
          "distance_km": 6.74
        },
        {
          "code_insee": "01353",
          "nom": "Sainte-Euphémie",
          "slug": "sainte-euphemie",
          "code_postal": "01600",
          "population": 1730,
          "superficie_km2": 5.0,
          "latitude": 45.9669991,
          "longitude": 4.7950001,
          "distance_km": 7.28
        },
        {
          "code_insee": "69052",
          "nom": "Chazay-d'Azergues",
          "slug": "chazay-d-azergues",
          "code_postal": "69380",
          "population": 4164,
          "superficie_km2": 6.0,
          "latitude": 45.8759995,
          "longitude": 4.7090001,
          "distance_km": 7.34
        },
        {
          "code_insee": "01166",
          "nom": "Frans",
          "slug": "frans",
          "code_postal": "01480",
          "population": 2482,
          "superficie_km2": 8.0,
          "latitude": 45.9939995,
          "longitude": 4.7800002,
          "distance_km": 8.02
        }
      ],
      "zonage_abc": "B1",
      "reclassement_abc": "Non",
      "codes_postaux": [
        {
          "code_postal": "69480",
          "libelle_acheminement": "ANSE"
        }
      ],
      "logement": {
        "logements_total": 3422,
        "residences_principales": 3243,
        "logements_vacants": 130,
        "residences_secondaires": 49,
        "maisons": 1985,
        "appartements": 1422,
        "proprietaires": 1890,
        "locataires": 1301,
        "hlm": 658,
        "construits_avant_1919": 334,
        "construits_1919_1945": 146,
        "construits_1946_1970": 380,
        "construits_1971_1990": 661,
        "construits_1991_2005": 438,
        "construits_2006_2019": 1046,
        "chauffage_electrique": 1200,
        "chauffage_fioul": 153,
        "chauffage_gaz_ville": 1508,
        "chauffage_gaz_bouteille": 49,
        "chauffage_autre": 333,
        "menages": 3243,
        "logements_avant_1990": 1521
      },
      "artisans": {
        "monte_escalier": 0,
        "chauffage_pac_clim": 10,
        "isolation": 19,
        "menuiserie": 10,
        "fenetres_velux": 10,
        "couverture_toiture": 5,
        "facade_peinture": 9,
        "portes_volets": 10,
        "piscine": 10,
        "vmc_ventilation": 5,
        "assainissement": 7
      },
      "revenus": {
        "revenu_median": 24000.0,
        "part_menages_imposes": 55.0,
        "taux_pauvrete": 9.0
      },
      "aides_etat": {
        "zone_climatique": "H1",
        "qpv": false,
        "action_coeur_de_ville": false,
        "petites_villes_de_demain": false
      }
    },
    {
      "code_insee": "69013",
      "nom": "Arnas",
      "nom_a": null,
      "nom_de": null,
      "slug": "arnas",
      "code_postal": "69400",
      "population": 4215,
      "superficie_km2": 18.0,
      "latitude": 46.019001,
      "longitude": 4.711,
      "villes_proches": [
        {
          "code_insee": "69092",
          "nom": "Gleizé",
          "slug": "gleize",
          "code_postal": "69400",
          "population": 7614,
          "superficie_km2": 10.0,
          "latitude": 45.9910011,
          "longitude": 4.6880002,
          "distance_km": 3.58
        },
        {
          "code_insee": "69264",
          "nom": "Villefranche-sur-Saône",
          "slug": "villefranche-sur-saone",
          "code_postal": "69400",
          "population": 35913,
          "superficie_km2": 9.0,
          "latitude": 45.987999,
          "longitude": 4.7319999,
          "distance_km": 3.81
        },
        {
          "code_insee": "01157",
          "nom": "Fareins",
          "slug": "fareins",
          "code_postal": "01480",
          "population": 2431,
          "superficie_km2": 8.0,
          "latitude": 46.0209999,
          "longitude": 4.7620001,
          "distance_km": 3.94
        },
        {
          "code_insee": "69206",
          "nom": "Saint-Georges-de-Reneins",
          "slug": "saint-georges-de-reneins",
          "code_postal": "69830",
          "population": 4461,
          "superficie_km2": 27.0,
          "latitude": 46.0579987,
          "longitude": 4.7210002,
          "distance_km": 4.4
        },
        {
          "code_insee": "69074",
          "nom": "Denicé",
          "slug": "denice",
          "code_postal": "69640",
          "population": 1564,
          "superficie_km2": 9.0,
          "latitude": 46.0050011,
          "longitude": 4.652,
          "distance_km": 4.81
        },
        {
          "code_insee": "01243",
          "nom": "Messimy-sur-Saône",
          "slug": "messimy-sur-saone",
          "code_postal": "01480",
          "population": 1288,
          "superficie_km2": 6.0,
          "latitude": 46.0470009,
          "longitude": 4.7589998,
          "distance_km": 4.84
        },
        {
          "code_insee": "69115",
          "nom": "Limas",
          "slug": "limas",
          "code_postal": "69400",
          "population": 4790,
          "superficie_km2": 6.0,
          "latitude": 45.9720001,
          "longitude": 4.7189999,
          "distance_km": 5.26
        },
        {
          "code_insee": "01194",
          "nom": "Jassans-Riottier",
          "slug": "jassans-riottier",
          "code_postal": "01480",
          "population": 6355,
          "superficie_km2": 5.0,
          "latitude": 45.9780006,
          "longitude": 4.7600002,
          "distance_km": 5.93
        },
        {
          "code_insee": "01166",
          "nom": "Frans",
          "slug": "frans",
          "code_postal": "01480",
          "population": 2482,
          "superficie_km2": 8.0,
          "latitude": 45.9939995,
          "longitude": 4.7800002,
          "distance_km": 6.01
        },
        {
          "code_insee": "69023",
          "nom": "Blacé",
          "slug": "blace",
          "code_postal": "69460",
          "population": 1669,
          "superficie_km2": 11.0,
          "latitude": 46.0349999,
          "longitude": 4.6360002,
          "distance_km": 6.06
        },
        {
          "code_insee": "69105",
          "nom": "Lacenas",
          "slug": "lacenas",
          "code_postal": "69640",
          "population": 1027,
          "superficie_km2": 3.0,
          "latitude": 45.9860001,
          "longitude": 4.6479998,
          "distance_km": 6.09
        },
        {
          "code_insee": "69197",
          "nom": "Saint-Étienne-des-Oullières",
          "slug": "saint-etienne-des-oullieres",
          "code_postal": "69460",
          "population": 2206,
          "superficie_km2": 10.0,
          "latitude": 46.0629997,
          "longitude": 4.6560001,
          "distance_km": 6.48
        },
        {
          "code_insee": "01075",
          "nom": "Chaleins",
          "slug": "chaleins",
          "code_postal": "01480",
          "population": 1430,
          "superficie_km2": 17.0,
          "latitude": 46.0340004,
          "longitude": 4.7979999,
          "distance_km": 6.92
        },
        {
          "code_insee": "69156",
          "nom": "Pommiers",
          "slug": "pommiers",
          "code_postal": "69480",
          "population": 2657,
          "superficie_km2": 8.0,
          "latitude": 45.9580002,
          "longitude": 4.6880002,
          "distance_km": 7.01
        },
        {
          "code_insee": "69045",
          "nom": "Charentay",
          "slug": "charentay",
          "code_postal": "69220",
          "population": 1265,
          "superficie_km2": 14.0,
          "latitude": 46.0839996,
          "longitude": 4.6890001,
          "distance_km": 7.42
        },
        {
          "code_insee": "01339",
          "nom": "Saint-Bernard",
          "slug": "saint-bernard",
          "code_postal": "01600",
          "population": 1497,
          "superficie_km2": 3.0,
          "latitude": 45.9490013,
          "longitude": 4.743,
          "distance_km": 8.17
        },
        {
          "code_insee": "01263",
          "nom": "Montmerle-sur-Saône",
          "slug": "montmerle-sur-saone",
          "code_postal": "01090",
          "population": 3792,
          "superficie_km2": 4.0,
          "latitude": 46.0849991,
          "longitude": 4.7610002,
          "distance_km": 8.29
        },
        {
          "code_insee": "69061",
          "nom": "Cogny",
          "slug": "cogny",
          "code_postal": "69640",
          "population": 1204,
          "superficie_km2": 6.0,
          "latitude": 45.987999,
          "longitude": 4.6100001,
          "distance_km": 8.53
        },
        {
          "code_insee": "69009",
          "nom": "Anse",
          "slug": "anse",
          "code_postal": "69480",
          "population": 7947,
          "superficie_km2": 15.0,
          "latitude": 45.9420013,
          "longitude": 4.7080002,
          "distance_km": 8.57
        },
        {
          "code_insee": "01353",
          "nom": "Sainte-Euphémie",
          "slug": "sainte-euphemie",
          "code_postal": "01600",
          "population": 1730,
          "superficie_km2": 5.0,
          "latitude": 45.9669991,
          "longitude": 4.7950001,
          "distance_km": 8.69
        }
      ],
      "zonage_abc": "B1",
      "reclassement_abc": "Non",
      "codes_postaux": [
        {
          "code_postal": "69400",
          "libelle_acheminement": "ARNAS"
        }
      ],
      "logement": {
        "logements_total": 1871,
        "residences_principales": 1742,
        "logements_vacants": 104,
        "residences_secondaires": 24,
        "maisons": 1268,
        "appartements": 601,
        "proprietaires": 1182,
        "locataires": 541,
        "hlm": 285,
        "construits_avant_1919": 172,
        "construits_1919_1945": 57,
        "construits_1946_1970": 214,
        "construits_1971_1990": 473,
        "construits_1991_2005": 254,
        "construits_2006_2019": 343,
        "chauffage_electrique": 548,
        "chauffage_fioul": 118,
        "chauffage_gaz_ville": 860,
        "chauffage_gaz_bouteille": 20,
        "chauffage_autre": 195,
        "menages": 1742,
        "logements_avant_1990": 916
      },
      "artisans": {
        "monte_escalier": 3,
        "chauffage_pac_clim": 10,
        "isolation": 13,
        "menuiserie": 14,
        "fenetres_velux": 14,
        "couverture_toiture": 5,
        "facade_peinture": 6,
        "portes_volets": 14,
        "piscine": 2,
        "vmc_ventilation": 7,
        "assainissement": 5
      },
      "revenus": {
        "revenu_median": 24640.0,
        "part_menages_imposes": 56.0,
        "taux_pauvrete": 8.0
      },
      "aides_etat": {
        "zone_climatique": "H1",
        "qpv": false,
        "action_coeur_de_ville": false,
        "petites_villes_de_demain": false
      }
    },
    {
      "code_insee": "69014",
      "nom": "Aveize",
      "nom_a": null,
      "nom_de": null,
      "slug": "aveize",
      "code_postal": "69610",
      "population": 1115,
      "superficie_km2": 17.0,
      "latitude": 45.6790009,
      "longitude": 4.4759998,
      "villes_proches": [
        {
          "code_insee": "69201",
          "nom": "Sainte-Foy-l'Argentière",
          "slug": "sainte-foy-l-argentiere",
          "code_postal": "69610",
          "population": 1291,
          "superficie_km2": 2.0,
          "latitude": 45.7050018,
          "longitude": 4.4699998,
          "distance_km": 2.93
        },
        {
          "code_insee": "69155",
          "nom": "Pomeys",
          "slug": "pomeys",
          "code_postal": "69590",
          "population": 1132,
          "superficie_km2": 13.0,
          "latitude": 45.6459999,
          "longitude": 4.4460001,
          "distance_km": 4.35
        },
        {
          "code_insee": "69238",
          "nom": "Saint-Symphorien-sur-Coise",
          "slug": "saint-symphorien-sur-coise",
          "code_postal": "69590",
          "population": 3712,
          "superficie_km2": 4.0,
          "latitude": 45.6310005,
          "longitude": 4.4499998,
          "distance_km": 5.71
        },
        {
          "code_insee": "69220",
          "nom": "Saint-Laurent-de-Chamousset",
          "slug": "saint-laurent-de-chamousset",
          "code_postal": "69930",
          "population": 1883,
          "superficie_km2": 17.0,
          "latitude": 45.737999,
          "longitude": 4.4650002,
          "distance_km": 6.62
        },
        {
          "code_insee": "69099",
          "nom": "Haute-Rivoire",
          "slug": "haute-rivoire",
          "code_postal": "69610",
          "population": 1431,
          "superficie_km2": 21.0,
          "latitude": 45.7140007,
          "longitude": 4.4060001,
          "distance_km": 6.69
        },
        {
          "code_insee": "69227",
          "nom": "Saint-Martin-en-Haut",
          "slug": "saint-martin-en-haut",
          "code_postal": "69850",
          "population": 3891,
          "superficie_km2": 39.0,
          "latitude": 45.658001,
          "longitude": 4.5580001,
          "distance_km": 6.79
        },
        {
          "code_insee": "69031",
          "nom": "Brussieu",
          "slug": "brussieu",
          "code_postal": "69690",
          "population": 1376,
          "superficie_km2": 7.0,
          "latitude": 45.7470017,
          "longitude": 4.5170002,
          "distance_km": 8.2
        },
        {
          "code_insee": "69110",
          "nom": "Larajasse",
          "slug": "larajasse",
          "code_postal": "69590",
          "population": 1834,
          "superficie_km2": 34.0,
          "latitude": 45.6080017,
          "longitude": 4.5149999,
          "distance_km": 8.46
        },
        {
          "code_insee": "42059",
          "nom": "Chazelles-sur-Lyon",
          "slug": "chazelles-sur-lyon",
          "code_postal": "42140",
          "population": 5472,
          "superficie_km2": 21.0,
          "latitude": 45.6290016,
          "longitude": 4.3740001,
          "distance_km": 9.68
        },
        {
          "code_insee": "69067",
          "nom": "Courzieu",
          "slug": "courzieu",
          "code_postal": "69690",
          "population": 1172,
          "superficie_km2": 27.0,
          "latitude": 45.7410011,
          "longitude": 4.5700002,
          "distance_km": 10.04
        },
        {
          "code_insee": "42062",
          "nom": "Chevrières",
          "slug": "chevrieres",
          "code_postal": "42140",
          "population": 1160,
          "superficie_km2": 15.0,
          "latitude": 45.5900002,
          "longitude": 4.408,
          "distance_km": 11.22
        },
        {
          "code_insee": "69170",
          "nom": "Rontalon",
          "slug": "rontalon",
          "code_postal": "69510",
          "population": 1164,
          "superficie_km2": 13.0,
          "latitude": 45.6570015,
          "longitude": 4.618,
          "distance_km": 11.3
        },
        {
          "code_insee": "69249",
          "nom": "Thurins",
          "slug": "thurins",
          "code_postal": "69510",
          "population": 3131,
          "superficie_km2": 19.0,
          "latitude": 45.6839981,
          "longitude": 4.6259999,
          "distance_km": 11.67
        },
        {
          "code_insee": "69021",
          "nom": "Bessenay",
          "slug": "bessenay",
          "code_postal": "69690",
          "population": 2348,
          "superficie_km2": 14.0,
          "latitude": 45.7739983,
          "longitude": 4.5469999,
          "distance_km": 11.91
        },
        {
          "code_insee": "69051",
          "nom": "Chaussan",
          "slug": "chaussan",
          "code_postal": "69440",
          "population": 1208,
          "superficie_km2": 8.0,
          "latitude": 45.6380005,
          "longitude": 4.6339998,
          "distance_km": 13.1
        },
        {
          "code_insee": "69139",
          "nom": "Montrottier",
          "slug": "montrottier",
          "code_postal": "69770",
          "population": 1386,
          "superficie_km2": 23.0,
          "latitude": 45.7999992,
          "longitude": 4.4640002,
          "distance_km": 13.49
        },
        {
          "code_insee": "42013",
          "nom": "Bellegarde-en-Forez",
          "slug": "bellegarde-en-forez",
          "code_postal": "42210",
          "population": 1991,
          "superficie_km2": 19.0,
          "latitude": 45.6409988,
          "longitude": 4.309,
          "distance_km": 13.65
        },
        {
          "code_insee": "42283",
          "nom": "Saint-Romain-en-Jarez",
          "slug": "saint-romain-en-jarez",
          "code_postal": "42800",
          "population": 1211,
          "superficie_km2": 17.0,
          "latitude": 45.5649986,
          "longitude": 4.5419998,
          "distance_km": 13.68
        },
        {
          "code_insee": "69255",
          "nom": "Vaugneray",
          "slug": "vaugneray",
          "code_postal": "69670",
          "population": 6091,
          "superficie_km2": 22.0,
          "latitude": 45.7319984,
          "longitude": 4.6440001,
          "distance_km": 14.31
        },
        {
          "code_insee": "42010",
          "nom": "Aveizieux",
          "slug": "aveizieux",
          "code_postal": "42330",
          "population": 1686,
          "superficie_km2": 9.0,
          "latitude": 45.5690002,
          "longitude": 4.3790002,
          "distance_km": 14.37
        }
      ],
      "zonage_abc": "C",
      "reclassement_abc": "Non",
      "codes_postaux": [
        {
          "code_postal": "69610",
          "libelle_acheminement": "AVEIZE"
        }
      ],
      "logement": {
        "logements_total": 471,
        "residences_principales": 420,
        "logements_vacants": 23,
        "residences_secondaires": 28,
        "maisons": 428,
        "appartements": 41,
        "proprietaires": 356,
        "locataires": 60,
        "hlm": 25,
        "construits_avant_1919": 120,
        "construits_1919_1945": 19,
        "construits_1946_1970": 21,
        "construits_1971_1990": 107,
        "construits_1991_2005": 73,
        "construits_2006_2019": 72,
        "chauffage_electrique": 124,
        "chauffage_fioul": 90,
        "chauffage_gaz_ville": 69,
        "chauffage_gaz_bouteille": 2,
        "chauffage_autre": 135,
        "menages": 420,
        "logements_avant_1990": 267
      },
      "artisans": {
        "monte_escalier": 0,
        "chauffage_pac_clim": 2,
        "isolation": 4,
        "menuiserie": 2,
        "fenetres_velux": 2,
        "couverture_toiture": 1,
        "facade_peinture": 1,
        "portes_volets": 2,
        "piscine": 1,
        "vmc_ventilation": 0,
        "assainissement": 2
      },
      "revenus": {
        "revenu_median": 22600.0,
        "part_menages_imposes": null,
        "taux_pauvrete": null
      },
      "aides_etat": {
        "zone_climatique": "H1",
        "qpv": false,
        "action_coeur_de_ville": false,
        "petites_villes_de_demain": false
      }
    },
    {
      "code_insee": "69016",
      "nom": "Azolette",
      "nom_a": null,
      "nom_de": null,
      "slug": "azolette",
      "code_postal": "69790",
      "population": 120,
      "superficie_km2": 425.76,
      "latitude": 46.1917,
      "longitude": 4.4146,
      "villes_proches": [
        {
          "code_insee": "42229",
          "nom": "Saint-Germain-la-Montagne",
          "slug": "saint-germain-la-montagne",
          "code_postal": "42670",
          "population": 211,
          "superficie_km2": 1257.41,
          "latitude": 46.1965,
          "longitude": 4.3925,
          "distance_km": 1.78
        },
        {
          "code_insee": "69161",
          "nom": "Propières",
          "slug": "propieres",
          "code_postal": "69790",
          "population": 484,
          "superficie_km2": 1627.78,
          "latitude": 46.1909,
          "longitude": 4.4503,
          "distance_km": 2.75
        },
        {
          "code_insee": "42014",
          "nom": "Belleroche",
          "slug": "belleroche",
          "code_postal": "42670",
          "population": 313,
          "superficie_km2": 1400.68,
          "latitude": 46.1591,
          "longitude": 4.4103,
          "distance_km": 3.64
        },
        {
          "code_insee": "69186",
          "nom": "Saint-Clément-de-Vers",
          "slug": "saint-clement-de-vers",
          "code_postal": "69790",
          "population": 206,
          "superficie_km2": 894.33,
          "latitude": 46.2272,
          "longitude": 4.4157,
          "distance_km": 3.95
        },
        {
          "code_insee": "69209",
          "nom": "Saint-Igny-de-Vers",
          "slug": "saint-igny-de-vers",
          "code_postal": "69790",
          "population": 593,
          "superficie_km2": 2720.97,
          "latitude": 46.2368,
          "longitude": 4.4381,
          "distance_km": 5.33
        },
        {
          "code_insee": "71120",
          "nom": "Chauffailles",
          "slug": "chauffailles",
          "code_postal": "71170",
          "population": 3638,
          "superficie_km2": 2276.15,
          "latitude": 46.2055,
          "longitude": 4.3418,
          "distance_km": 5.81
        },
        {
          "code_insee": "71008",
          "nom": "Anglure-sous-Dun",
          "slug": "anglure-sous-dun",
          "code_postal": "71170",
          "population": 143,
          "superficie_km2": 710.68,
          "latitude": 46.2359,
          "longitude": 4.3694,
          "distance_km": 6.02
        },
        {
          "code_insee": "42015",
          "nom": "Belmont-de-la-Loire",
          "slug": "belmont-de-la-loire",
          "code_postal": "42670",
          "population": 1410,
          "superficie_km2": 2383.64,
          "latitude": 46.1612,
          "longitude": 4.3493,
          "distance_km": 6.06
        },
        {
          "code_insee": "69054",
          "nom": "Chénelette",
          "slug": "chenelette",
          "code_postal": "69430",
          "population": 369,
          "superficie_km2": 1103.41,
          "latitude": 46.1707,
          "longitude": 4.4895,
          "distance_km": 6.22
        },
        {
          "code_insee": "69160",
          "nom": "Poule-les-Écharmeaux",
          "slug": "poule-les-echarmeaux",
          "code_postal": "69870",
          "population": 1023,
          "superficie_km2": 3128.49,
          "latitude": 46.1458,
          "longitude": 4.4698,
          "distance_km": 6.64
        },
        {
          "code_insee": "69164",
          "nom": "Ranchal",
          "slug": "ranchal",
          "code_postal": "69470",
          "population": 304,
          "superficie_km2": 1515.2,
          "latitude": 46.125,
          "longitude": 4.3974,
          "distance_km": 7.53
        },
        {
          "code_insee": "71327",
          "nom": "Mussy-sous-Dun",
          "slug": "mussy-sous-dun",
          "code_postal": "71170",
          "population": 327,
          "superficie_km2": 876.79,
          "latitude": 46.238,
          "longitude": 4.335,
          "distance_km": 8.0
        },
        {
          "code_insee": "71428",
          "nom": "Saint-Igny-de-Roche",
          "slug": "saint-igny-de-roche",
          "code_postal": "71170",
          "population": 789,
          "superficie_km2": 798.03,
          "latitude": 46.1878,
          "longitude": 4.303,
          "distance_km": 8.6
        },
        {
          "code_insee": "71473",
          "nom": "Saint-Racho",
          "slug": "saint-racho",
          "code_postal": "71800",
          "population": 158,
          "superficie_km2": 1058.4,
          "latitude": 46.2632,
          "longitude": 4.3702,
          "distance_km": 8.65
        },
        {
          "code_insee": "69012",
          "nom": "Les Ardillats",
          "slug": "les-ardillats",
          "code_postal": "69430",
          "population": 628,
          "superficie_km2": 2295.13,
          "latitude": 46.1885,
          "longitude": 4.5293,
          "distance_km": 8.84
        },
        {
          "code_insee": "42086",
          "nom": "Écoche",
          "slug": "ecoche",
          "code_postal": "42670",
          "population": 525,
          "superficie_km2": 1111.83,
          "latitude": 46.1524,
          "longitude": 4.3077,
          "distance_km": 9.32
        },
        {
          "code_insee": "69182",
          "nom": "Saint-Bonnet-des-Bruyères",
          "slug": "saint-bonnet-des-bruyeres",
          "code_postal": "69790",
          "population": 368,
          "superficie_km2": 2125.79,
          "latitude": 46.2669,
          "longitude": 4.4721,
          "distance_km": 9.46
        },
        {
          "code_insee": "69002",
          "nom": "Aigueperse",
          "slug": "aigueperse",
          "code_postal": "69790",
          "population": 235,
          "superficie_km2": 1293.9,
          "latitude": 46.2822,
          "longitude": 4.4268,
          "distance_km": 10.11
        },
        {
          "code_insee": "71116",
          "nom": "Châtenay",
          "slug": "chatenay",
          "code_postal": "71800",
          "population": 166,
          "superficie_km2": 828.12,
          "latitude": 46.2898,
          "longitude": 4.3814,
          "distance_km": 11.2
        },
        {
          "code_insee": "69183",
          "nom": "Saint-Bonnet-le-Troncy",
          "slug": "saint-bonnet-le-troncy",
          "code_postal": "69870",
          "population": 307,
          "superficie_km2": 1550.47,
          "latitude": 46.0781,
          "longitude": 4.4172,
          "distance_km": 12.63
        }
      ],
      "zonage_abc": "C",
      "reclassement_abc": "Non",
      "codes_postaux": [
        {
          "code_postal": "69790",
          "libelle_acheminement": "AZOLETTE"
        }
      ],
      "logement": {
        "logements_total": 86,
        "residences_principales": 53,
        "logements_vacants": 6,
        "residences_secondaires": 27,
        "maisons": 84,
        "appartements": 2,
        "proprietaires": 43,
        "locataires": 10,
        "hlm": 0,
        "construits_avant_1919": 20,
        "construits_1919_1945": 5,
        "construits_1946_1970": 6,
        "construits_1971_1990": 11,
        "construits_1991_2005": 5,
        "construits_2006_2019": 6,
        "chauffage_electrique": 13,
        "chauffage_fioul": 10,
        "chauffage_gaz_ville": 0,
        "chauffage_gaz_bouteille": 4,
        "chauffage_autre": 26,
        "menages": 53,
        "logements_avant_1990": 42
      },
      "artisans": {
        "monte_escalier": 0,
        "chauffage_pac_clim": 1,
        "isolation": 0,
        "menuiserie": 0,
        "fenetres_velux": 0,
        "couverture_toiture": 0,
        "facade_peinture": 0,
        "portes_volets": 0,
        "piscine": 0,
        "vmc_ventilation": 1,
        "assainissement": 0
      },
      "revenus": {
        "revenu_median": 21550.0,
        "part_menages_imposes": null,
        "taux_pauvrete": null
      },
      "aides_etat": {
        "zone_climatique": "H1",
        "qpv": false,
        "action_coeur_de_ville": false,
        "petites_villes_de_demain": false
      }
    },
    {
      "code_insee": "69017",
      "nom": "Bagnols",
      "nom_a": null,
      "nom_de": null,
      "slug": "bagnols",
      "code_postal": "69620",
      "population": 765,
      "superficie_km2": 745.58,
      "latitude": 45.9104,
      "longitude": 4.6205,
      "villes_proches": [
        {
          "code_insee": "69090",
          "nom": "Frontenas",
          "slug": "frontenas",
          "code_postal": "69620",
          "population": 915,
          "superficie_km2": 348.85,
          "latitude": 45.9186,
          "longitude": 4.632,
          "distance_km": 1.27
        },