{
  "departement": {
    "code": "72",
    "nom": "Sarthe",
    "slug": "sarthe",
    "population_totale": 565501
  },
  "region": {
    "id": 18,
    "code": "17",
    "nom": "Pays de la Loire",
    "slug": "pays-de-la-loire"
  },
  "voisins": [
    {
      "dep_code": "44",
      "dep_nom": "Loire-Atlantique",
      "dep_slug": "loire-atlantique"
    },
    {
      "dep_code": "49",
      "dep_nom": "Maine-et-Loire",
      "dep_slug": "maine-et-loire"
    },
    {
      "dep_code": "53",
      "dep_nom": "Mayenne",
      "dep_slug": "mayenne"
    },
    {
      "dep_code": "85",
      "dep_nom": "Vendée",
      "dep_slug": "vendee"
    }
  ],
  "communes_count": 353,
  "communes": [
    {
      "code_insee": "72001",
      "nom": "Aigné",
      "nom_a": null,
      "nom_de": null,
      "slug": "aigne",
      "code_postal": "72650",
      "population": 1687,
      "superficie_km2": 13.0,
      "latitude": 48.0670013,
      "longitude": 0.106,
      "villes_proches": [
        {
          "code_insee": "72198",
          "nom": "La Milesse",
          "slug": "la-milesse",
          "code_postal": "72650",
          "population": 2642,
          "superficie_km2": 10.0,
          "latitude": 48.0670013,
          "longitude": 0.136,
          "distance_km": 2.23
        },
        {
          "code_insee": "72360",
          "nom": "Trangé",
          "slug": "trange",
          "code_postal": "72650",
          "population": 1596,
          "superficie_km2": 11.0,
          "latitude": 48.0289993,
          "longitude": 0.116,
          "distance_km": 4.29
        },
        {
          "code_insee": "72024",
          "nom": "La Bazoge",
          "slug": "la-bazoge",
          "code_postal": "72650",
          "population": 3699,
          "superficie_km2": 23.0,
          "latitude": 48.1030006,
          "longitude": 0.144,
          "distance_km": 4.9
        },
        {
          "code_insee": "72320",
          "nom": "Saint-Saturnin",
          "slug": "saint-saturnin",
          "code_postal": "72650",
          "population": 2706,
          "superficie_km2": 10.0,
          "latitude": 48.0589981,
          "longitude": 0.173,
          "distance_km": 5.06
        },
        {
          "code_insee": "72065",
          "nom": "La Chapelle-Saint-Aubin",
          "slug": "la-chapelle-saint-aubin",
          "code_postal": "72650",
          "population": 2268,
          "superficie_km2": 6.0,
          "latitude": 48.0359993,
          "longitude": 0.157,
          "distance_km": 5.12
        },
        {
          "code_insee": "72073",
          "nom": "Chaufour-Notre-Dame",
          "slug": "chaufour-notre-dame",
          "code_postal": "72550",
          "population": 1156,
          "superficie_km2": 11.0,
          "latitude": 48.0180016,
          "longitude": 0.063,
          "distance_km": 6.32
        },
        {
          "code_insee": "72119",
          "nom": "Domfront-en-Champagne",
          "slug": "domfront-en-champagne",
          "code_postal": "72240",
          "population": 1055,
          "superficie_km2": 21.0,
          "latitude": 48.1090012,
          "longitude": 0.045,
          "distance_km": 6.51
        },
        {
          "code_insee": "72310",
          "nom": "Saint-Pavace",
          "slug": "saint-pavace",
          "code_postal": "72190",
          "population": 1997,
          "superficie_km2": 5.0,
          "latitude": 48.0410004,
          "longitude": 0.195,
          "distance_km": 7.22
        },
        {
          "code_insee": "72257",
          "nom": "Rouillon",
          "slug": "rouillon",
          "code_postal": "72700",
          "population": 2322,
          "superficie_km2": 9.0,
          "latitude": 48.0,
          "longitude": 0.142,
          "distance_km": 7.92
        },
        {
          "code_insee": "72217",
          "nom": "Neuville-sur-Sarthe",
          "slug": "neuville-sur-sarthe",
          "code_postal": "72190",
          "population": 2462,
          "superficie_km2": 23.0,
          "latitude": 48.0760002,
          "longitude": 0.214,
          "distance_km": 8.09
        },
        {
          "code_insee": "72247",
          "nom": "Pruillé-le-Chétif",
          "slug": "pruille-le-chetif",
          "code_postal": "72700",
          "population": 1338,
          "superficie_km2": 10.0,
          "latitude": 47.993,
          "longitude": 0.106,
          "distance_km": 8.23
        },
        {
          "code_insee": "72096",
          "nom": "Coulans-sur-Gée",
          "slug": "coulans-sur-gee",
          "code_postal": "72550",
          "population": 1633,
          "superficie_km2": 27.0,
          "latitude": 48.0219994,
          "longitude": 0.017,
          "distance_km": 8.3
        },
        {
          "code_insee": "72095",
          "nom": "Coulaines",
          "slug": "coulaines",
          "code_postal": "72190",
          "population": 8003,
          "superficie_km2": 4.0,
          "latitude": 48.033001,
          "longitude": 0.211,
          "distance_km": 8.67
        },
        {
          "code_insee": "72289",
          "nom": "Sainte-Jamme-sur-Sarthe",
          "slug": "sainte-jamme-sur-sarthe",
          "code_postal": "72380",
          "population": 1987,
          "superficie_km2": 9.0,
          "latitude": 48.1380005,
          "longitude": 0.158,
          "distance_km": 8.79
        },
        {
          "code_insee": "72147",
          "nom": "La Guierche",
          "slug": "la-guierche",
          "code_postal": "72380",
          "population": 1231,
          "superficie_km2": 8.0,
          "latitude": 48.118,
          "longitude": 0.201,
          "distance_km": 9.05
        },
        {
          "code_insee": "72290",
          "nom": "Saint-Jean-d'Assé",
          "slug": "saint-jean-d-asse",
          "code_postal": "72380",
          "population": 1830,
          "superficie_km2": 21.0,
          "latitude": 48.158001,
          "longitude": 0.122,
          "distance_km": 10.19
        },
        {
          "code_insee": "72150",
          "nom": "Joué-l'Abbé",
          "slug": "joue-l-abbe",
          "code_postal": "72380",
          "population": 1270,
          "superficie_km2": 10.0,
          "latitude": 48.1080017,
          "longitude": 0.23,
          "distance_km": 10.28
        },
        {
          "code_insee": "72280",
          "nom": "Saint-Georges-du-Bois",
          "slug": "saint-georges-du-bois",
          "code_postal": "72700",
          "population": 2173,
          "superficie_km2": 7.0,
          "latitude": 47.9720001,
          "longitude": 0.101,
          "distance_km": 10.57
        },
        {
          "code_insee": "72089",
          "nom": "Conlie",
          "slug": "conlie",
          "code_postal": "72240",
          "population": 1835,
          "superficie_km2": 17.0,
          "latitude": 48.1220017,
          "longitude": -0.013,
          "distance_km": 10.75
        },
        {
          "code_insee": "72328",
          "nom": "Sargé-lès-le-Mans",
          "slug": "sarge-les-le-mans",
          "code_postal": "72190",
          "population": 3813,
          "superficie_km2": 14.0,
          "latitude": 48.0419998,
          "longitude": 0.247,
          "distance_km": 10.84
        }
      ],
      "zonage_abc": "B2",
      "reclassement_abc": "Non",
      "codes_postaux": [
        {
          "code_postal": "72650",
          "libelle_acheminement": "AIGNE"
        }
      ],
      "logement": {
        "logements_total": 690,
        "residences_principales": 655,
        "logements_vacants": 25,
        "residences_secondaires": 10,
        "maisons": 688,
        "appartements": 1,
        "proprietaires": 563,
        "locataires": 90,
        "hlm": 8,
        "construits_avant_1919": 73,
        "construits_1919_1945": 24,
        "construits_1946_1970": 42,
        "construits_1971_1990": 221,
        "construits_1991_2005": 157,
        "construits_2006_2019": 131,
        "chauffage_electrique": 247,
        "chauffage_fioul": 38,
        "chauffage_gaz_ville": 250,
        "chauffage_gaz_bouteille": 9,
        "chauffage_autre": 111,
        "menages": 655,
        "logements_avant_1990": 360
      },
      "artisans": {
        "monte_escalier": 0,
        "chauffage_pac_clim": 2,
        "isolation": 2,
        "menuiserie": 3,
        "fenetres_velux": 3,
        "couverture_toiture": 0,
        "facade_peinture": 0,
        "portes_volets": 3,
        "piscine": 0,
        "vmc_ventilation": 0,
        "assainissement": 2
      },
      "revenus": {
        "revenu_median": 23960.0,
        "part_menages_imposes": null,
        "taux_pauvrete": null
      },
      "aides_etat": {
        "zone_climatique": "H1",
        "qpv": false,
        "action_coeur_de_ville": false,
        "petites_villes_de_demain": false
      }
    },
    {
      "code_insee": "72002",
      "nom": "Aillières-Beauvoir",
      "nom_a": null,
      "nom_de": null,
      "slug": "aillieres-beauvoir",
      "code_postal": "72600",
      "population": 200,
      "superficie_km2": 1511.32,
      "latitude": 48.4005,
      "longitude": 0.321,
      "villes_proches": [
        {
          "code_insee": "72374",
          "nom": "Villaines-la-Carelle",
          "slug": "villaines-la-carelle",
          "code_postal": "72600",
          "population": 132,
          "superficie_km2": 1479.85,
          "latitude": 48.393,
          "longitude": 0.2975,
          "distance_km": 1.93
        },
        {
          "code_insee": "72091",
          "nom": "Contilly",
          "slug": "contilly",
          "code_postal": "72600",
          "population": 134,
          "superficie_km2": 1250.57,
          "latitude": 48.4127,
          "longitude": 0.3562,
          "distance_km": 2.93
        },
        {
          "code_insee": "72171",
          "nom": "Louzes",
          "slug": "louzes",
          "code_postal": "72600",
          "population": 103,
          "superficie_km2": 823.77,
          "latitude": 48.4278,
          "longitude": 0.2996,
          "distance_km": 3.42
        },
        {
          "code_insee": "72188",
          "nom": "Marollette",
          "slug": "marollette",
          "code_postal": "72600",
          "population": 159,
          "superficie_km2": 576.16,
          "latitude": 48.3776,
          "longitude": 0.3629,
          "distance_km": 4.01
        },
        {
          "code_insee": "72015",
          "nom": "Les Aulneaux",
          "slug": "les-aulneaux",
          "code_postal": "72600",
          "population": 111,
          "superficie_km2": 823.99,
          "latitude": 48.4405,
          "longitude": 0.3404,
          "distance_km": 4.67
        },
        {
          "code_insee": "72295",
          "nom": "Saint-Longis",
          "slug": "saint-longis",
          "code_postal": "72600",
          "population": 509,
          "superficie_km2": 1121.46,
          "latitude": 48.3552,
          "longitude": 0.3359,
          "distance_km": 5.16
        },
        {
          "code_insee": "72037",
          "nom": "Blèves",
          "slug": "bleves",
          "code_postal": "72600",
          "population": 128,
          "superficie_km2": 205.33,
          "latitude": 48.4479,
          "longitude": 0.3332,
          "distance_km": 5.35
        },
        {
          "code_insee": "72372",
          "nom": "Vezot",
          "slug": "vezot",
          "code_postal": "72600",
          "population": 75,
          "superficie_km2": 636.78,
          "latitude": 48.3537,
          "longitude": 0.2961,
          "distance_km": 5.52
        },
        {
          "code_insee": "72215",
          "nom": "Neufchâtel-en-Saosnois",
          "slug": "neufchatel-en-saosnois",
          "code_postal": "72600",
          "population": 1003,
          "superficie_km2": 2343.66,
          "latitude": 48.387,
          "longitude": 0.2484,
          "distance_km": 5.57
        },
        {
          "code_insee": "61286",
          "nom": "Montgaudry",
          "slug": "montgaudry",
          "code_postal": "61360",
          "population": 108,
          "superficie_km2": 1119.26,
          "latitude": 48.4071,
          "longitude": 0.4028,
          "distance_km": 6.08
        },
        {
          "code_insee": "72180",
          "nom": "Mamers",
          "slug": "mamers",
          "code_postal": "72600",
          "population": 4996,
          "superficie_km2": 511.61,
          "latitude": 48.3554,
          "longitude": 0.3707,
          "distance_km": 6.21
        },
        {
          "code_insee": "72227",
          "nom": "Panon",
          "slug": "panon",
          "code_postal": "72600",
          "population": 33,
          "superficie_km2": 236.44,
          "latitude": 48.3386,
          "longitude": 0.3012,
          "distance_km": 7.04
        },
        {
          "code_insee": "72137",
          "nom": "Villeneuve-en-Perseigne",
          "slug": "villeneuve-en-perseigne",
          "code_postal": "72600",
          "population": 2174,
          "superficie_km2": 8725.44,
          "latitude": 48.4303,
          "longitude": 0.2365,
          "distance_km": 7.06
        },
        {
          "code_insee": "61476",
          "nom": "Suré",
          "slug": "sure",
          "code_postal": "61360",
          "population": 277,
          "superficie_km2": 1742.93,
          "latitude": 48.3692,
          "longitude": 0.4099,
          "distance_km": 7.43
        },
        {
          "code_insee": "72317",
          "nom": "Saint-Rémy-du-Val",
          "slug": "saint-remy-du-val",
          "code_postal": "72600",
          "population": 493,
          "superficie_km2": 1661.05,
          "latitude": 48.3524,
          "longitude": 0.2491,
          "distance_km": 7.54
        },
        {
          "code_insee": "61502",
          "nom": "Vidai",
          "slug": "vidai",
          "code_postal": "61360",
          "population": 72,
          "superficie_km2": 159.73,
          "latitude": 48.46,
          "longitude": 0.3724,
          "distance_km": 7.63
        },
        {
          "code_insee": "61327",
          "nom": "Pervenchères",
          "slug": "pervencheres",
          "code_postal": "61360",
          "population": 344,
          "superficie_km2": 2855.5,
          "latitude": 48.442,
          "longitude": 0.4062,
          "distance_km": 7.8
        },
        {
          "code_insee": "61026",
          "nom": "Barville",
          "slug": "barville",
          "code_postal": "61170",
          "population": 193,
          "superficie_km2": 760.64,
          "latitude": 48.4737,
          "longitude": 0.3449,
          "distance_km": 8.33
        },
        {
          "code_insee": "72326",
          "nom": "Saosnes",
          "slug": "saosnes",
          "code_postal": "72600",
          "population": 216,
          "superficie_km2": 1141.83,
          "latitude": 48.3267,
          "longitude": 0.2909,
          "distance_km": 8.5
        },
        {
          "code_insee": "72238",
          "nom": "Pizieux",
          "slug": "pizieux",
          "code_postal": "72600",
          "population": 75,
          "superficie_km2": 451.43,
          "latitude": 48.3219,
          "longitude": 0.3324,
          "distance_km": 8.78
        }
      ],
      "zonage_abc": "C",
      "reclassement_abc": "Non",
      "codes_postaux": [
        {
          "code_postal": "72600",
          "libelle_acheminement": "AILLIERES BEAUVOIR"
        }
      ],
      "logement": {
        "logements_total": 128,
        "residences_principales": 88,
        "logements_vacants": 18,
        "residences_secondaires": 22,
        "maisons": 127,
        "appartements": 1,
        "proprietaires": 70,
        "locataires": 17,
        "hlm": 0,
        "construits_avant_1919": 30,
        "construits_1919_1945": 9,
        "construits_1946_1970": 11,
        "construits_1971_1990": 17,
        "construits_1991_2005": 11,
        "construits_2006_2019": 9,
        "chauffage_electrique": 28,
        "chauffage_fioul": 33,
        "chauffage_gaz_ville": 1,
        "chauffage_gaz_bouteille": 2,
        "chauffage_autre": 24,
        "menages": 88,
        "logements_avant_1990": 67
      },
      "artisans": {
        "monte_escalier": 0,
        "chauffage_pac_clim": 0,
        "isolation": 1,
        "menuiserie": 0,
        "fenetres_velux": 0,
        "couverture_toiture": 1,
        "facade_peinture": 1,
        "portes_volets": 0,
        "piscine": 0,
        "vmc_ventilation": 0,
        "assainissement": 1
      },
      "revenus": {
        "revenu_median": 21870.0,
        "part_menages_imposes": null,
        "taux_pauvrete": null
      },
      "aides_etat": {
        "zone_climatique": "H1",
        "qpv": false,
        "action_coeur_de_ville": false,
        "petites_villes_de_demain": false
      }
    },
    {
      "code_insee": "72003",
      "nom": "Allonnes",
      "nom_a": null,
      "nom_de": null,
      "slug": "allonnes",
      "code_postal": "72700",
      "population": 11013,
      "superficie_km2": 18.0,
      "latitude": 47.9589996,
      "longitude": 0.144,
      "villes_proches": [
        {
          "code_insee": "72280",
          "nom": "Saint-Georges-du-Bois",
          "slug": "saint-georges-du-bois",
          "code_postal": "72700",
          "population": 2173,
          "superficie_km2": 7.0,
          "latitude": 47.9720001,
          "longitude": 0.101,
          "distance_km": 3.51
        },
        {
          "code_insee": "72344",
          "nom": "Spay",
          "slug": "spay",
          "code_postal": "72700",
          "population": 2843,
          "superficie_km2": 14.0,
          "latitude": 47.9249992,
          "longitude": 0.151,
          "distance_km": 3.82
        },
        {
          "code_insee": "72257",
          "nom": "Rouillon",
          "slug": "rouillon",
          "code_postal": "72700",
          "population": 2322,
          "superficie_km2": 9.0,
          "latitude": 48.0,
          "longitude": 0.142,
          "distance_km": 4.56
        },
        {
          "code_insee": "72247",
          "nom": "Pruillé-le-Chétif",
          "slug": "pruille-le-chetif",
          "code_postal": "72700",
          "population": 1338,
          "superficie_km2": 10.0,
          "latitude": 47.993,
          "longitude": 0.106,
          "distance_km": 4.72
        },
        {
          "code_insee": "72008",
          "nom": "Arnage",
          "slug": "arnage",
          "code_postal": "72230",
          "population": 5482,
          "superficie_km2": 11.0,
          "latitude": 47.9290009,
          "longitude": 0.191,
          "distance_km": 4.84
        },
        {
          "code_insee": "72127",
          "nom": "Étival-lès-le-Mans",
          "slug": "etival-les-le-mans",
          "code_postal": "72700",
          "population": 1887,
          "superficie_km2": 10.0,
          "latitude": 47.9630013,
          "longitude": 0.077,
          "distance_km": 5.01
        },
        {
          "code_insee": "72181",
          "nom": "Le Mans",
          "slug": "le-mans",
          "code_postal": "72100",
          "population": 145004,
          "superficie_km2": 53.0,
          "latitude": 47.987999,
          "longitude": 0.2,
          "distance_km": 5.27
        },
        {
          "code_insee": "72381",
          "nom": "Voivres-lès-le-Mans",
          "slug": "voivres-les-le-mans",
          "code_postal": "72210",
          "population": 1359,
          "superficie_km2": 12.0,
          "latitude": 47.9280014,
          "longitude": 0.084,
          "distance_km": 5.64
        },
        {
          "code_insee": "72133",
          "nom": "Fillé",
          "slug": "fille",
          "code_postal": "72210",
          "population": 1525,
          "superficie_km2": 10.0,
          "latitude": 47.9020004,
          "longitude": 0.115,
          "distance_km": 6.7
        },
        {
          "code_insee": "72169",
          "nom": "Louplande",
          "slug": "louplande",
          "code_postal": "72210",
          "population": 1486,
          "superficie_km2": 18.0,
          "latitude": 47.9410019,
          "longitude": 0.049,
          "distance_km": 7.35
        },
        {
          "code_insee": "72200",
          "nom": "Moncé-en-Belin",
          "slug": "monce-en-belin",
          "code_postal": "72230",
          "population": 3675,
          "superficie_km2": 18.0,
          "latitude": 47.8979988,
          "longitude": 0.196,
          "distance_km": 7.81
        },
        {
          "code_insee": "72360",
          "nom": "Trangé",
          "slug": "trange",
          "code_postal": "72650",
          "population": 1596,
          "superficie_km2": 11.0,
          "latitude": 48.0289993,
          "longitude": 0.116,
          "distance_km": 8.06
        },
        {
          "code_insee": "72146",
          "nom": "Guécélard",
          "slug": "guecelard",
          "code_postal": "72230",
          "population": 3172,
          "superficie_km2": 12.0,
          "latitude": 47.8839989,
          "longitude": 0.142,
          "distance_km": 8.34
        },
        {
          "code_insee": "72065",
          "nom": "La Chapelle-Saint-Aubin",
          "slug": "la-chapelle-saint-aubin",
          "code_postal": "72650",
          "population": 2268,
          "superficie_km2": 6.0,
          "latitude": 48.0359993,
          "longitude": 0.157,
          "distance_km": 8.62
        },
        {
          "code_insee": "72213",
          "nom": "Mulsanne",
          "slug": "mulsanne",
          "code_postal": "72230",
          "population": 5220,
          "superficie_km2": 15.0,
          "latitude": 47.9189987,
          "longitude": 0.244,
          "distance_km": 8.68
        },
        {
          "code_insee": "72073",
          "nom": "Chaufour-Notre-Dame",
          "slug": "chaufour-notre-dame",
          "code_postal": "72550",
          "population": 1156,
          "superficie_km2": 11.0,
          "latitude": 48.0180016,
          "longitude": 0.063,
          "distance_km": 8.91
        },
        {
          "code_insee": "72253",
          "nom": "Roëzé-sur-Sarthe",
          "slug": "roeze-sur-sarthe",
          "code_postal": "72210",
          "population": 2569,
          "superficie_km2": 27.0,
          "latitude": 47.894001,
          "longitude": 0.072,
          "distance_km": 9
        },
        {
          "code_insee": "72260",
          "nom": "Ruaudin",
          "slug": "ruaudin",
          "code_postal": "72230",
          "population": 3514,
          "superficie_km2": 14.0,
          "latitude": 47.9430008,
          "longitude": 0.266,
          "distance_km": 9.26
        },
        {
          "code_insee": "72095",
          "nom": "Coulaines",
          "slug": "coulaines",
          "code_postal": "72190",
          "population": 8003,
          "superficie_km2": 4.0,
          "latitude": 48.033001,
          "longitude": 0.211,
          "distance_km": 9.62
        },
        {
          "code_insee": "72310",
          "nom": "Saint-Pavace",
          "slug": "saint-pavace",
          "code_postal": "72190",
          "population": 1997,
          "superficie_km2": 5.0,
          "latitude": 48.0410004,
          "longitude": 0.195,
          "distance_km": 9.88
        }
      ],
      "zonage_abc": "B2",
      "reclassement_abc": "Non",
      "codes_postaux": [
        {
          "code_postal": "72700",
          "libelle_acheminement": "ALLONNES"
        }
      ],
      "logement": {
        "logements_total": 5073,
        "residences_principales": 4657,
        "logements_vacants": 353,
        "residences_secondaires": 62,
        "maisons": 2115,
        "appartements": 2941,
        "proprietaires": 2181,
        "locataires": 2457,
        "hlm": 1953,
        "construits_avant_1919": 103,
        "construits_1919_1945": 50,
        "construits_1946_1970": 1951,
        "construits_1971_1990": 1605,
        "construits_1991_2005": 583,
        "construits_2006_2019": 331,
        "chauffage_electrique": 954,
        "chauffage_fioul": 68,
        "chauffage_gaz_ville": 3438,
        "chauffage_gaz_bouteille": 17,
        "chauffage_autre": 179,
        "menages": 4657,
        "logements_avant_1990": 3709
      },
      "artisans": {
        "monte_escalier": 1,
        "chauffage_pac_clim": 9,
        "isolation": 11,
        "menuiserie": 4,
        "fenetres_velux": 4,
        "couverture_toiture": 1,
        "facade_peinture": 6,
        "portes_volets": 4,
        "piscine": 0,
        "vmc_ventilation": 2,
        "assainissement": 7
      },
      "revenus": {
        "revenu_median": 18430.0,
        "part_menages_imposes": 36.0,
        "taux_pauvrete": 24.0
      },
      "aides_etat": {
        "zone_climatique": "H1",
        "qpv": true,
        "action_coeur_de_ville": false,
        "petites_villes_de_demain": false
      }
    },
    {
      "code_insee": "72004",
      "nom": "Amné",
      "nom_a": null,
      "nom_de": null,
      "slug": "amne",
      "code_postal": "72540",
      "population": 569,
      "superficie_km2": 1600.48,
      "latitude": 48.0349,
      "longitude": -0.0426,
      "villes_proches": [
        {
          "code_insee": "72045",
          "nom": "Brains-sur-Gée",
          "slug": "brains-sur-gee",
          "code_postal": "72550",
          "population": 757,
          "superficie_km2": 1594.07,
          "latitude": 48.0111,
          "longitude": -0.0216,
          "distance_km": 3.07
        },
        {
          "code_insee": "72166",
          "nom": "Longnes",
          "slug": "longnes",
          "code_postal": "72540",
          "population": 286,
          "superficie_km2": 649.54,
          "latitude": 48.0219,
          "longitude": -0.0833,
          "distance_km": 3.35
        },
        {
          "code_insee": "72219",
          "nom": "Bernay-Neuvy-en-Champagne",
          "slug": "bernay-neuvy-en-champagne",
          "code_postal": "72240",
          "population": 756,
          "superficie_km2": 2522.23,
          "latitude": 48.0761,
          "longitude": -0.0331,
          "distance_km": 4.64
        },
        {
          "code_insee": "72096",
          "nom": "Coulans-sur-Gée",
          "slug": "coulans-sur-gee",
          "code_postal": "72550",
          "population": 1605,
          "superficie_km2": 2754.13,
          "latitude": 48.0226,
          "longitude": 0.0174,
          "distance_km": 4.67
        },
        {
          "code_insee": "72017",
          "nom": "Auvers-sous-Montfaucon",
          "slug": "auvers-sous-montfaucon",
          "code_postal": "72540",
          "population": 231,
          "superficie_km2": 753.66,
          "latitude": 47.9984,
          "longitude": -0.0786,
          "distance_km": 4.86
        },
        {
          "code_insee": "72107",
          "nom": "Crannes-en-Champagne",
          "slug": "crannes-en-champagne",
          "code_postal": "72540",
          "population": 340,
          "superficie_km2": 1204.49,
          "latitude": 47.9782,
          "longitude": -0.0409,
          "distance_km": 6.31
        },
        {
          "code_insee": "72348",
          "nom": "Tassillé",
          "slug": "tassille",
          "code_postal": "72540",
          "population": 136,
          "superficie_km2": 652.48,
          "latitude": 47.9893,
          "longitude": -0.095,
          "distance_km": 6.4
        },
        {
          "code_insee": "72261",
          "nom": "Ruillé-en-Champagne",
          "slug": "ruille-en-champagne",
          "code_postal": "72240",
          "population": 310,
          "superficie_km2": 1499.41,
          "latitude": 48.0588,
          "longitude": -0.1211,
          "distance_km": 6.41
        },
        {
          "code_insee": "72126",
          "nom": "Épineu-le-Chevreuil",
          "slug": "epineu-le-chevreuil",
          "code_postal": "72540",
          "population": 286,
          "superficie_km2": 1478.44,
          "latitude": 48.0416,
          "longitude": -0.131,
          "distance_km": 6.61
        },
        {
          "code_insee": "72249",
          "nom": "La Quinte",
          "slug": "la-quinte",
          "code_postal": "72550",
          "population": 823,
          "superficie_km2": 882.65,
          "latitude": 48.0514,
          "longitude": 0.0437,
          "distance_km": 6.67
        },
        {
          "code_insee": "72070",
          "nom": "Chassillé",
          "slug": "chassille",
          "code_postal": "72540",
          "population": 249,
          "superficie_km2": 729.68,
          "latitude": 48.0204,
          "longitude": -0.1312,
          "distance_km": 6.78
        },
        {
          "code_insee": "72111",
          "nom": "Cures",
          "slug": "cures",
          "code_postal": "72240",
          "population": 489,
          "superficie_km2": 1156.51,
          "latitude": 48.0865,
          "longitude": 0.0207,
          "distance_km": 7.42
        },
        {
          "code_insee": "72168",
          "nom": "Loué",
          "slug": "loue",
          "code_postal": "72540",
          "population": 2156,
          "superficie_km2": 1582.49,
          "latitude": 48.0035,
          "longitude": -0.1372,
          "distance_km": 7.85
        },
        {
          "code_insee": "72339",
          "nom": "Souligné-Flacé",
          "slug": "souligne-flace",
          "code_postal": "72210",
          "population": 636,
          "superficie_km2": 1661.14,
          "latitude": 47.9683,
          "longitude": 0.018,
          "distance_km": 8.67
        },
        {
          "code_insee": "72321",
          "nom": "Saint-Symphorien",
          "slug": "saint-symphorien",
          "code_postal": "72240",
          "population": 509,
          "superficie_km2": 2256.74,
          "latitude": 48.0807,
          "longitude": -0.1376,
          "distance_km": 8.71
        },
        {
          "code_insee": "72367",
          "nom": "Vallon-sur-Gée",
          "slug": "vallon-sur-gee",
          "code_postal": "72540",
          "population": 774,
          "superficie_km2": 1731.11,
          "latitude": 47.9573,
          "longitude": -0.0831,
          "distance_km": 9.14
        },
        {
          "code_insee": "72351",
          "nom": "Tennie",
          "slug": "tennie",
          "code_postal": "72240",
          "population": 1000,
          "superficie_km2": 3317.11,
          "latitude": 48.1121,
          "longitude": -0.0987,
          "distance_km": 9.54
        },
        {
          "code_insee": "72089",
          "nom": "Conlie",
          "slug": "conlie",
          "code_postal": "72240",
          "population": 1833,
          "superficie_km2": 1722.09,
          "latitude": 48.1206,
          "longitude": -0.0015,
          "distance_km": 10.01
        },
        {
          "code_insee": "72177",
          "nom": "Maigné",
          "slug": "maigne",
          "code_postal": "72210",
          "population": 326,
          "superficie_km2": 1140.71,
          "latitude": 47.9405,
          "longitude": -0.0561,
          "distance_km": 10.54
        },
        {
          "code_insee": "72075",
          "nom": "Chemiré-le-Gaudin",
          "slug": "chemire-le-gaudin",
          "code_postal": "72210",
          "population": 998,
          "superficie_km2": 2289.94,
          "latitude": 47.932,
          "longitude": -0.0103,
          "distance_km": 11.69
        }
      ],
      "zonage_abc": "C",
      "reclassement_abc": "Non",
      "codes_postaux": [
        {
          "code_postal": "72540",
          "libelle_acheminement": "AMNE"
        }
      ],
      "logement": {
        "logements_total": 250,
        "residences_principales": 218,
        "logements_vacants": 12,
        "residences_secondaires": 20,
        "maisons": 247,
        "appartements": 2,
        "proprietaires": 181,
        "locataires": 36,
        "hlm": 0,
        "construits_avant_1919": 82,
        "construits_1919_1945": 14,
        "construits_1946_1970": 19,
        "construits_1971_1990": 26,
        "construits_1991_2005": 30,
        "construits_2006_2019": 40,
        "chauffage_electrique": 103,
        "chauffage_fioul": 27,
        "chauffage_gaz_ville": 1,
        "chauffage_gaz_bouteille": 8,
        "chauffage_autre": 79,
        "menages": 218,
        "logements_avant_1990": 141
      },
      "artisans": {
        "monte_escalier": 0,
        "chauffage_pac_clim": 1,
        "isolation": 2,
        "menuiserie": 2,
        "fenetres_velux": 2,
        "couverture_toiture": 1,
        "facade_peinture": 1,
        "portes_volets": 2,
        "piscine": 0,
        "vmc_ventilation": 0,
        "assainissement": 1
      },
      "revenus": {
        "revenu_median": 22520.0,
        "part_menages_imposes": null,
        "taux_pauvrete": null
      },
      "aides_etat": {
        "zone_climatique": "H1",
        "qpv": false,
        "action_coeur_de_ville": false,
        "petites_villes_de_demain": false
      }
    },
    {
      "code_insee": "72005",
      "nom": "Ancinnes",
      "nom_a": null,
      "nom_de": null,
      "slug": "ancinnes",
      "code_postal": "72610",
      "population": 895,
      "superficie_km2": 2739.7,
      "latitude": 48.3618,
      "longitude": 0.1772,
      "villes_proches": [
        {
          "code_insee": "72164",
          "nom": "Livet-en-Saosnois",
          "slug": "livet-en-saosnois",
          "code_postal": "72610",
          "population": 63,
          "superficie_km2": 164.43,
          "latitude": 48.356,
          "longitude": 0.2107,
          "distance_km": 2.56
        },
        {
          "code_insee": "72170",
          "nom": "Louvigny",
          "slug": "louvigny",
          "code_postal": "72600",
          "population": 178,
          "superficie_km2": 876.47,
          "latitude": 48.3387,
          "longitude": 0.1998,
          "distance_km": 3.06
        },
        {
          "code_insee": "72043",
          "nom": "Bourg-le-Roi",
          "slug": "bourg-le-roi",
          "code_postal": "72610",
          "population": 325,
          "superficie_km2": 36.59,
          "latitude": 48.3459,
          "longitude": 0.1338,
          "distance_km": 3.66
        },
        {
          "code_insee": "72056",
          "nom": "Champfleur",
          "slug": "champfleur",
          "code_postal": "72610",
          "population": 1282,
          "superficie_km2": 1316.41,
          "latitude": 48.3868,
          "longitude": 0.124,
          "distance_km": 4.81
        },
        {
          "code_insee": "72079",
          "nom": "Chérisay",
          "slug": "cherisay",
          "code_postal": "72610",
          "population": 303,
          "superficie_km2": 796.63,
          "latitude": 48.3491,
          "longitude": 0.1138,
          "distance_km": 4.89
        },
        {
          "code_insee": "72317",
          "nom": "Saint-Rémy-du-Val",
          "slug": "saint-remy-du-val",
          "code_postal": "72600",
          "population": 493,
          "superficie_km2": 1661.05,
          "latitude": 48.3524,
          "longitude": 0.2491,
          "distance_km": 5.41
        },
        {
          "code_insee": "72254",
          "nom": "Rouessé-Fontaine",
          "slug": "rouesse-fontaine",
          "code_postal": "72610",
          "population": 261,
          "superficie_km2": 1253.57,
          "latitude": 48.3156,
          "longitude": 0.1488,
          "distance_km": 5.55
        },
        {
          "code_insee": "72142",
          "nom": "Grandchamp",
          "slug": "grandchamp",
          "code_postal": "72610",
          "population": 137,
          "superficie_km2": 552.65,
          "latitude": 48.3102,
          "longitude": 0.1808,
          "distance_km": 5.74
        },
        {
          "code_insee": "72355",
          "nom": "Thoiré-sous-Contensor",
          "slug": "thoire-sous-contensor",
          "code_postal": "72610",
          "population": 111,
          "superficie_km2": 606.3,
          "latitude": 48.3113,
          "longitude": 0.2043,
          "distance_km": 5.96
        },
        {
          "code_insee": "72215",
          "nom": "Neufchâtel-en-Saosnois",
          "slug": "neufchatel-en-saosnois",
          "code_postal": "72600",
          "population": 1003,
          "superficie_km2": 2343.66,
          "latitude": 48.387,
          "longitude": 0.2484,
          "distance_km": 5.96
        },
        {
          "code_insee": "72036",
          "nom": "Béthon",
          "slug": "bethon",
          "code_postal": "72610",
          "population": 323,
          "superficie_km2": 386.7,
          "latitude": 48.3655,
          "longitude": 0.0911,
          "distance_km": 6.37
        },
        {
          "code_insee": "72192",
          "nom": "Les Mées",
          "slug": "les-mees",
          "code_postal": "72260",
          "population": 103,
          "superficie_km2": 681.85,
          "latitude": 48.3127,
          "longitude": 0.2384,
          "distance_km": 7.09
        },
        {
          "code_insee": "72308",
          "nom": "Saint-Paterne - Le Chevain",
          "slug": "saint-paterne-le-chevain",
          "code_postal": "72610",
          "population": 2076,
          "superficie_km2": 1296.9,
          "latitude": 48.4167,
          "longitude": 0.125,
          "distance_km": 7.22
        },
        {
          "code_insee": "72006",
          "nom": "Arçonnay",
          "slug": "arconnay",
          "code_postal": "72610",
          "population": 1902,
          "superficie_km2": 799.28,
          "latitude": 48.3963,
          "longitude": 0.0826,
          "distance_km": 7.97
        },
        {
          "code_insee": "72139",
          "nom": "Fyé",
          "slug": "fye",
          "code_postal": "72610",
          "population": 1013,
          "superficie_km2": 1633.6,
          "latitude": 48.3241,
          "longitude": 0.0825,
          "distance_km": 8.16
        },
        {
          "code_insee": "72137",
          "nom": "Villeneuve-en-Perseigne",
          "slug": "villeneuve-en-perseigne",
          "code_postal": "72600",
          "population": 2174,
          "superficie_km2": 8725.44,
          "latitude": 48.4303,
          "longitude": 0.2365,
          "distance_km": 8.79
        },
        {
          "code_insee": "72078",
          "nom": "Chérancé",
          "slug": "cherance",
          "code_postal": "72170",
          "population": 353,
          "superficie_km2": 1031.87,
          "latitude": 48.2806,
          "longitude": 0.1727,
          "distance_km": 9.04
        },
        {
          "code_insee": "72076",
          "nom": "Chenay",
          "slug": "chenay",
          "code_postal": "72610",
          "population": 255,
          "superficie_km2": 218.71,
          "latitude": 48.4466,
          "longitude": 0.1621,
          "distance_km": 9.49
        },
        {
          "code_insee": "72251",
          "nom": "René",
          "slug": "rene",
          "code_postal": "72260",
          "population": 387,
          "superficie_km2": 1264.13,
          "latitude": 48.2774,
          "longitude": 0.2182,
          "distance_km": 9.86
        },
        {
          "code_insee": "61077",
          "nom": "Cerisé",
          "slug": "cerise",
          "code_postal": "61000",
          "population": 844,
          "superficie_km2": 443.31,
          "latitude": 48.4451,
          "longitude": 0.1314,
          "distance_km": 9.86
        }
      ],
      "zonage_abc": "C",
      "reclassement_abc": "Non",
      "codes_postaux": [
        {
          "code_postal": "72610",
          "libelle_acheminement": "ANCINNES"
        }
      ],
      "logement": {
        "logements_total": 444,
        "residences_principales": 394,
        "logements_vacants": 36,
        "residences_secondaires": 13,
        "maisons": 430,
        "appartements": 14,
        "proprietaires": 317,
        "locataires": 72,
        "hlm": 27,
        "construits_avant_1919": 89,
        "construits_1919_1945": 30,
        "construits_1946_1970": 44,
        "construits_1971_1990": 130,
        "construits_1991_2005": 38,
        "construits_2006_2019": 56,
        "chauffage_electrique": 160,
        "chauffage_fioul": 85,
        "chauffage_gaz_ville": 6,
        "chauffage_gaz_bouteille": 13,
        "chauffage_autre": 128,
        "menages": 394,
        "logements_avant_1990": 293
      },
      "artisans": {
        "monte_escalier": 0,
        "chauffage_pac_clim": 1,
        "isolation": 0,
        "menuiserie": 2,
        "fenetres_velux": 2,
        "couverture_toiture": 0,
        "facade_peinture": 2,
        "portes_volets": 2,
        "piscine": 0,
        "vmc_ventilation": 0,
        "assainissement": 1
      },
      "revenus": {
        "revenu_median": 21950.0,
        "part_menages_imposes": null,
        "taux_pauvrete": null
      },
      "aides_etat": {
        "zone_climatique": "H1",
        "qpv": false,
        "action_coeur_de_ville": false,
        "petites_villes_de_demain": false
      }
    },
    {
      "code_insee": "72007",
      "nom": "Ardenay-sur-Mérize",
      "nom_a": null,
      "nom_de": null,
      "slug": "ardenay-sur-merize",
      "code_postal": "72370",
      "population": 504,
      "superficie_km2": 1162.54,
      "latitude": 47.9916,
      "longitude": 0.4301,
      "villes_proches": [
        {
          "code_insee": "72345",
          "nom": "Surfonds",
          "slug": "surfonds",
          "code_postal": "72370",
          "population": 339,
          "superficie_km2": 491.38,
          "latitude": 47.9805,
          "longitude": 0.4623,
          "distance_km": 2.7
        },
        {
          "code_insee": "72341",
          "nom": "Soulitré",
          "slug": "soulitre",
          "code_postal": "72370",
          "population": 597,
          "superficie_km2": 1096.03,
          "latitude": 48.0205,
          "longitude": 0.4402,
          "distance_km": 3.3
        },
        {
          "code_insee": "72300",
          "nom": "Saint-Mars-la-Brière",
          "slug": "saint-mars-la-briere",
          "code_postal": "72470",
          "population": 2681,
          "superficie_km2": 3456.85,
          "latitude": 48.0266,
          "longitude": 0.3826,
          "distance_km": 5.26
        },
        {
          "code_insee": "72046",
          "nom": "Le Breil-sur-Mérize",
          "slug": "le-breil-sur-merize",
          "code_postal": "72370",
          "population": 1552,
          "superficie_km2": 1837.47,
          "latitude": 47.996,
          "longitude": 0.5031,
          "distance_km": 5.45
        },
        {
          "code_insee": "72224",
          "nom": "Nuillé-le-Jalais",
          "slug": "nuille-le-jalais",
          "code_postal": "72370",
          "population": 528,
          "superficie_km2": 577.28,
          "latitude": 48.0226,
          "longitude": 0.4872,
          "distance_km": 5.47
        },
        {
          "code_insee": "72053",
          "nom": "Challes",
          "slug": "challes",
          "code_postal": "72250",
          "population": 1156,
          "superficie_km2": 2596.31,
          "latitude": 47.936,
          "longitude": 0.4268,
          "distance_km": 6.19
        },
        {
          "code_insee": "72090",
          "nom": "Connerré",
          "slug": "connerre",
          "code_postal": "72160",
          "population": 2780,
          "superficie_km2": 1659.79,
          "latitude": 48.0504,
          "longitude": 0.4703,
          "distance_km": 7.19
        },
        {
          "code_insee": "72382",
          "nom": "Val-de-la-Hune",
          "slug": "val-de-la-hune",
          "code_postal": "72440",
          "population": 1521,
          "superficie_km2": 4164.7,
          "latitude": 47.9409,
          "longitude": 0.4929,
          "distance_km": 7.32
        },
        {
          "code_insee": "72054",
          "nom": "Champagné",
          "slug": "champagne",
          "code_postal": "72470",
          "population": 3666,
          "superficie_km2": 1397.58,
          "latitude": 48.0157,
          "longitude": 0.3363,
          "distance_km": 7.48
        },
        {
          "code_insee": "72241",
          "nom": "Montfort-le-Gesnois",
          "slug": "montfort-le-gesnois",
          "code_postal": "72450",
          "population": 2939,
          "superficie_km2": 1879.92,
          "latitude": 48.0574,
          "longitude": 0.3988,
          "distance_km": 7.68
        },
        {
          "code_insee": "72358",
          "nom": "Thorigné-sur-Dué",
          "slug": "thorigne-sur-due",
          "code_postal": "72160",
          "population": 1637,
          "superficie_km2": 1921.05,
          "latitude": 48.0294,
          "longitude": 0.5175,
          "distance_km": 7.74
        },
        {
          "code_insee": "72231",
          "nom": "Parigné-l'Évêque",
          "slug": "parigne-l-eveque",
          "code_postal": "72250",
          "population": 5358,
          "superficie_km2": 6364.29,
          "latitude": 47.9251,
          "longitude": 0.364,
          "distance_km": 8.88
        },
        {
          "code_insee": "72042",
          "nom": "Bouloire",
          "slug": "bouloire",
          "code_postal": "72440",
          "population": 2127,
          "superficie_km2": 2701.97,
          "latitude": 47.9695,
          "longitude": 0.5496,
          "distance_km": 9.23
        },
        {
          "code_insee": "72129",
          "nom": "Fatines",
          "slug": "fatines",
          "code_postal": "72470",
          "population": 929,
          "superficie_km2": 546.05,
          "latitude": 48.047,
          "longitude": 0.3352,
          "distance_km": 9.37
        },
        {
          "code_insee": "72165",
          "nom": "Lombron",
          "slug": "lombron",
          "code_postal": "72450",
          "population": 1960,
          "superficie_km2": 2420.69,
          "latitude": 48.0855,
          "longitude": 0.4106,
          "distance_km": 10.54
        },
        {
          "code_insee": "72122",
          "nom": "Duneau",
          "slug": "duneau",
          "code_postal": "72160",
          "population": 1078,
          "superficie_km2": 1296.74,
          "latitude": 48.0668,
          "longitude": 0.5329,
          "distance_km": 11.33
        },
        {
          "code_insee": "72275",
          "nom": "Saint-Corneille",
          "slug": "saint-corneille",
          "code_postal": "72460",
          "population": 1510,
          "superficie_km2": 1118.46,
          "latitude": 48.0785,
          "longitude": 0.344,
          "distance_km": 11.59
        },
        {
          "code_insee": "72031",
          "nom": "Beillé",
          "slug": "beille",
          "code_postal": "72160",
          "population": 542,
          "superficie_km2": 859.49,
          "latitude": 48.0845,
          "longitude": 0.5113,
          "distance_km": 11.96
        },
        {
          "code_insee": "72067",
          "nom": "La Chapelle-Saint-Rémy",
          "slug": "la-chapelle-saint-remy",
          "code_postal": "72160",
          "population": 995,
          "superficie_km2": 1935.25,
          "latitude": 48.1067,
          "longitude": 0.4619,
          "distance_km": 13.01
        },
        {
          "code_insee": "72143",
          "nom": "Le Grand-Lucé",
          "slug": "le-grand-luce",
          "code_postal": "72150",
          "population": 1949,
          "superficie_km2": 2744.61,
          "latitude": 47.8717,
          "longitude": 0.4722,
          "distance_km": 13.7
        }
      ],
      "zonage_abc": "C",
      "reclassement_abc": "Non",
      "codes_postaux": [
        {
          "code_postal": "72370",
          "libelle_acheminement": "ARDENAY SUR MERIZE"
        }
      ],
      "logement": {
        "logements_total": 229,
        "residences_principales": 201,
        "logements_vacants": 16,
        "residences_secondaires": 12,
        "maisons": 228,
        "appartements": 0,
        "proprietaires": 155,
        "locataires": 41,
        "hlm": 11,
        "construits_avant_1919": 31,
        "construits_1919_1945": 4,
        "construits_1946_1970": 10,
        "construits_1971_1990": 67,
        "construits_1991_2005": 48,
        "construits_2006_2019": 36,
        "chauffage_electrique": 86,
        "chauffage_fioul": 24,
        "chauffage_gaz_ville": 2,
        "chauffage_gaz_bouteille": 24,
        "chauffage_autre": 63,
        "menages": 201,
        "logements_avant_1990": 112
      },
      "artisans": {
        "monte_escalier": 0,
        "chauffage_pac_clim": 0,
        "isolation": 0,
        "menuiserie": 0,
        "fenetres_velux": 0,
        "couverture_toiture": 0,
        "facade_peinture": 1,
        "portes_volets": 0,
        "piscine": 0,
        "vmc_ventilation": 0,
        "assainissement": 0
      },
      "revenus": {
        "revenu_median": 21130.0,
        "part_menages_imposes": null,
        "taux_pauvrete": null
      },
      "aides_etat": {
        "zone_climatique": "H1",
        "qpv": false,
        "action_coeur_de_ville": false,
        "petites_villes_de_demain": false
      }
    },
    {
      "code_insee": "72008",
      "nom": "Arnage",
      "nom_a": null,
      "nom_de": null,
      "slug": "arnage",
      "code_postal": "72230",
      "population": 5482,
      "superficie_km2": 11.0,
      "latitude": 47.9290009,
      "longitude": 0.191,
      "villes_proches": [
        {
          "code_insee": "72344",
          "nom": "Spay",
          "slug": "spay",
          "code_postal": "72700",
          "population": 2843,
          "superficie_km2": 14.0,
          "latitude": 47.9249992,
          "longitude": 0.151,
          "distance_km": 3.01
        },
        {
          "code_insee": "72200",
          "nom": "Moncé-en-Belin",
          "slug": "monce-en-belin",
          "code_postal": "72230",
          "population": 3675,
          "superficie_km2": 18.0,
          "latitude": 47.8979988,
          "longitude": 0.196,
          "distance_km": 3.47
        },
        {
          "code_insee": "72213",
          "nom": "Mulsanne",
          "slug": "mulsanne",
          "code_postal": "72230",
          "population": 5220,
          "superficie_km2": 15.0,
          "latitude": 47.9189987,
          "longitude": 0.244,
          "distance_km": 4.1
        },
        {
          "code_insee": "72003",
          "nom": "Allonnes",
          "slug": "allonnes",
          "code_postal": "72700",
          "population": 11013,
          "superficie_km2": 18.0,
          "latitude": 47.9589996,
          "longitude": 0.144,
          "distance_km": 4.84
        },
        {
          "code_insee": "72260",
          "nom": "Ruaudin",
          "slug": "ruaudin",
          "code_postal": "72230",
          "population": 3514,
          "superficie_km2": 14.0,
          "latitude": 47.9430008,
          "longitude": 0.266,
          "distance_km": 5.8
        },
        {
          "code_insee": "72146",
          "nom": "Guécélard",
          "slug": "guecelard",
          "code_postal": "72230",
          "population": 3172,
          "superficie_km2": 12.0,
          "latitude": 47.8839989,
          "longitude": 0.142,
          "distance_km": 6.2
        },
        {
          "code_insee": "72133",
          "nom": "Fillé",
          "slug": "fille",
          "code_postal": "72210",
          "population": 1525,
          "superficie_km2": 10.0,
          "latitude": 47.9020004,
          "longitude": 0.115,
          "distance_km": 6.41
        },
        {
          "code_insee": "72181",
          "nom": "Le Mans",
          "slug": "le-mans",
          "code_postal": "72100",
          "population": 145004,
          "superficie_km2": 53.0,
          "latitude": 47.987999,
          "longitude": 0.2,
          "distance_km": 6.59
        },
        {
          "code_insee": "72287",
          "nom": "Saint-Gervais-en-Belin",
          "slug": "saint-gervais-en-belin",
          "code_postal": "72220",
          "population": 2001,
          "superficie_km2": 10.0,
          "latitude": 47.8699989,
          "longitude": 0.2,
          "distance_km": 6.59
        },
        {
          "code_insee": "72155",
          "nom": "Laigné-en-Belin",
          "slug": "laigne-en-belin",
          "code_postal": "72220",
          "population": 2283,
          "superficie_km2": 13.0,
          "latitude": 47.868,
          "longitude": 0.234,
          "distance_km": 7.5
        },
        {
          "code_insee": "72350",
          "nom": "Teloché",
          "slug": "teloche",
          "code_postal": "72220",
          "population": 3053,
          "superficie_km2": 23.0,
          "latitude": 47.8899994,
          "longitude": 0.278,
          "distance_km": 7.8
        },
        {
          "code_insee": "72381",
          "nom": "Voivres-lès-le-Mans",
          "slug": "voivres-les-le-mans",
          "code_postal": "72210",
          "population": 1359,
          "superficie_km2": 12.0,
          "latitude": 47.9280014,
          "longitude": 0.084,
          "distance_km": 7.97
        },
        {
          "code_insee": "72280",
          "nom": "Saint-Georges-du-Bois",
          "slug": "saint-georges-du-bois",
          "code_postal": "72700",
          "population": 2173,
          "superficie_km2": 7.0,
          "latitude": 47.9720001,
          "longitude": 0.101,
          "distance_km": 8.23
        },
        {
          "code_insee": "72257",
          "nom": "Rouillon",
          "slug": "rouillon",
          "code_postal": "72700",
          "population": 2322,
          "superficie_km2": 9.0,
          "latitude": 48.0,
          "longitude": 0.142,
          "distance_km": 8.7
        },
        {
          "code_insee": "72127",
          "nom": "Étival-lès-le-Mans",
          "slug": "etival-les-le-mans",
          "code_postal": "72700",
          "population": 1887,
          "superficie_km2": 10.0,
          "latitude": 47.9630013,
          "longitude": 0.077,
          "distance_km": 9.29
        },
        {
          "code_insee": "72247",
          "nom": "Pruillé-le-Chétif",
          "slug": "pruille-le-chetif",
          "code_postal": "72700",
          "population": 1338,
          "superficie_km2": 10.0,
          "latitude": 47.993,
          "longitude": 0.106,
          "distance_km": 9.52
        },
        {
          "code_insee": "72230",
          "nom": "Parigné-le-Pôlin",
          "slug": "parigne-le-polin",
          "code_postal": "72330",
          "population": 1051,
          "superficie_km2": 14.0,
          "latitude": 47.855999,
          "longitude": 0.124,
          "distance_km": 9.53
        },
        {
          "code_insee": "72058",
          "nom": "Changé",
          "slug": "change",
          "code_postal": "72560",
          "population": 6686,
          "superficie_km2": 35.0,
          "latitude": 47.9780006,
          "longitude": 0.297,
          "distance_km": 9.59
        },
        {
          "code_insee": "72253",
          "nom": "Roëzé-sur-Sarthe",
          "slug": "roeze-sur-sarthe",
          "code_postal": "72210",
          "population": 2569,
          "superficie_km2": 27.0,
          "latitude": 47.894001,
          "longitude": 0.072,
          "distance_km": 9.69
        },
        {
          "code_insee": "72047",
          "nom": "Brette-les-Pins",
          "slug": "brette-les-pins",
          "code_postal": "72250",
          "population": 2123,
          "superficie_km2": 15.0,
          "latitude": 47.9109993,
          "longitude": 0.327,
          "distance_km": 10.33
        }
      ],
      "zonage_abc": "B2",
      "reclassement_abc": "Non",
      "codes_postaux": [
        {
          "code_postal": "72230",
          "libelle_acheminement": "ARNAGE"
        }
      ],
      "logement": {
        "logements_total": 2588,
        "residences_principales": 2431,
        "logements_vacants": 133,
        "residences_secondaires": 23,
        "maisons": 2304,
        "appartements": 267,
        "proprietaires": 1766,
        "locataires": 648,
        "hlm": 330,
        "construits_avant_1919": 103,
        "construits_1919_1945": 90,
        "construits_1946_1970": 614,
        "construits_1971_1990": 960,
        "construits_1991_2005": 347,
        "construits_2006_2019": 287,
        "chauffage_electrique": 695,
        "chauffage_fioul": 123,
        "chauffage_gaz_ville": 1253,
        "chauffage_gaz_bouteille": 41,
        "chauffage_autre": 317,
        "menages": 2431,
        "logements_avant_1990": 1767
      },
      "artisans": {
        "monte_escalier": 0,
        "chauffage_pac_clim": 10,
        "isolation": 12,
        "menuiserie": 8,
        "fenetres_velux": 8,
        "couverture_toiture": 7,
        "facade_peinture": 10,
        "portes_volets": 8,
        "piscine": 1,
        "vmc_ventilation": 6,
        "assainissement": 7
      },
      "revenus": {
        "revenu_median": 22460.0,
        "part_menages_imposes": 52.0,
        "taux_pauvrete": 10.0
      },
      "aides_etat": {
        "zone_climatique": "H1",
        "qpv": false,
        "action_coeur_de_ville": false,
        "petites_villes_de_demain": false
      }
    },
    {
      "code_insee": "72009",
      "nom": "Arthezé",
      "nom_a": null,
      "nom_de": null,
      "slug": "artheze",
      "code_postal": "72270",
      "population": 350,
      "superficie_km2": 871.87,
      "latitude": 47.7914,
      "longitude": -0.1131,
      "villes_proches": [
        {
          "code_insee": "72179",
          "nom": "Malicorne-sur-Sarthe",
          "slug": "malicorne-sur-sarthe",
          "code_postal": "72270",
          "population": 1854,
          "superficie_km2": 1514.55,
          "latitude": 47.8124,
          "longitude": -0.0874,
          "distance_km": 3.02
        },
        {
          "code_insee": "72377",
          "nom": "Villaines-sous-Malicorne",
          "slug": "villaines-sous-malicorne",
          "code_postal": "72270",
          "population": 1032,
          "superficie_km2": 1950.84,
          "latitude": 47.7539,
          "longitude": -0.1058,
          "distance_km": 4.21
        },
        {
          "code_insee": "72123",
          "nom": "Dureil",
          "slug": "dureil",
          "code_postal": "72270",
          "population": 61,
          "superficie_km2": 805.89,
          "latitude": 47.8298,
          "longitude": -0.1333,
          "distance_km": 4.53
        },
        {
          "code_insee": "72044",
          "nom": "Bousse",
          "slug": "bousse",
          "code_postal": "72270",
          "population": 431,
          "superficie_km2": 1203.22,
          "latitude": 47.7641,
          "longitude": -0.065,
          "distance_km": 4.7
        },
        {
          "code_insee": "72022",
          "nom": "Le Bailleul",
          "slug": "le-bailleul",
          "code_postal": "72200",
          "population": 1217,
          "superficie_km2": 2773.85,
          "latitude": 47.7685,
          "longitude": -0.1787,
          "distance_km": 5.52
        },
        {
          "code_insee": "72100",
          "nom": "Courcelles-la-Forêt",
          "slug": "courcelles-la-foret",
          "code_postal": "72270",
          "population": 397,
          "superficie_km2": 1963.48,
          "latitude": 47.7965,
          "longitude": -0.0239,
          "distance_km": 6.69
        },
        {
          "code_insee": "72110",
          "nom": "Crosmières",
          "slug": "crosmieres",
          "code_postal": "72200",
          "population": 974,
          "superficie_km2": 2053.97,
          "latitude": 47.7387,
          "longitude": -0.1601,
          "distance_km": 6.83
        },
        {
          "code_insee": "72228",
          "nom": "Parcé-sur-Sarthe",
          "slug": "parce-sur-sarthe",
          "code_postal": "72300",
          "population": 1950,
          "superficie_km2": 4070.48,
          "latitude": 47.8271,
          "longitude": -0.1929,
          "distance_km": 7.16
        },
        {
          "code_insee": "72223",
          "nom": "Noyen-sur-Sarthe",
          "slug": "noyen-sur-sarthe",
          "code_postal": "72430",
          "population": 2556,
          "superficie_km2": 4287.92,
          "latitude": 47.8569,
          "longitude": -0.1031,
          "distance_km": 7.32
        },
        {
          "code_insee": "72163",
          "nom": "Ligron",
          "slug": "ligron",
          "code_postal": "72270",
          "population": 494,
          "superficie_km2": 1368.43,
          "latitude": 47.7699,
          "longitude": -0.0114,
          "distance_km": 7.97
        },
        {
          "code_insee": "72195",
          "nom": "Mézeray",
          "slug": "mezeray",
          "code_postal": "72270",
          "population": 1841,
          "superficie_km2": 3332.49,
          "latitude": 47.8317,
          "longitude": -0.0213,
          "distance_km": 8.19
        },
        {
          "code_insee": "72021",
          "nom": "Avoise",
          "slug": "avoise",
          "code_postal": "72430",
          "population": 594,
          "superficie_km2": 2443.95,
          "latitude": 47.8575,
          "longitude": -0.197,
          "distance_km": 9.66
        },
        {
          "code_insee": "72167",
          "nom": "Louailles",
          "slug": "louailles",
          "code_postal": "72300",
          "population": 691,
          "superficie_km2": 1060.04,
          "latitude": 47.7816,
          "longitude": -0.2416,
          "distance_km": 9.66
        },
        {
          "code_insee": "72084",
          "nom": "Clermont-Créans",
          "slug": "clermont-creans",
          "code_postal": "72200",
          "population": 1293,
          "superficie_km2": 1814.86,
          "latitude": 47.7292,
          "longitude": -0.0197,
          "distance_km": 9.83
        },
        {
          "code_insee": "72293",
          "nom": "Saint-Jean-du-Bois",
          "slug": "saint-jean-du-bois",
          "code_postal": "72430",
          "population": 616,
          "superficie_km2": 1469.08,
          "latitude": 47.8647,
          "longitude": -0.03,
          "distance_km": 10.24
        },
        {
          "code_insee": "72347",
          "nom": "Tassé",
          "slug": "tasse",
          "code_postal": "72430",
          "population": 287,
          "superficie_km2": 1078.21,
          "latitude": 47.8898,
          "longitude": -0.1531,
          "distance_km": 11.34
        },
        {
          "code_insee": "72154",
          "nom": "La Flèche",
          "slug": "la-fleche",
          "code_postal": "72200",
          "population": 14947,
          "superficie_km2": 7917.72,
          "latitude": 47.6908,
          "longitude": -0.0605,
          "distance_km": 11.86
        },
        {
          "code_insee": "72131",
          "nom": "Fercé-sur-Sarthe",
          "slug": "ferce-sur-sarthe",
          "code_postal": "72430",
          "population": 575,
          "superficie_km2": 1218.19,
          "latitude": 47.8968,
          "longitude": -0.0329,
          "distance_km": 13.16
        },
        {
          "code_insee": "72025",
          "nom": "Bazouges Cré sur Loir",
          "slug": "bazouges-cre-sur-loir",
          "code_postal": "72200",
          "population": 1977,
          "superficie_km2": 4735.99,
          "latitude": 47.6758,
          "longitude": -0.1628,
          "distance_km": 13.38
        },
        {
          "code_insee": "72237",
          "nom": "Pirmil",
          "slug": "pirmil",
          "code_postal": "72430",
          "population": 512,
          "superficie_km2": 1764.88,
          "latitude": 47.9129,
          "longitude": -0.0899,
          "distance_km": 13.62
        }
      ],
      "zonage_abc": "C",
      "reclassement_abc": "Non",
      "codes_postaux": [
        {
          "code_postal": "72270",
          "libelle_acheminement": "ARTHEZE"
        }
      ],
      "logement": {
        "logements_total": 160,
        "residences_principales": 135,
        "logements_vacants": 19,
        "residences_secondaires": 6,
        "maisons": 158,
        "appartements": 2,
        "proprietaires": 107,
        "locataires": 27,
        "hlm": 8,
        "construits_avant_1919": 29,
        "construits_1919_1945": 10,
        "construits_1946_1970": 13,
        "construits_1971_1990": 34,
        "construits_1991_2005": 30,
        "construits_2006_2019": 16,
        "chauffage_electrique": 50,
        "chauffage_fioul": 26,
        "chauffage_gaz_ville": 0,
        "chauffage_gaz_bouteille": 12,
        "chauffage_autre": 44,
        "menages": 135,
        "logements_avant_1990": 86
      },
      "artisans": {
        "monte_escalier": 0,
        "chauffage_pac_clim": 0,
        "isolation": 0,
        "menuiserie": 0,
        "fenetres_velux": 0,
        "couverture_toiture": 0,
        "facade_peinture": 0,
        "portes_volets": 0,
        "piscine": 0,
        "vmc_ventilation": 0,
        "assainissement": 0
      },
      "revenus": {
        "revenu_median": 20720.0,
        "part_menages_imposes": null,
        "taux_pauvrete": null
      },
      "aides_etat": {
        "zone_climatique": "H1",
        "qpv": false,
        "action_coeur_de_ville": false,
        "petites_villes_de_demain": false
      }
    },
    {
      "code_insee": "72006",
      "nom": "Arçonnay",
      "nom_a": null,
      "nom_de": null,
      "slug": "arconnay",
      "code_postal": "72610",
      "population": 1890,
      "superficie_km2": 8.0,
      "latitude": 48.3959999,
      "longitude": 0.081,
      "villes_proches": [
        {
          "code_insee": "61397",
          "nom": "Saint-Germain-du-Corbéis",
          "slug": "saint-germain-du-corbeis",
          "code_postal": "61000",
          "population": 3693,
          "superficie_km2": 8.0,
          "latitude": 48.4179993,
          "longitude": 0.058,
          "distance_km": 2.98
        },
        {
          "code_insee": "72308",
          "nom": "Saint-Paterne - Le Chevain",
          "slug": "saint-paterne-le-chevain",
          "code_postal": "72610",
          "population": 2096,
          "superficie_km2": 7.0,
          "latitude": 48.4140015,
          "longitude": 0.115,
          "distance_km": 3.21
        },
        {
          "code_insee": "72056",
          "nom": "Champfleur",
          "slug": "champfleur",
          "code_postal": "72610",
          "population": 1323,
          "superficie_km2": 13.0,
          "latitude": 48.3839989,
          "longitude": 0.125,
          "distance_km": 3.51
        },
        {
          "code_insee": "61001",
          "nom": "Alençon",
          "slug": "alencon",
          "code_postal": "61000",
          "population": 25555,
          "superficie_km2": 11.0,
          "latitude": 48.4319992,
          "longitude": 0.092,
          "distance_km": 4.08
        },
        {
          "code_insee": "61117",
          "nom": "Condé-sur-Sarthe",
          "slug": "conde-sur-sarthe",
          "code_postal": "61250",
          "population": 2490,
          "superficie_km2": 8.0,
          "latitude": 48.4339981,
          "longitude": 0.034,
          "distance_km": 5.47
        },
        {
          "code_insee": "61143",
          "nom": "Damigny",
          "slug": "damigny",
          "code_postal": "61250",
          "population": 2406,
          "superficie_km2": 5.0,
          "latitude": 48.4510002,
          "longitude": 0.072,
          "distance_km": 6.15
        },
        {
          "code_insee": "61234",
          "nom": "Lonrai",
          "slug": "lonrai",
          "code_postal": "61250",
          "population": 1105,
          "superficie_km2": 6.0,
          "latitude": 48.4529991,
          "longitude": 0.036,
          "distance_km": 7.16
        },
        {
          "code_insee": "61497",
          "nom": "Valframbert",
          "slug": "valframbert",
          "code_postal": "61250",
          "population": 1721,
          "superficie_km2": 14.0,
          "latitude": 48.4650002,
          "longitude": 0.111,
          "distance_km": 7.99
        },
        {
          "code_insee": "61382",
          "nom": "Saint-Denis-sur-Sarthon",
          "slug": "saint-denis-sur-sarthon",
          "code_postal": "61420",
          "population": 1101,
          "superficie_km2": 14.0,
          "latitude": 48.4580002,
          "longitude": -0.037,
          "distance_km": 11.11
        },
        {
          "code_insee": "72215",
          "nom": "Neufchâtel-en-Saosnois",
          "slug": "neufchatel-en-saosnois",
          "code_postal": "72600",
          "population": 1043,
          "superficie_km2": 23.0,
          "latitude": 48.3880005,
          "longitude": 0.245,
          "distance_km": 12.14
        },
        {
          "code_insee": "72137",
          "nom": "Villeneuve-en-Perseigne",
          "slug": "villeneuve-en-perseigne",
          "code_postal": "72600",
          "population": 2203,
          "superficie_km2": 31.0,
          "latitude": 48.4379997,
          "longitude": 0.237,
          "distance_km": 12.42
        },
        {
          "code_insee": "61341",
          "nom": "Écouves",
          "slug": "ecouves",
          "code_postal": "61250",
          "population": 1664,
          "superficie_km2": 20.0,
          "latitude": 48.5089989,
          "longitude": 0.086,
          "distance_km": 12.57
        },
        {
          "code_insee": "72138",
          "nom": "Fresnay-sur-Sarthe",
          "slug": "fresnay-sur-sarthe",
          "code_postal": "72130",
          "population": 2889,
          "superficie_km2": 2.0,
          "latitude": 48.2820015,
          "longitude": 0.023,
          "distance_km": 13.38
        },
        {
          "code_insee": "53246",
          "nom": "Saint-Pierre-des-Nids",
          "slug": "saint-pierre-des-nids",
          "code_postal": "53370",
          "population": 1766,
          "superficie_km2": 37.0,
          "latitude": 48.3979988,
          "longitude": -0.109,
          "distance_km": 14.03
        },
        {
          "code_insee": "72029",
          "nom": "Beaumont-sur-Sarthe",
          "slug": "beaumont-sur-sarthe",
          "code_postal": "72170",
          "population": 1974,
          "superficie_km2": 7.0,
          "latitude": 48.2249985,
          "longitude": 0.112,
          "distance_km": 19.15
        },
        {
          "code_insee": "53185",
          "nom": "Pré-en-Pail-Saint-Samson",
          "slug": "pre-en-pail-saint-samson",
          "code_postal": "53140",
          "population": 2295,
          "superficie_km2": 44.0,
          "latitude": 48.4469986,
          "longitude": -0.197,
          "distance_km": 21.28
        },
        {
          "code_insee": "72180",
          "nom": "Mamers",
          "slug": "mamers",
          "code_postal": "72600",
          "population": 5103,
          "superficie_km2": 5.0,
          "latitude": 48.3540001,
          "longitude": 0.371,
          "distance_km": 21.92
        },
        {
          "code_insee": "72189",
          "nom": "Marolles-les-Braults",
          "slug": "marolles-les-braults",
          "code_postal": "72260",
          "population": 2061,
          "superficie_km2": 21.0,
          "latitude": 48.2540016,
          "longitude": 0.32,
          "distance_km": 23.7
        },
        {
          "code_insee": "61464",
          "nom": "Sées",
          "slug": "sees",
          "code_postal": "61500",
          "population": 4191,
          "superficie_km2": 41.0,
          "latitude": 48.6049995,
          "longitude": 0.169,
          "distance_km": 24.13
        },
        {
          "code_insee": "72290",
          "nom": "Saint-Jean-d'Assé",
          "slug": "saint-jean-d-asse",
          "code_postal": "72380",
          "population": 1830,
          "superficie_km2": 21.0,
          "latitude": 48.158001,
          "longitude": 0.122,
          "distance_km": 26.64
        }
      ],
      "zonage_abc": "C",
      "reclassement_abc": "Non",
      "codes_postaux": [
        {
          "code_postal": "72610",
          "libelle_acheminement": "ARCONNAY"
        }
      ],
      "logement": {
        "logements_total": 905,
        "residences_principales": 841,
        "logements_vacants": 47,
        "residences_secondaires": 17,
        "maisons": 833,
        "appartements": 70,
        "proprietaires": 624,
        "locataires": 206,
        "hlm": 62,
        "construits_avant_1919": 53,
        "construits_1919_1945": 20,
        "construits_1946_1970": 80,
        "construits_1971_1990": 404,
        "construits_1991_2005": 142,
        "construits_2006_2019": 132,
        "chauffage_electrique": 343,
        "chauffage_fioul": 84,
        "chauffage_gaz_ville": 305,
        "chauffage_gaz_bouteille": 8,
        "chauffage_autre": 101,
        "menages": 841,
        "logements_avant_1990": 557
      },
      "artisans": {
        "monte_escalier": 0,
        "chauffage_pac_clim": 2,
        "isolation": 4,
        "menuiserie": 8,
        "fenetres_velux": 8,
        "couverture_toiture": 3,
        "facade_peinture": 3,
        "portes_volets": 8,
        "piscine": 2,
        "vmc_ventilation": 1,
        "assainissement": 2
      },
      "revenus": {
        "revenu_median": 23160.0,
        "part_menages_imposes": null,
        "taux_pauvrete": null
      },
      "aides_etat": {
        "zone_climatique": "H1",
        "qpv": false,
        "action_coeur_de_ville": false,
        "petites_villes_de_demain": false
      }
    },
    {
      "code_insee": "72010",
      "nom": "Asnières-sur-Vègre",
      "nom_a": null,
      "nom_de": null,
      "slug": "asnieres-sur-vegre",
      "code_postal": "72430",
      "population": 331,
      "superficie_km2": 1258.14,
      "latitude": 47.889,
      "longitude": -0.2247,
      "villes_proches": [
        {
          "code_insee": "72136",
          "nom": "Fontenay-sur-Vègre",
          "slug": "fontenay-sur-vegre",
          "code_postal": "72350",
          "population": 307,
          "superficie_km2": 1146.35,
          "latitude": 47.906,
          "longitude": -0.2213,
          "distance_km": 1.91
        },
        {
          "code_insee": "72021",
          "nom": "Avoise",
          "slug": "avoise",
          "code_postal": "72430",
          "population": 594,
          "superficie_km2": 2443.95,
          "latitude": 47.8575,
          "longitude": -0.197,
          "distance_km": 4.07
        },
        {
          "code_insee": "72239",
          "nom": "Poillé-sur-Vègre",
          "slug": "poille-sur-vegre",
          "code_postal": "72350",
          "population": 582,
          "superficie_km2": 1758.36,
          "latitude": 47.9169,
          "longitude": -0.2778,
          "distance_km": 5.03
        },
        {
          "code_insee": "72347",
          "nom": "Tassé",
          "slug": "tasse",
          "code_postal": "72430",
          "population": 287,
          "superficie_km2": 1078.21,
          "latitude": 47.8898,
          "longitude": -0.1531,
          "distance_km": 5.34
        },
        {
          "code_insee": "72151",
          "nom": "Juigné-sur-Sarthe",
          "slug": "juigne-sur-sarthe",
          "code_postal": "72300",
          "population": 1141,
          "superficie_km2": 2058.61,
          "latitude": 47.8687,
          "longitude": -0.2912,
          "distance_km": 5.45
        },
        {
          "code_insee": "72083",
          "nom": "Chevillé",
          "slug": "cheville",
          "code_postal": "72350",
          "population": 351,
          "superficie_km2": 1427.55,
          "latitude": 47.944,
          "longitude": -0.222,
          "distance_km": 6.12
        },
        {
          "code_insee": "72059",
          "nom": "Chantenay-Villedieu",
          "slug": "chantenay-villedieu",
          "code_postal": "72430",
          "population": 807,
          "superficie_km2": 2787.79,
          "latitude": 47.9203,
          "longitude": -0.1464,
          "distance_km": 6.8
        },
        {
          "code_insee": "72336",
          "nom": "Solesmes",
          "slug": "solesmes",
          "code_postal": "72300",
          "population": 1240,
          "superficie_km2": 1149.11,
          "latitude": 47.8409,
          "longitude": -0.2832,
          "distance_km": 6.9
        },
        {
          "code_insee": "72228",
          "nom": "Parcé-sur-Sarthe",
          "slug": "parce-sur-sarthe",
          "code_postal": "72300",
          "population": 1950,
          "superficie_km2": 4070.48,
          "latitude": 47.8271,
          "longitude": -0.1929,
          "distance_km": 7.28
        },
        {
          "code_insee": "72307",
          "nom": "Saint-Ouen-en-Champagne",
          "slug": "saint-ouen-en-champagne",
          "code_postal": "72350",
          "population": 237,
          "superficie_km2": 1116.74,
          "latitude": 47.9559,
          "longitude": -0.1767,
          "distance_km": 8.25
        },
        {
          "code_insee": "72016",
          "nom": "Auvers-le-Hamon",
          "slug": "auvers-le-hamon",
          "code_postal": "72300",
          "population": 1445,
          "superficie_km2": 4826.47,
          "latitude": 47.9034,
          "longitude": -0.3418,
          "distance_km": 8.88
        },
        {
          "code_insee": "72312",
          "nom": "Saint-Pierre-des-Bois",
          "slug": "saint-pierre-des-bois",
          "code_postal": "72430",
          "population": 220,
          "superficie_km2": 751.3,
          "latitude": 47.9421,
          "longitude": -0.1355,
          "distance_km": 8.89
        },
        {
          "code_insee": "72378",
          "nom": "Vion",
          "slug": "vion",
          "code_postal": "72300",
          "population": 1366,
          "superficie_km2": 2027.39,
          "latitude": 47.8136,
          "longitude": -0.2654,
          "distance_km": 8.92
        },
        {
          "code_insee": "72019",
          "nom": "Avessé",
          "slug": "avesse",
          "code_postal": "72350",
          "population": 332,
          "superficie_km2": 1867.16,
          "latitude": 47.9646,
          "longitude": -0.2737,
          "distance_km": 9.16
        },
        {
          "code_insee": "72123",
          "nom": "Dureil",
          "slug": "dureil",
          "code_postal": "72270",
          "population": 61,
          "superficie_km2": 805.89,
          "latitude": 47.8298,
          "longitude": -0.1333,
          "distance_km": 9.48
        },
        {
          "code_insee": "72050",
          "nom": "Brûlon",
          "slug": "brulon",
          "code_postal": "72350",
          "population": 1549,
          "superficie_km2": 1620.98,
          "latitude": 47.9811,
          "longitude": -0.2314,
          "distance_km": 10.25
        },
        {
          "code_insee": "72274",
          "nom": "Saint-Christophe-en-Champagne",
          "slug": "saint-christophe-en-champagne",
          "code_postal": "72540",
          "population": 218,
          "superficie_km2": 773.74,
          "latitude": 47.9624,
          "longitude": -0.1373,
          "distance_km": 10.44
        },
        {
          "code_insee": "72184",
          "nom": "Mareil-en-Champagne",
          "slug": "mareil-en-champagne",
          "code_postal": "72540",
          "population": 342,
          "superficie_km2": 792.7,
          "latitude": 47.9801,
          "longitude": -0.177,
          "distance_km": 10.74
        },
        {
          "code_insee": "72379",
          "nom": "Viré-en-Champagne",
          "slug": "vire-en-champagne",
          "code_postal": "72350",
          "population": 204,
          "superficie_km2": 1135.81,
          "latitude": 47.9862,
          "longitude": -0.2921,
          "distance_km": 11.92
        },
        {
          "code_insee": "72167",
          "nom": "Louailles",
          "slug": "louailles",
          "code_postal": "72300",
          "population": 691,
          "superficie_km2": 1060.04,
          "latitude": 47.7816,
          "longitude": -0.2416,
          "distance_km": 12.01
        }
      ],
      "zonage_abc": "C",
      "reclassement_abc": "Non",
      "codes_postaux": [
        {
          "code_postal": "72430",
          "libelle_acheminement": "ASNIERES SUR VEGRE"
        }
      ],
      "logement": {
        "logements_total": 208,
        "residences_principales": 168,
        "logements_vacants": 13,
        "residences_secondaires": 27,
        "maisons": 199,
        "appartements": 5,
        "proprietaires": 128,
        "locataires": 34,
        "hlm": 6,
        "construits_avant_1919": 52,
        "construits_1919_1945": 20,
        "construits_1946_1970": 18,
        "construits_1971_1990": 29,
        "construits_1991_2005": 42,
        "construits_2006_2019": 6,
        "chauffage_electrique": 63,
        "chauffage_fioul": 37,
        "chauffage_gaz_ville": 1,
        "chauffage_gaz_bouteille": 12,
        "chauffage_autre": 55,
        "menages": 168,
        "logements_avant_1990": 119
      },
      "artisans": {
        "monte_escalier": 0,
        "chauffage_pac_clim": 1,
        "isolation": 0,
        "menuiserie": 0,
        "fenetres_velux": 0,
        "couverture_toiture": 1,
        "facade_peinture": 0,
        "portes_volets": 0,
        "piscine": 0,
        "vmc_ventilation": 0,
        "assainissement": 2
      },
      "revenus": {
        "revenu_median": 22360.0,
        "part_menages_imposes": null,
        "taux_pauvrete": null
      },
      "aides_etat": {
        "zone_climatique": "H1",
        "qpv": false,
        "action_coeur_de_ville": false,
        "petites_villes_de_demain": false
      }
    },
    {
      "code_insee": "72011",
      "nom": "Assé-le-Boisne",
      "nom_a": null,
      "nom_de": null,
      "slug": "asse-le-boisne",
      "code_postal": "72130",
      "population": 881,
      "superficie_km2": 2877.47,
      "latitude": 48.3188,
      "longitude": -0.0112,
      "villes_proches": [
        {
          "code_insee": "72337",
          "nom": "Sougé-le-Ganelon",
          "slug": "souge-le-ganelon",
          "code_postal": "72130",
          "population": 826,
          "superficie_km2": 1832.24,
          "latitude": 48.3158,
          "longitude": -0.0425,
          "distance_km": 2.34
        },
        {
          "code_insee": "72323",
          "nom": "Saint-Victeur",
          "slug": "saint-victeur",
          "code_postal": "72130",
          "population": 432,
          "superficie_km2": 715.94,
          "latitude": 48.3173,
          "longitude": 0.0384,
          "distance_km": 3.67
        },
        {
          "code_insee": "72141",
          "nom": "Gesnes-le-Gandelin",
          "slug": "gesnes-le-gandelin",
          "code_postal": "72130",
          "population": 879,
          "superficie_km2": 1300.72,
          "latitude": 48.3581,
          "longitude": 0.024,
          "distance_km": 5.09
        },
        {
          "code_insee": "72121",
          "nom": "Douillet",
          "slug": "douillet",
          "code_postal": "72130",
          "population": 319,
          "superficie_km2": 1917.68,
          "latitude": 48.2763,
          "longitude": -0.0496,
          "distance_km": 5.51
        },
        {
          "code_insee": "72305",
          "nom": "Saint-Ouen-de-Mimbré",
          "slug": "saint-ouen-de-mimbre",
          "code_postal": "72130",
          "population": 901,
          "superficie_km2": 1072.26,
          "latitude": 48.2889,
          "longitude": 0.0504,
          "distance_km": 5.64
        },
        {
          "code_insee": "72212",
          "nom": "Moulins-le-Carbonnel",
          "slug": "moulins-le-carbonnel",
          "code_postal": "72130",
          "population": 697,
          "superficie_km2": 1639.75,
          "latitude": 48.3734,
          "longitude": -0.0143,
          "distance_km": 6.08
        },
        {
          "code_insee": "72139",
          "nom": "Fyé",
          "slug": "fye",
          "code_postal": "72610",
          "population": 1013,
          "superficie_km2": 1633.6,
          "latitude": 48.3241,
          "longitude": 0.0825,
          "distance_km": 6.95
        },
        {
          "code_insee": "72294",
          "nom": "Saint-Léonard-des-Bois",
          "slug": "saint-leonard-des-bois",
          "code_postal": "72130",
          "population": 471,
          "superficie_km2": 2740.38,
          "latitude": 48.3543,
          "longitude": -0.0893,
          "distance_km": 6.99
        },
        {
          "code_insee": "72225",
          "nom": "Oisseau-le-Petit",
          "slug": "oisseau-le-petit",
          "code_postal": "72610",
          "population": 671,
          "superficie_km2": 857.3,
          "latitude": 48.3473,
          "longitude": 0.0751,
          "distance_km": 7.12
        },
        {
          "code_insee": "72266",
          "nom": "Saint-Aubin-de-Locquenay",
          "slug": "saint-aubin-de-locquenay",
          "code_postal": "72130",
          "population": 761,
          "superficie_km2": 1750.78,
          "latitude": 48.256,
          "longitude": 0.0093,
          "distance_km": 7.15
        },
        {
          "code_insee": "72309",
          "nom": "Saint-Paul-le-Gaultier",
          "slug": "saint-paul-le-gaultier",
          "code_postal": "72130",
          "population": 285,
          "superficie_km2": 1521.29,
          "latitude": 48.3262,
          "longitude": -0.1117,
          "distance_km": 7.48
        },
        {
          "code_insee": "72282",
          "nom": "Saint-Georges-le-Gaultier",
          "slug": "saint-georges-le-gaultier",
          "code_postal": "72130",
          "population": 517,
          "superficie_km2": 2341.99,
          "latitude": 48.2956,
          "longitude": -0.1092,
          "distance_km": 7.69
        },
        {
          "code_insee": "72138",
          "nom": "Fresnay-sur-Sarthe",
          "slug": "fresnay-sur-sarthe",
          "code_postal": "72130",
          "population": 2928,
          "superficie_km2": 2925.44,
          "latitude": 48.2855,
          "longitude": 0.0812,
          "distance_km": 7.77
        },
        {
          "code_insee": "61372",
          "nom": "Saint-Céneri-le-Gérei",
          "slug": "saint-ceneri-le-gerei",
          "code_postal": "61250",
          "population": 110,
          "superficie_km2": 385.01,
          "latitude": 48.3872,
          "longitude": -0.0391,
          "distance_km": 7.88
        },
        {
          "code_insee": "72034",
          "nom": "Bérus",
          "slug": "berus",
          "code_postal": "72610",
          "population": 435,
          "superficie_km2": 684.7,
          "latitude": 48.3749,
          "longitude": 0.0674,
          "distance_km": 8.52
        },
        {
          "code_insee": "72209",
          "nom": "Montreuil-le-Chétif",
          "slug": "montreuil-le-chetif",
          "code_postal": "72130",
          "population": 318,
          "superficie_km2": 1470.72,
          "latitude": 48.241,
          "longitude": -0.0335,
          "distance_km": 8.81
        },
        {
          "code_insee": "72199",
          "nom": "Moitron-sur-Sarthe",
          "slug": "moitron-sur-sarthe",
          "code_postal": "72170",
          "population": 258,
          "superficie_km2": 1035.45,
          "latitude": 48.2473,
          "longitude": 0.0516,
          "distance_km": 9.21
        },
        {
          "code_insee": "61203",
          "nom": "Héloup",
          "slug": "heloup",
          "code_postal": "61250",
          "population": 899,
          "superficie_km2": 1288.04,
          "latitude": 48.3994,
          "longitude": 0.0353,
          "distance_km": 9.6
        },
        {
          "code_insee": "61279",
          "nom": "Mieuxcé",
          "slug": "mieuxce",
          "code_postal": "61250",
          "population": 617,
          "superficie_km2": 1028.59,
          "latitude": 48.4127,
          "longitude": -0.0043,
          "distance_km": 10.45
        },
        {
          "code_insee": "61165",
          "nom": "La Ferrière-Bochard",
          "slug": "la-ferriere-bochard",
          "code_postal": "61420",
          "population": 709,
          "superficie_km2": 1082.43,
          "latitude": 48.4143,
          "longitude": -0.0345,
          "distance_km": 10.76
        }
      ],
      "zonage_abc": "C",
      "reclassement_abc": "Non",
      "codes_postaux": [
        {
          "code_postal": "72130",
          "libelle_acheminement": "ASSE LE BOISNE"
        }
      ],
      "logement": {
        "logements_total": 489,
        "residences_principales": 385,
        "logements_vacants": 58,
        "residences_secondaires": 45,
        "maisons": 478,
        "appartements": 9,
        "proprietaires": 311,
        "locataires": 68,
        "hlm": 16,
        "construits_avant_1919": 128,
        "construits_1919_1945": 27,
        "construits_1946_1970": 30,
        "construits_1971_1990": 91,
        "construits_1991_2005": 60,
        "construits_2006_2019": 47,
        "chauffage_electrique": 111,
        "chauffage_fioul": 94,
        "chauffage_gaz_ville": 63,
        "chauffage_gaz_bouteille": 6,
        "chauffage_autre": 110,
        "menages": 385,
        "logements_avant_1990": 276
      },
      "artisans": {
        "monte_escalier": 0,
        "chauffage_pac_clim": 0,
        "isolation": 1,
        "menuiserie": 1,
        "fenetres_velux": 1,
        "couverture_toiture": 3,
        "facade_peinture": 1,
        "portes_volets": 1,
        "piscine": 2,
        "vmc_ventilation": 0,
        "assainissement": 0
      },
      "revenus": {
        "revenu_median": 20220.0,
        "part_menages_imposes": null,
        "taux_pauvrete": null
      },
      "aides_etat": {
        "zone_climatique": "H1",
        "qpv": false,
        "action_coeur_de_ville": false,
        "petites_villes_de_demain": false
      }
    },
    {
      "code_insee": "72012",
      "nom": "Assé-le-Riboul",
      "nom_a": null,
      "nom_de": null,
      "slug": "asse-le-riboul",
      "code_postal": "72170",
      "population": 479,
      "superficie_km2": 1682.1,
      "latitude": 48.2021,
      "longitude": 0.0833,
      "villes_proches": [
        {
          "code_insee": "72362",
          "nom": "Le Tronchet",
          "slug": "le-tronchet",
          "code_postal": "72170",
          "population": 170,
          "superficie_km2": 390.0,
          "latitude": 48.18,
          "longitude": 0.08,
          "distance_km": 2.47
        },
        {
          "code_insee": "72029",
          "nom": "Beaumont-sur-Sarthe",
          "slug": "beaumont-sur-sarthe",
          "code_postal": "72170",
          "population": 1972,
          "superficie_km2": 662.77,
          "latitude": 48.2234,
          "longitude": 0.1167,
          "distance_km": 3.43
        },
        {
          "code_insee": "72297",
          "nom": "Saint-Marceau",
          "slug": "saint-marceau",
          "code_postal": "72170",
          "population": 530,
          "superficie_km2": 891.52,
          "latitude": 48.1833,
          "longitude": 0.1225,
          "distance_km": 3.58
        },
        {
          "code_insee": "72273",
          "nom": "Saint-Christophe-du-Jambet",
          "slug": "saint-christophe-du-jambet",
          "code_postal": "72170",
          "population": 231,
          "superficie_km2": 1124.83,
          "latitude": 48.2373,
          "longitude": 0.0579,
          "distance_km": 4.34
        },
        {
          "code_insee": "72186",
          "nom": "Maresché",
          "slug": "maresche",
          "code_postal": "72170",
          "population": 876,
          "superficie_km2": 1499.95,
          "latitude": 48.2076,
          "longitude": 0.1492,
          "distance_km": 4.92
        },
        {
          "code_insee": "72370",
          "nom": "Vernie",
          "slug": "vernie",
          "code_postal": "72170",
          "population": 346,
          "superficie_km2": 995.96,
          "latitude": 48.1818,
          "longitude": 0.0175,
          "distance_km": 5.37
        },
        {
          "code_insee": "72332",
          "nom": "Ségrie",
          "slug": "segrie",
          "code_postal": "72170",
          "population": 592,
          "superficie_km2": 2209.94,
          "latitude": 48.2122,
          "longitude": 0.0117,
          "distance_km": 5.42
        },
        {
          "code_insee": "72199",
          "nom": "Moitron-sur-Sarthe",
          "slug": "moitron-sur-sarthe",
          "code_postal": "72170",
          "population": 258,
          "superficie_km2": 1035.45,
          "latitude": 48.2473,
          "longitude": 0.0516,
          "distance_km": 5.55
        },
        {
          "code_insee": "72152",
          "nom": "Juillé",
          "slug": "juille",
          "code_postal": "72170",
          "population": 407,
          "superficie_km2": 574.12,
          "latitude": 48.2452,
          "longitude": 0.1241,
          "distance_km": 5.67
        },
        {
          "code_insee": "72197",
          "nom": "Mézières-sous-Lavardin",
          "slug": "mezieres-sous-lavardin",
          "code_postal": "72240",
          "population": 676,
          "superficie_km2": 1537.52,
          "latitude": 48.157,
          "longitude": 0.0424,
          "distance_km": 5.86
        },
        {
          "code_insee": "72290",
          "nom": "Saint-Jean-d'Assé",
          "slug": "saint-jean-d-asse",
          "code_postal": "72380",
          "population": 1790,
          "superficie_km2": 2132.04,
          "latitude": 48.1545,
          "longitude": 0.1245,
          "distance_km": 6.11
        },
        {
          "code_insee": "72349",
          "nom": "Teillé",
          "slug": "teille",
          "code_postal": "72290",
          "population": 543,
          "superficie_km2": 1169.92,
          "latitude": 48.186,
          "longitude": 0.179,
          "distance_km": 7.32
        },
        {
          "code_insee": "72319",
          "nom": "Sainte-Sabine-sur-Longève",
          "slug": "sainte-sabine-sur-longeve",
          "code_postal": "72380",
          "population": 743,
          "superficie_km2": 1188.09,
          "latitude": 48.1355,
          "longitude": 0.0876,
          "distance_km": 7.41
        },
        {
          "code_insee": "72235",
          "nom": "Piacé",
          "slug": "piace",
          "code_postal": "72170",
          "population": 370,
          "superficie_km2": 1013.94,
          "latitude": 48.2655,
          "longitude": 0.1155,
          "distance_km": 7.44
        },
        {
          "code_insee": "72380",
          "nom": "Vivoin",
          "slug": "vivoin",
          "code_postal": "72170",
          "population": 892,
          "superficie_km2": 1834.85,
          "latitude": 48.246,
          "longitude": 0.1639,
          "distance_km": 7.71
        },
        {
          "code_insee": "72266",
          "nom": "Saint-Aubin-de-Locquenay",
          "slug": "saint-aubin-de-locquenay",
          "code_postal": "72130",
          "population": 761,
          "superficie_km2": 1750.78,
          "latitude": 48.256,
          "longitude": 0.0093,
          "distance_km": 8.12
        },
        {
          "code_insee": "72138",
          "nom": "Fresnay-sur-Sarthe",
          "slug": "fresnay-sur-sarthe",
          "code_postal": "72130",
          "population": 2928,
          "superficie_km2": 2925.44,
          "latitude": 48.2855,
          "longitude": 0.0812,
          "distance_km": 9.27
        },
        {
          "code_insee": "72305",
          "nom": "Saint-Ouen-de-Mimbré",
          "slug": "saint-ouen-de-mimbre",
          "code_postal": "72130",
          "population": 901,
          "superficie_km2": 1072.26,
          "latitude": 48.2889,
          "longitude": 0.0504,
          "distance_km": 9.95
        },
        {
          "code_insee": "72119",
          "nom": "Domfront-en-Champagne",
          "slug": "domfront-en-champagne",
          "code_postal": "72240",
          "population": 1069,
          "superficie_km2": 2104.98,
          "latitude": 48.112,
          "longitude": 0.0487,
          "distance_km": 10.34
        },
        {
          "code_insee": "72066",
          "nom": "La Chapelle-Saint-Fray",
          "slug": "la-chapelle-saint-fray",
          "code_postal": "72240",
          "population": 421,
          "superficie_km2": 641.32,
          "latitude": 48.107,
          "longitude": 0.09,
          "distance_km": 10.59
        }
      ],
      "zonage_abc": "C",
      "reclassement_abc": "Non",
      "codes_postaux": [
        {
          "code_postal": "72170",
          "libelle_acheminement": "ASSE LE RIBOUL"
        }
      ],
      "logement": {
        "logements_total": 266,
        "residences_principales": 204,
        "logements_vacants": 22,
        "residences_secondaires": 39,
        "maisons": 266,
        "appartements": 0,
        "proprietaires": 172,
        "locataires": 30,
        "hlm": 0,
        "construits_avant_1919": 89,
        "construits_1919_1945": 20,
        "construits_1946_1970": 25,
        "construits_1971_1990": 30,
        "construits_1991_2005": 18,
        "construits_2006_2019": 19,
        "chauffage_electrique": 68,
        "chauffage_fioul": 51,
        "chauffage_gaz_ville": 0,
        "chauffage_gaz_bouteille": 6,
        "chauffage_autre": 77,
        "menages": 204,
        "logements_avant_1990": 164
      },
      "artisans": {
        "monte_escalier": 0,
        "chauffage_pac_clim": 0,
        "isolation": 2,
        "menuiserie": 2,
        "fenetres_velux": 2,
        "couverture_toiture": 3,
        "facade_peinture": 1,
        "portes_volets": 2,
        "piscine": 1,
        "vmc_ventilation": 0,
        "assainissement": 1
      },
      "revenus": {
        "revenu_median": 22940.0,
        "part_menages_imposes": null,
        "taux_pauvrete": null
      },
      "aides_etat": {
        "zone_climatique": "H1",
        "qpv": false,
        "action_coeur_de_ville": false,
        "petites_villes_de_demain": false
      }
    },
    {
      "code_insee": "72013",
      "nom": "Aubigné-Racan",
      "nom_a": null,
      "nom_de": null,
      "slug": "aubigne-racan",
      "code_postal": "72800",
      "population": 2103,
      "superficie_km2": 32.0,
      "latitude": 47.6839981,
      "longitude": 0.25,
      "villes_proches": [
        {
          "code_insee": "72364",
          "nom": "Vaas",
          "slug": "vaas",
          "code_postal": "72500",
          "population": 1384,
          "superficie_km2": 30.0,
          "latitude": 47.6720009,
          "longitude": 0.315,
          "distance_km": 5.05
        },
        {
          "code_insee": "72176",
          "nom": "Le Lude",
          "slug": "le-lude",
          "code_postal": "72800",
          "population": 4048,
          "superficie_km2": 46.0,
          "latitude": 47.6539993,
          "longitude": 0.15,
          "distance_km": 8.2
        },