{
  "departement": {
    "code": "78",
    "nom": "Yvelines",
    "slug": "yvelines",
    "population_totale": 1458780
  },
  "region": {
    "id": 11,
    "code": "10",
    "nom": "Île-de-France",
    "slug": "ile-de-france"
  },
  "voisins": [
    {
      "dep_code": "75",
      "dep_nom": "Paris",
      "dep_slug": "paris"
    },
    {
      "dep_code": "77",
      "dep_nom": "Seine-et-Marne",
      "dep_slug": "seine-et-marne"
    },
    {
      "dep_code": "91",
      "dep_nom": "Essonne",
      "dep_slug": "essonne"
    },
    {
      "dep_code": "92",
      "dep_nom": "Hauts-de-Seine",
      "dep_slug": "hauts-de-seine"
    }
  ],
  "communes_count": 259,
  "communes": [
    {
      "code_insee": "78003",
      "nom": "Ablis",
      "nom_a": null,
      "nom_de": null,
      "slug": "ablis",
      "code_postal": "78660",
      "population": 3715,
      "superficie_km2": 26.0,
      "latitude": 48.5279999,
      "longitude": 1.851,
      "villes_proches": [
        {
          "code_insee": "78601",
          "nom": "Sonchamp",
          "slug": "sonchamp",
          "code_postal": "78120",
          "population": 1630,
          "superficie_km2": 46.0,
          "latitude": 48.5880013,
          "longitude": 1.869,
          "distance_km": 6.8
        },
        {
          "code_insee": "78537",
          "nom": "Saint-Arnoult-en-Yvelines",
          "slug": "saint-arnoult-en-yvelines",
          "code_postal": "78730",
          "population": 5870,
          "superficie_km2": 13.0,
          "latitude": 48.5719986,
          "longitude": 1.9349999,
          "distance_km": 7.88
        },
        {
          "code_insee": "28015",
          "nom": "Auneau-Bleury-Saint-Symphorien",
          "slug": "auneau-bleury-saint-symphorien",
          "code_postal": "28700",
          "population": 6288,
          "superficie_km2": 17.0,
          "latitude": 48.4690018,
          "longitude": 1.773,
          "distance_km": 8.72
        },
        {
          "code_insee": "91175",
          "nom": "Corbreuse",
          "slug": "corbreuse",
          "code_postal": "91410",
          "population": 1706,
          "superficie_km2": 16.0,
          "latitude": 48.4949989,
          "longitude": 1.96,
          "distance_km": 8.83
        },
        {
          "code_insee": "28013",
          "nom": "Aunay-sous-Auneau",
          "slug": "aunay-sous-auneau",
          "code_postal": "28700",
          "population": 1537,
          "superficie_km2": 20.0,
          "latitude": 48.4430008,
          "longitude": 1.814,
          "distance_km": 9.84
        },
        {
          "code_insee": "91200",
          "nom": "Dourdan",
          "slug": "dourdan",
          "code_postal": "91410",
          "population": 11279,
          "superficie_km2": 31.0,
          "latitude": 48.5359993,
          "longitude": 1.994,
          "distance_km": 10.57
        },
        {
          "code_insee": "28168",
          "nom": "Gallardon",
          "slug": "gallardon",
          "code_postal": "28320",
          "population": 3589,
          "superficie_km2": 11.0,
          "latitude": 48.5340004,
          "longitude": 1.689,
          "distance_km": 11.95
        },
        {
          "code_insee": "91284",
          "nom": "Les Granges-le-Roi",
          "slug": "les-granges-le-roi",
          "code_postal": "91410",
          "population": 1183,
          "superficie_km2": 13.0,
          "latitude": 48.4980011,
          "longitude": 2.0109999,
          "distance_km": 12.25
        },
        {
          "code_insee": "28363",
          "nom": "Sainville",
          "slug": "sainville",
          "code_postal": "28700",
          "population": 1029,
          "superficie_km2": 22.0,
          "latitude": 48.4150009,
          "longitude": 1.882,
          "distance_km": 12.77
        },
        {
          "code_insee": "78269",
          "nom": "Gazeran",
          "slug": "gazeran",
          "code_postal": "78125",
          "population": 1288,
          "superficie_km2": 26.0,
          "latitude": 48.6329994,
          "longitude": 1.778,
          "distance_km": 12.85
        },
        {
          "code_insee": "28135",
          "nom": "Droue-sur-Drouette",
          "slug": "droue-sur-drouette",
          "code_postal": "28230",
          "population": 1195,
          "superficie_km2": 5.0,
          "latitude": 48.6020012,
          "longitude": 1.701,
          "distance_km": 13.77
        },
        {
          "code_insee": "78517",
          "nom": "Rambouillet",
          "slug": "rambouillet",
          "code_postal": "78120",
          "population": 26816,
          "superficie_km2": 36.0,
          "latitude": 48.6539993,
          "longitude": 1.826,
          "distance_km": 14.13
        },
        {
          "code_insee": "28140",
          "nom": "Épernon",
          "slug": "epernon",
          "code_postal": "28230",
          "population": 5549,
          "superficie_km2": 7.0,
          "latitude": 48.5940018,
          "longitude": 1.6849999,
          "distance_km": 14.25
        },
        {
          "code_insee": "78120",
          "nom": "Bullion",
          "slug": "bullion",
          "code_postal": "78830",
          "population": 1914,
          "superficie_km2": 21.0,
          "latitude": 48.625,
          "longitude": 1.983,
          "distance_km": 14.51
        },
        {
          "code_insee": "28039",
          "nom": "Béville-le-Comte",
          "slug": "beville-le-comte",
          "code_postal": "28700",
          "population": 1682,
          "superficie_km2": 20.0,
          "latitude": 48.4399986,
          "longitude": 1.7029999,
          "distance_km": 14.65
        },
        {
          "code_insee": "91525",
          "nom": "Roinville",
          "slug": "roinville",
          "code_postal": "91410",
          "population": 1314,
          "superficie_km2": 14.0,
          "latitude": 48.5169983,
          "longitude": 2.053,
          "distance_km": 14.93
        },
        {
          "code_insee": "28023",
          "nom": "Bailleau-Armenonville",
          "slug": "bailleau-armenonville",
          "code_postal": "28320",
          "population": 1344,
          "superficie_km2": 18.0,
          "latitude": 48.5270004,
          "longitude": 1.647,
          "distance_km": 15.02
        },
        {
          "code_insee": "78087",
          "nom": "Bonnelles",
          "slug": "bonnelles",
          "code_postal": "78830",
          "population": 2123,
          "superficie_km2": 11.0,
          "latitude": 48.618,
          "longitude": 2.03,
          "distance_km": 16.54
        },
        {
          "code_insee": "28191",
          "nom": "Hanches",
          "slug": "hanches",
          "code_postal": "28130",
          "population": 2683,
          "superficie_km2": 16.0,
          "latitude": 48.5970001,
          "longitude": 1.648,
          "distance_km": 16.79
        },
        {
          "code_insee": "91017",
          "nom": "Angervilliers",
          "slug": "angervilliers",
          "code_postal": "91470",
          "population": 1731,
          "superficie_km2": 9.0,
          "latitude": 48.5909996,
          "longitude": 2.059,
          "distance_km": 16.83
        }
      ],
      "zonage_abc": "B1",
      "reclassement_abc": "Reclassement",
      "codes_postaux": [
        {
          "code_postal": "78660",
          "libelle_acheminement": "ABLIS"
        }
      ],
      "logement": {
        "logements_total": 1542,
        "residences_principales": 1411,
        "logements_vacants": 89,
        "residences_secondaires": 42,
        "maisons": 1256,
        "appartements": 284,
        "proprietaires": 1092,
        "locataires": 298,
        "hlm": 143,
        "construits_avant_1919": 110,
        "construits_1919_1945": 56,
        "construits_1946_1970": 117,
        "construits_1971_1990": 361,
        "construits_1991_2005": 342,
        "construits_2006_2019": 264,
        "chauffage_electrique": 723,
        "chauffage_fioul": 58,
        "chauffage_gaz_ville": 421,
        "chauffage_gaz_bouteille": 16,
        "chauffage_autre": 191,
        "menages": 1411,
        "logements_avant_1990": 644
      },
      "artisans": {
        "monte_escalier": 0,
        "chauffage_pac_clim": 6,
        "isolation": 5,
        "menuiserie": 5,
        "fenetres_velux": 5,
        "couverture_toiture": 4,
        "facade_peinture": 5,
        "portes_volets": 5,
        "piscine": 1,
        "vmc_ventilation": 2,
        "assainissement": 6
      },
      "revenus": {
        "revenu_median": 26170.0,
        "part_menages_imposes": 68.0,
        "taux_pauvrete": null
      },
      "aides_etat": {
        "zone_climatique": "H1",
        "qpv": false,
        "action_coeur_de_ville": false,
        "petites_villes_de_demain": true
      }
    },
    {
      "code_insee": "78005",
      "nom": "Achères",
      "nom_a": null,
      "nom_de": null,
      "slug": "acheres",
      "code_postal": "78260",
      "population": 21368,
      "superficie_km2": 10.0,
      "latitude": 48.9720001,
      "longitude": 2.0899999,
      "villes_proches": [
        {
          "code_insee": "78015",
          "nom": "Andrésy",
          "slug": "andresy",
          "code_postal": "78570",
          "population": 13230,
          "superficie_km2": 7.0,
          "latitude": 48.9819984,
          "longitude": 2.05,
          "distance_km": 3.12
        },
        {
          "code_insee": "78172",
          "nom": "Conflans-Sainte-Honorine",
          "slug": "conflans-sainte-honorine",
          "code_postal": "78700",
          "population": 35926,
          "superficie_km2": 10.0,
          "latitude": 49.0,
          "longitude": 2.099,
          "distance_km": 3.18
        },
        {
          "code_insee": "78551",
          "nom": "Saint-Germain-en-Laye",
          "slug": "saint-germain-en-laye",
          "code_postal": "78112",
          "population": 44380,
          "superficie_km2": 49.0,
          "latitude": 48.9410019,
          "longitude": 2.099,
          "distance_km": 3.51
        },
        {
          "code_insee": "78382",
          "nom": "Maurecourt",
          "slug": "maurecourt",
          "code_postal": "78780",
          "population": 4355,
          "superficie_km2": 4.0,
          "latitude": 48.9990006,
          "longitude": 2.053,
          "distance_km": 4.04
        },
        {
          "code_insee": "78138",
          "nom": "Chanteloup-les-Vignes",
          "slug": "chanteloup-les-vignes",
          "code_postal": "78570",
          "population": 10735,
          "superficie_km2": 3.0,
          "latitude": 48.9760017,
          "longitude": 2.0320001,
          "distance_km": 4.26
        },
        {
          "code_insee": "78358",
          "nom": "Maisons-Laffitte",
          "slug": "maisons-laffitte",
          "code_postal": "78600",
          "population": 23080,
          "superficie_km2": 7.0,
          "latitude": 48.9519997,
          "longitude": 2.152,
          "distance_km": 5.04
        },
        {
          "code_insee": "78123",
          "nom": "Carrières-sous-Poissy",
          "slug": "carrieres-sous-poissy",
          "code_postal": "78955",
          "population": 18316,
          "superficie_km2": 7.0,
          "latitude": 48.9459992,
          "longitude": 2.029,
          "distance_km": 5.31
        },
        {
          "code_insee": "95450",
          "nom": "Neuville-sur-Oise",
          "slug": "neuville-sur-oise",
          "code_postal": "95000",
          "population": 2070,
          "superficie_km2": 4.0,
          "latitude": 49.0169983,
          "longitude": 2.063,
          "distance_km": 5.38
        },
        {
          "code_insee": "95218",
          "nom": "Éragny",
          "slug": "eragny",
          "code_postal": "95610",
          "population": 18468,
          "superficie_km2": 5.0,
          "latitude": 49.0200005,
          "longitude": 2.1010001,
          "distance_km": 5.4
        },
        {
          "code_insee": "95306",
          "nom": "Herblay-sur-Seine",
          "slug": "herblay-sur-seine",
          "code_postal": "95220",
          "population": 31605,
          "superficie_km2": 13.0,
          "latitude": 49.0009995,
          "longitude": 2.1500001,
          "distance_km": 5.44
        },
        {
          "code_insee": "78396",
          "nom": "Le Mesnil-le-Roi",
          "slug": "le-mesnil-le-roi",
          "code_postal": "78600",
          "population": 6322,
          "superficie_km2": 4.0,
          "latitude": 48.9259987,
          "longitude": 2.122,
          "distance_km": 5.62
        },
        {
          "code_insee": "78624",
          "nom": "Triel-sur-Seine",
          "slug": "triel-sur-seine",
          "code_postal": "78510",
          "population": 12388,
          "superficie_km2": 14.0,
          "latitude": 48.9780006,
          "longitude": 2.0090001,
          "distance_km": 5.95
        },
        {
          "code_insee": "95323",
          "nom": "Jouy-le-Moutier",
          "slug": "jouy-le-moutier",
          "code_postal": "95280",
          "population": 17175,
          "superficie_km2": 7.0,
          "latitude": 49.0110016,
          "longitude": 2.0339999,
          "distance_km": 5.96
        },
        {
          "code_insee": "95257",
          "nom": "La Frette-sur-Seine",
          "slug": "la-frette-sur-seine",
          "code_postal": "95530",
          "population": 4621,
          "superficie_km2": 2.0,
          "latitude": 48.973999,
          "longitude": 2.178,
          "distance_km": 6.43
        },
        {
          "code_insee": "78498",
          "nom": "Poissy",
          "slug": "poissy",
          "code_postal": "78300",
          "population": 40016,
          "superficie_km2": 13.0,
          "latitude": 48.9239998,
          "longitude": 2.027,
          "distance_km": 7.05
        },
        {
          "code_insee": "78418",
          "nom": "Montesson",
          "slug": "montesson",
          "code_postal": "78360",
          "population": 14511,
          "superficie_km2": 7.0,
          "latitude": 48.9169998,
          "longitude": 2.1400001,
          "distance_km": 7.12
        },
        {
          "code_insee": "78586",
          "nom": "Sartrouville",
          "slug": "sartrouville",
          "code_postal": "78500",
          "population": 51220,
          "superficie_km2": 8.0,
          "latitude": 48.9399986,
          "longitude": 2.175,
          "distance_km": 7.15
        },
        {
          "code_insee": "95488",
          "nom": "Pierrelaye",
          "slug": "pierrelaye",
          "code_postal": "95220",
          "population": 9998,
          "superficie_km2": 9.0,
          "latitude": 49.019001,
          "longitude": 2.161,
          "distance_km": 7.36
        },
        {
          "code_insee": "78384",
          "nom": "Médan",
          "slug": "medan",
          "code_postal": "78670",
          "population": 1322,
          "superficie_km2": 3.0,
          "latitude": 48.9550018,
          "longitude": 1.988,
          "distance_km": 7.68
        },
        {
          "code_insee": "78672",
          "nom": "Villennes-sur-Seine",
          "slug": "villennes-sur-seine",
          "code_postal": "78670",
          "population": 5628,
          "superficie_km2": 5.0,
          "latitude": 48.9370003,
          "longitude": 1.9960001,
          "distance_km": 7.89
        }
      ],
      "zonage_abc": "A",
      "reclassement_abc": "Non",
      "codes_postaux": [
        {
          "code_postal": "78260",
          "libelle_acheminement": "ACHERES"
        }
      ],
      "logement": {
        "logements_total": 9763,
        "residences_principales": 9184,
        "logements_vacants": 509,
        "residences_secondaires": 69,
        "maisons": 2754,
        "appartements": 6854,
        "proprietaires": 3831,
        "locataires": 5265,
        "hlm": 3608,
        "construits_avant_1919": 128,
        "construits_1919_1945": 409,
        "construits_1946_1970": 2087,
        "construits_1971_1990": 2640,
        "construits_1991_2005": 2218,
        "construits_2006_2019": 1685,
        "chauffage_electrique": 2350,
        "chauffage_fioul": 235,
        "chauffage_gaz_ville": 5997,
        "chauffage_gaz_bouteille": 19,
        "chauffage_autre": 581,
        "menages": 9184,
        "logements_avant_1990": 5264
      },
      "artisans": {
        "monte_escalier": 1,
        "chauffage_pac_clim": 33,
        "isolation": 10,
        "menuiserie": 18,
        "fenetres_velux": 18,
        "couverture_toiture": 3,
        "facade_peinture": 28,
        "portes_volets": 18,
        "piscine": 3,
        "vmc_ventilation": 8,
        "assainissement": 30
      },
      "revenus": {
        "revenu_median": 23010.0,
        "part_menages_imposes": 59.0,
        "taux_pauvrete": 13.0
      },
      "aides_etat": {
        "zone_climatique": "H1",
        "qpv": false,
        "action_coeur_de_ville": false,
        "petites_villes_de_demain": false
      }
    },
    {
      "code_insee": "78006",
      "nom": "Adainville",
      "nom_a": null,
      "nom_de": null,
      "slug": "adainville",
      "code_postal": "78113",
      "population": 673,
      "superficie_km2": 1018.75,
      "latitude": 48.7206,
      "longitude": 1.6629,
      "villes_proches": [
        {
          "code_insee": "78171",
          "nom": "Condé-sur-Vesgre",
          "slug": "conde-sur-vesgre",
          "code_postal": "78113",
          "population": 1279,
          "superficie_km2": 1077.68,
          "latitude": 48.7308,
          "longitude": 1.669,
          "distance_km": 1.22
        },
        {
          "code_insee": "78302",
          "nom": "La Hauteville",
          "slug": "la-hauteville",
          "code_postal": "78113",
          "population": 157,
          "superficie_km2": 489.71,
          "latitude": 48.7049,
          "longitude": 1.6257,
          "distance_km": 3.24
        },
        {
          "code_insee": "78077",
          "nom": "La Boissière-École",
          "slug": "la-boissiere-ecole",
          "code_postal": "78125",
          "population": 747,
          "superficie_km2": 2558.26,
          "latitude": 48.6911,
          "longitude": 1.6661,
          "distance_km": 3.29
        },
        {
          "code_insee": "78283",
          "nom": "Grandchamp",
          "slug": "grandchamp",
          "code_postal": "78113",
          "population": 300,
          "superficie_km2": 609.61,
          "latitude": 48.7207,
          "longitude": 1.6141,
          "distance_km": 3.58
        },
        {
          "code_insee": "78096",
          "nom": "Bourdonné",
          "slug": "bourdonne",
          "code_postal": "78113",
          "population": 506,
          "superficie_km2": 1091.26,
          "latitude": 48.7556,
          "longitude": 1.6559,
          "distance_km": 3.93
        },
        {
          "code_insee": "78606",
          "nom": "Le Tartre-Gaudran",
          "slug": "le-tartre-gaudran",
          "code_postal": "78113",
          "population": 37,
          "superficie_km2": 430.23,
          "latitude": 48.6976,
          "longitude": 1.6028,
          "distance_km": 5.1
        },
        {
          "code_insee": "78264",
          "nom": "Gambaiseuil",
          "slug": "gambaiseuil",
          "code_postal": "78490",
          "population": 64,
          "superficie_km2": 1919.91,
          "latitude": 48.7614,
          "longitude": 1.7221,
          "distance_km": 6.28
        },
        {
          "code_insee": "78263",
          "nom": "Gambais",
          "slug": "gambais",
          "code_postal": "78950",
          "population": 2574,
          "superficie_km2": 2273.32,
          "latitude": 48.7774,
          "longitude": 1.6732,
          "distance_km": 6.36
        },
        {
          "code_insee": "78194",
          "nom": "Dannemarie",
          "slug": "dannemarie",
          "code_postal": "78550",
          "population": 229,
          "superficie_km2": 345.41,
          "latitude": 48.7623,
          "longitude": 1.6036,
          "distance_km": 6.36
        },
        {
          "code_insee": "78407",
          "nom": "Mittainville",
          "slug": "mittainville",
          "code_postal": "78125",
          "population": 659,
          "superficie_km2": 1064.68,
          "latitude": 48.6639,
          "longitude": 1.6363,
          "distance_km": 6.6
        },
        {
          "code_insee": "28299",
          "nom": "Les Pinthières",
          "slug": "les-pinthieres",
          "code_postal": "28210",
          "population": 165,
          "superficie_km2": 404.3,
          "latitude": 48.7044,
          "longitude": 1.5748,
          "distance_km": 6.71
        },
        {
          "code_insee": "28056",
          "nom": "Boutigny-Prouais",
          "slug": "boutigny-prouais",
          "code_postal": "28410",
          "population": 1704,
          "superficie_km2": 3296.94,
          "latitude": 48.7363,
          "longitude": 1.5674,
          "distance_km": 7.22
        },
        {
          "code_insee": "28146",
          "nom": "Faverolles",
          "slug": "faverolles",
          "code_postal": "28210",
          "population": 820,
          "superficie_km2": 1004.21,
          "latitude": 48.6799,
          "longitude": 1.5818,
          "distance_km": 7.48
        },
        {
          "code_insee": "78307",
          "nom": "Hermeray",
          "slug": "hermeray",
          "code_postal": "78125",
          "population": 1007,
          "superficie_km2": 1838.71,
          "latitude": 48.6549,
          "longitude": 1.688,
          "distance_km": 7.53
        },
        {
          "code_insee": "78381",
          "nom": "Maulette",
          "slug": "maulette",
          "code_postal": "78550",
          "population": 1088,
          "superficie_km2": 790.62,
          "latitude": 48.7842,
          "longitude": 1.6111,
          "distance_km": 8.03
        },
        {
          "code_insee": "78497",
          "nom": "Poigny-la-Forêt",
          "slug": "poigny-la-foret",
          "code_postal": "78125",
          "population": 957,
          "superficie_km2": 2357.61,
          "latitude": 48.6803,
          "longitude": 1.7549,
          "distance_km": 8.1
        },
        {
          "code_insee": "28349",
          "nom": "Saint-Lucien",
          "slug": "saint-lucien",
          "code_postal": "28210",
          "population": 283,
          "superficie_km2": 882.2,
          "latitude": 48.641,
          "longitude": 1.6235,
          "distance_km": 9.31
        },
        {
          "code_insee": "78516",
          "nom": "Raizeux",
          "slug": "raizeux",
          "code_postal": "78125",
          "population": 970,
          "superficie_km2": 1035.64,
          "latitude": 48.6375,
          "longitude": 1.6849,
          "distance_km": 9.38
        },
        {
          "code_insee": "78310",
          "nom": "Houdan",
          "slug": "houdan",
          "code_postal": "78550",
          "population": 3721,
          "superficie_km2": 1041.03,
          "latitude": 48.7968,
          "longitude": 1.5981,
          "distance_km": 9.71
        },
        {
          "code_insee": "78048",
          "nom": "Bazainville",
          "slug": "bazainville",
          "code_postal": "78550",
          "population": 1469,
          "superficie_km2": 1203.65,
          "latitude": 48.8121,
          "longitude": 1.6659,
          "distance_km": 10.18
        }
      ],
      "zonage_abc": "B1",
      "reclassement_abc": "Non",
      "codes_postaux": [
        {
          "code_postal": "78113",
          "libelle_acheminement": "ADAINVILLE"
        }
      ],
      "logement": {
        "logements_total": 427,
        "residences_principales": 291,
        "logements_vacants": 38,
        "residences_secondaires": 97,
        "maisons": 424,
        "appartements": 1,
        "proprietaires": 273,
        "locataires": 12,
        "hlm": 0,
        "construits_avant_1919": 36,
        "construits_1919_1945": 23,
        "construits_1946_1970": 32,
        "construits_1971_1990": 146,
        "construits_1991_2005": 34,
        "construits_2006_2019": 19,
        "chauffage_electrique": 133,
        "chauffage_fioul": 89,
        "chauffage_gaz_ville": 6,
        "chauffage_gaz_bouteille": 17,
        "chauffage_autre": 43,
        "menages": 291,
        "logements_avant_1990": 237
      },
      "artisans": {
        "monte_escalier": 0,
        "chauffage_pac_clim": 3,
        "isolation": 1,
        "menuiserie": 0,
        "fenetres_velux": 0,
        "couverture_toiture": 0,
        "facade_peinture": 0,
        "portes_volets": 0,
        "piscine": 2,
        "vmc_ventilation": 0,
        "assainissement": 3
      },
      "revenus": {
        "revenu_median": 28930.0,
        "part_menages_imposes": null,
        "taux_pauvrete": null
      },
      "aides_etat": {
        "zone_climatique": "H1",
        "qpv": false,
        "action_coeur_de_ville": false,
        "petites_villes_de_demain": false
      }
    },
    {
      "code_insee": "78007",
      "nom": "Aigremont",
      "nom_a": null,
      "nom_de": null,
      "slug": "aigremont",
      "code_postal": "78240",
      "population": 1083,
      "superficie_km2": 3.0,
      "latitude": 48.901001,
      "longitude": 2.0150001,
      "villes_proches": [
        {
          "code_insee": "78133",
          "nom": "Chambourcy",
          "slug": "chambourcy",
          "code_postal": "78240",
          "population": 5736,
          "superficie_km2": 8.0,
          "latitude": 48.8959999,
          "longitude": 2.033,
          "distance_km": 1.43
        },
        {
          "code_insee": "78498",
          "nom": "Poissy",
          "slug": "poissy",
          "code_postal": "78300",
          "population": 40016,
          "superficie_km2": 13.0,
          "latitude": 48.9239998,
          "longitude": 2.027,
          "distance_km": 2.7
        },
        {
          "code_insee": "78233",
          "nom": "Feucherolles",
          "slug": "feucherolles",
          "code_postal": "78810",
          "population": 3020,
          "superficie_km2": 13.0,
          "latitude": 48.8800011,
          "longitude": 1.98,
          "distance_km": 3.46
        },
        {
          "code_insee": "78466",
          "nom": "Orgeval",
          "slug": "orgeval",
          "code_postal": "78630",
          "population": 6948,
          "superficie_km2": 15.0,
          "latitude": 48.9160004,
          "longitude": 1.969,
          "distance_km": 3.75
        },
        {
          "code_insee": "78571",
          "nom": "Saint-Nom-la-Bretèche",
          "slug": "saint-nom-la-breteche",
          "code_postal": "78860",
          "population": 4886,
          "superficie_km2": 12.0,
          "latitude": 48.862999,
          "longitude": 2.0190001,
          "distance_km": 4.24
        },
        {
          "code_insee": "78672",
          "nom": "Villennes-sur-Seine",
          "slug": "villennes-sur-seine",
          "code_postal": "78670",
          "population": 5628,
          "superficie_km2": 5.0,
          "latitude": 48.9370003,
          "longitude": 1.9960001,
          "distance_km": 4.24
        },
        {
          "code_insee": "78224",
          "nom": "L'Étang-la-Ville",
          "slug": "l-etang-la-ville",
          "code_postal": "78620",
          "population": 4673,
          "superficie_km2": 5.0,
          "latitude": 48.8670006,
          "longitude": 2.0599999,
          "distance_km": 5.01
        },
        {
          "code_insee": "78367",
          "nom": "Mareil-Marly",
          "slug": "mareil-marly",
          "code_postal": "78750",
          "population": 3826,
          "superficie_km2": 2.0,
          "latitude": 48.8810005,
          "longitude": 2.0769999,
          "distance_km": 5.05
        },
        {
          "code_insee": "78123",
          "nom": "Carrières-sous-Poissy",
          "slug": "carrieres-sous-poissy",
          "code_postal": "78955",
          "population": 18316,
          "superficie_km2": 7.0,
          "latitude": 48.9459992,
          "longitude": 2.029,
          "distance_km": 5.11
        },
        {
          "code_insee": "78431",
          "nom": "Morainvilliers",
          "slug": "morainvilliers",
          "code_postal": "78630",
          "population": 3082,
          "superficie_km2": 7.0,
          "latitude": 48.9339981,
          "longitude": 1.946,
          "distance_km": 6.24
        },
        {
          "code_insee": "78384",
          "nom": "Médan",
          "slug": "medan",
          "code_postal": "78670",
          "population": 1322,
          "superficie_km2": 3.0,
          "latitude": 48.9550018,
          "longitude": 1.988,
          "distance_km": 6.32
        },
        {
          "code_insee": "78152",
          "nom": "Chavenay",
          "slug": "chavenay",
          "code_postal": "78450",
          "population": 1746,
          "superficie_km2": 6.0,
          "latitude": 48.8479996,
          "longitude": 1.983,
          "distance_km": 6.34
        },
        {
          "code_insee": "78481",
          "nom": "Le Pecq",
          "slug": "le-pecq",
          "code_postal": "78230",
          "population": 15832,
          "superficie_km2": 3.0,
          "latitude": 48.894001,
          "longitude": 2.105,
          "distance_km": 6.62
        },
        {
          "code_insee": "78455",
          "nom": "Noisy-le-Roi",
          "slug": "noisy-le-roi",
          "code_postal": "78590",
          "population": 7631,
          "superficie_km2": 6.0,
          "latitude": 48.8460007,
          "longitude": 2.0550001,
          "distance_km": 6.78
        },
        {
          "code_insee": "78372",
          "nom": "Marly-le-Roi",
          "slug": "marly-le-roi",
          "code_postal": "78160",
          "population": 16531,
          "superficie_km2": 7.0,
          "latitude": 48.8650017,
          "longitude": 2.0910001,
          "distance_km": 6.85
        },
        {
          "code_insee": "78189",
          "nom": "Crespières",
          "slug": "crespieres",
          "code_postal": "78121",
          "population": 1702,
          "superficie_km2": 15.0,
          "latitude": 48.882,
          "longitude": 1.921,
          "distance_km": 7.19
        },
        {
          "code_insee": "78502",
          "nom": "Le Port-Marly",
          "slug": "le-port-marly",
          "code_postal": "78560",
          "population": 5608,
          "superficie_km2": 1.0,
          "latitude": 48.8800011,
          "longitude": 2.109,
          "distance_km": 7.26
        },
        {
          "code_insee": "78010",
          "nom": "Les Alluets-le-Roi",
          "slug": "les-alluets-le-roi",
          "code_postal": "78580",
          "population": 1273,
          "superficie_km2": 7.0,
          "latitude": 48.9140015,
          "longitude": 1.915,
          "distance_km": 7.45
        },
        {
          "code_insee": "78551",
          "nom": "Saint-Germain-en-Laye",
          "slug": "saint-germain-en-laye",
          "code_postal": "78112",
          "population": 44380,
          "superficie_km2": 49.0,
          "latitude": 48.9410019,
          "longitude": 2.099,
          "distance_km": 7.58
        },
        {
          "code_insee": "78674",
          "nom": "Villepreux",
          "slug": "villepreux",
          "code_postal": "78450",
          "population": 11150,
          "superficie_km2": 10.0,
          "latitude": 48.8310013,
          "longitude": 2.013,
          "distance_km": 7.78
        }
      ],
      "zonage_abc": "Abis",
      "reclassement_abc": "Non",
      "codes_postaux": [
        {
          "code_postal": "78240",
          "libelle_acheminement": "AIGREMONT"
        }
      ],
      "logement": {
        "logements_total": 419,
        "residences_principales": 400,
        "logements_vacants": 15,
        "residences_secondaires": 4,
        "maisons": 395,
        "appartements": 24,
        "proprietaires": 344,
        "locataires": 54,
        "hlm": 8,
        "construits_avant_1919": 24,
        "construits_1919_1945": 19,
        "construits_1946_1970": 32,
        "construits_1971_1990": 191,
        "construits_1991_2005": 90,
        "construits_2006_2019": 43,
        "chauffage_electrique": 108,
        "chauffage_fioul": 12,
        "chauffage_gaz_ville": 270,
        "chauffage_gaz_bouteille": 0,
        "chauffage_autre": 10,
        "menages": 400,
        "logements_avant_1990": 266
      },
      "artisans": {
        "monte_escalier": 0,
        "chauffage_pac_clim": 2,
        "isolation": 4,
        "menuiserie": 1,
        "fenetres_velux": 1,
        "couverture_toiture": 4,
        "facade_peinture": 1,
        "portes_volets": 1,
        "piscine": 2,
        "vmc_ventilation": 1,
        "assainissement": 1
      },
      "revenus": {
        "revenu_median": 40010.0,
        "part_menages_imposes": null,
        "taux_pauvrete": null
      },
      "aides_etat": {
        "zone_climatique": "H1",
        "qpv": false,
        "action_coeur_de_ville": false,
        "petites_villes_de_demain": false
      }
    },
    {
      "code_insee": "78009",
      "nom": "Allainville",
      "nom_a": null,
      "nom_de": null,
      "slug": "allainville",
      "code_postal": "78660",
      "population": 281,
      "superficie_km2": 1627.48,
      "latitude": 48.4673,
      "longitude": 1.9038,
      "villes_proches": [
        {
          "code_insee": "91145",
          "nom": "Chatignonville",
          "slug": "chatignonville",
          "code_postal": "91410",
          "population": 72,
          "superficie_km2": 516.07,
          "latitude": 48.4675,
          "longitude": 1.9351,
          "distance_km": 2.31
        },
        {
          "code_insee": "78478",
          "nom": "Paray-Douaville",
          "slug": "paray-douaville",
          "code_postal": "78660",
          "population": 218,
          "superficie_km2": 1019.95,
          "latitude": 48.4607,
          "longitude": 1.8615,
          "distance_km": 3.2
        },
        {
          "code_insee": "28169",
          "nom": "Garancières-en-Beauce",
          "slug": "garancieres-en-beauce",
          "code_postal": "28700",
          "population": 238,
          "superficie_km2": 1136.92,
          "latitude": 48.4352,
          "longitude": 1.9106,
          "distance_km": 3.6
        },
        {
          "code_insee": "91035",
          "nom": "Authon-la-Plaine",
          "slug": "authon-la-plaine",
          "code_postal": "91410",
          "population": 368,
          "superficie_km2": 1049.13,
          "latitude": 48.456,
          "longitude": 1.9545,
          "distance_km": 3.94
        },
        {
          "code_insee": "78071",
          "nom": "Boinville-le-Gaillard",
          "slug": "boinville-le-gaillard",
          "code_postal": "78660",
          "population": 597,
          "superficie_km2": 1266.79,
          "latitude": 48.4958,
          "longitude": 1.8698,
          "distance_km": 4.04
        },
        {
          "code_insee": "78564",
          "nom": "Saint-Martin-de-Bréthencourt",
          "slug": "saint-martin-de-brethencourt",
          "code_postal": "78660",
          "population": 690,
          "superficie_km2": 1661.8,
          "latitude": 48.5153,
          "longitude": 1.9179,
          "distance_km": 5.44
        },
        {
          "code_insee": "91175",
          "nom": "Corbreuse",
          "slug": "corbreuse",
          "code_postal": "91410",
          "population": 1640,
          "superficie_km2": 1592.01,
          "latitude": 48.5007,
          "longitude": 1.9638,
          "distance_km": 5.77
        },
        {
          "code_insee": "28363",
          "nom": "Sainville",
          "slug": "sainville",
          "code_postal": "28700",
          "population": 1046,
          "superficie_km2": 2203.03,
          "latitude": 48.4149,
          "longitude": 1.8802,
          "distance_km": 6.08
        },
        {
          "code_insee": "78472",
          "nom": "Orsonville",
          "slug": "orsonville",
          "code_postal": "78660",
          "population": 325,
          "superficie_km2": 975.22,
          "latitude": 48.4778,
          "longitude": 1.8227,
          "distance_km": 6.09
        },
        {
          "code_insee": "91547",
          "nom": "Saint-Escobille",
          "slug": "saint-escobille",
          "code_postal": "91410",
          "population": 454,
          "superficie_km2": 1201.08,
          "latitude": 48.4223,
          "longitude": 1.9605,
          "distance_km": 6.52
        },
        {
          "code_insee": "28013",
          "nom": "Aunay-sous-Auneau",
          "slug": "aunay-sous-auneau",
          "code_postal": "28700",
          "population": 1484,
          "superficie_km2": 1960.32,
          "latitude": 48.4442,
          "longitude": 1.818,
          "distance_km": 6.83
        },
        {
          "code_insee": "91519",
          "nom": "Richarville",
          "slug": "richarville",
          "code_postal": "91410",
          "population": 386,
          "superficie_km2": 1049.0,
          "latitude": 48.4696,
          "longitude": 2.0006,
          "distance_km": 7.14
        },
        {
          "code_insee": "78003",
          "nom": "Ablis",
          "slug": "ablis",
          "code_postal": "78660",
          "population": 3913,
          "superficie_km2": 2618.91,
          "latitude": 48.5292,
          "longitude": 1.8565,
          "distance_km": 7.72
        },
        {
          "code_insee": "78569",
          "nom": "Sainte-Mesme",
          "slug": "sainte-mesme",
          "code_postal": "78730",
          "population": 904,
          "superficie_km2": 830.92,
          "latitude": 48.536,
          "longitude": 1.9433,
          "distance_km": 8.17
        },
        {
          "code_insee": "28230",
          "nom": "Maisons",
          "slug": "maisons",
          "code_postal": "28700",
          "population": 408,
          "superficie_km2": 957.19,
          "latitude": 48.4038,
          "longitude": 1.846,
          "distance_km": 8.25
        },
        {
          "code_insee": "91393",
          "nom": "Mérobert",
          "slug": "merobert",
          "code_postal": "91780",
          "population": 635,
          "superficie_km2": 1061.7,
          "latitude": 48.4191,
          "longitude": 1.9919,
          "distance_km": 8.42
        },
        {
          "code_insee": "28294",
          "nom": "Oysonville",
          "slug": "oysonville",
          "code_postal": "28700",
          "population": 517,
          "superficie_km2": 963.17,
          "latitude": 48.3918,
          "longitude": 1.9481,
          "distance_km": 9.01
        },
        {
          "code_insee": "78499",
          "nom": "Ponthévrard",
          "slug": "ponthevrard",
          "code_postal": "78730",
          "population": 693,
          "superficie_km2": 264.74,
          "latitude": 48.5496,
          "longitude": 1.91,
          "distance_km": 9.16
        },
        {
          "code_insee": "28408",
          "nom": "Vierville",
          "slug": "vierville",
          "code_postal": "28700",
          "population": 107,
          "superficie_km2": 672.21,
          "latitude": 48.3848,
          "longitude": 1.9045,
          "distance_km": 9.17
        },
        {
          "code_insee": "28207",
          "nom": "Léthuin",
          "slug": "lethuin",
          "code_postal": "28700",
          "population": 240,
          "superficie_km2": 709.69,
          "latitude": 48.3772,
          "longitude": 1.8586,
          "distance_km": 10.56
        }
      ],
      "zonage_abc": "B2",
      "reclassement_abc": "Non",
      "codes_postaux": [
        {
          "code_postal": "78660",
          "libelle_acheminement": "ALLAINVILLE AUX BOIS"
        }
      ],
      "logement": {
        "logements_total": 131,
        "residences_principales": 113,
        "logements_vacants": 12,
        "residences_secondaires": 5,
        "maisons": 131,
        "appartements": 0,
        "proprietaires": 97,
        "locataires": 11,
        "hlm": 0,
        "construits_avant_1919": 42,
        "construits_1919_1945": 11,
        "construits_1946_1970": 6,
        "construits_1971_1990": 37,
        "construits_1991_2005": 10,
        "construits_2006_2019": 5,
        "chauffage_electrique": 63,
        "chauffage_fioul": 21,
        "chauffage_gaz_ville": 0,
        "chauffage_gaz_bouteille": 4,
        "chauffage_autre": 24,
        "menages": 113,
        "logements_avant_1990": 96
      },
      "artisans": {
        "monte_escalier": 0,
        "chauffage_pac_clim": 4,
        "isolation": 0,
        "menuiserie": 1,
        "fenetres_velux": 1,
        "couverture_toiture": 0,
        "facade_peinture": 1,
        "portes_volets": 1,
        "piscine": 1,
        "vmc_ventilation": 2,
        "assainissement": 2
      },
      "revenus": {
        "revenu_median": 26710.0,
        "part_menages_imposes": null,
        "taux_pauvrete": null
      },
      "aides_etat": {
        "zone_climatique": "H1",
        "qpv": false,
        "action_coeur_de_ville": false,
        "petites_villes_de_demain": false
      }
    },
    {
      "code_insee": "78013",
      "nom": "Andelu",
      "nom_a": null,
      "nom_de": null,
      "slug": "andelu",
      "code_postal": "78770",
      "population": 550,
      "superficie_km2": 399.08,
      "latitude": 48.887,
      "longitude": 1.8094,
      "villes_proches": [
        {
          "code_insee": "78616",
          "nom": "Thoiry",
          "slug": "thoiry",
          "code_postal": "78770",
          "population": 1434,
          "superficie_km2": 713.67,
          "latitude": 48.8699,
          "longitude": 1.7989,
          "distance_km": 2.05
        },
        {
          "code_insee": "78364",
          "nom": "Marcq",
          "slug": "marcq",
          "code_postal": "78770",
          "population": 802,
          "superficie_km2": 480.26,
          "latitude": 48.8645,
          "longitude": 1.8221,
          "distance_km": 2.67
        },
        {
          "code_insee": "78325",
          "nom": "Jumeauville",
          "slug": "jumeauville",
          "code_postal": "78580",
          "population": 638,
          "superficie_km2": 766.64,
          "latitude": 48.9087,
          "longitude": 1.7827,
          "distance_km": 3.1
        },
        {
          "code_insee": "78380",
          "nom": "Maule",
          "slug": "maule",
          "code_postal": "78580",
          "population": 6083,
          "superficie_km2": 1743.62,
          "latitude": 48.9058,
          "longitude": 1.8409,
          "distance_km": 3.11
        },
        {
          "code_insee": "78278",
          "nom": "Goupillières",
          "slug": "goupillieres",
          "code_postal": "78770",
          "population": 570,
          "superficie_km2": 564.2,
          "latitude": 48.882,
          "longitude": 1.7651,
          "distance_km": 3.29
        },
        {
          "code_insee": "78415",
          "nom": "Montainville",
          "slug": "montainville",
          "code_postal": "78124",
          "population": 589,
          "superficie_km2": 475.29,
          "latitude": 48.8807,
          "longitude": 1.8539,
          "distance_km": 3.33
        },
        {
          "code_insee": "78681",
          "nom": "Villiers-le-Mahieu",
          "slug": "villiers-le-mahieu",
          "code_postal": "78770",
          "population": 888,
          "superficie_km2": 689.67,
          "latitude": 48.8518,
          "longitude": 1.7744,
          "distance_km": 4.68
        },
        {
          "code_insee": "78300",
          "nom": "Hargeville",
          "slug": "hargeville",
          "code_postal": "78790",
          "population": 418,
          "superficie_km2": 700.98,
          "latitude": 48.8953,
          "longitude": 1.7464,
          "distance_km": 4.7
        },
        {
          "code_insee": "78036",
          "nom": "Autouillet",
          "slug": "autouillet",
          "code_postal": "78770",
          "population": 665,
          "superficie_km2": 505.81,
          "latitude": 48.8451,
          "longitude": 1.7958,
          "distance_km": 4.76
        },
        {
          "code_insee": "78368",
          "nom": "Mareil-sur-Mauldre",
          "slug": "mareil-sur-mauldre",
          "code_postal": "78124",
          "population": 1776,
          "superficie_km2": 437.68,
          "latitude": 48.8893,
          "longitude": 1.8747,
          "distance_km": 4.78
        },
        {
          "code_insee": "78034",
          "nom": "Auteuil",
          "slug": "auteuil",
          "code_postal": "78770",
          "population": 1020,
          "superficie_km2": 441.4,
          "latitude": 48.8415,
          "longitude": 1.8172,
          "distance_km": 5.09
        },
        {
          "code_insee": "78033",
          "nom": "Aulnay-sur-Mauldre",
          "slug": "aulnay-sur-mauldre",
          "code_postal": "78126",
          "population": 1180,
          "superficie_km2": 223.72,
          "latitude": 48.9294,
          "longitude": 1.84,
          "distance_km": 5.22
        },
        {
          "code_insee": "78588",
          "nom": "Saulx-Marchais",
          "slug": "saulx-marchais",
          "code_postal": "78650",
          "population": 950,
          "superficie_km2": 215.36,
          "latitude": 48.8434,
          "longitude": 1.8361,
          "distance_km": 5.23
        },
        {
          "code_insee": "78281",
          "nom": "Goussonville",
          "slug": "goussonville",
          "code_postal": "78930",
          "population": 650,
          "superficie_km2": 467.89,
          "latitude": 48.9251,
          "longitude": 1.7668,
          "distance_km": 5.26
        },
        {
          "code_insee": "78230",
          "nom": "La Falaise",
          "slug": "la-falaise",
          "code_postal": "78410",
          "population": 609,
          "superficie_km2": 306.14,
          "latitude": 48.9385,
          "longitude": 1.8246,
          "distance_km": 5.83
        },
        {
          "code_insee": "78217",
          "nom": "Épône",
          "slug": "epone",
          "code_postal": "78680",
          "population": 7031,
          "superficie_km2": 1335.36,
          "latitude": 48.9459,
          "longitude": 1.8119,
          "distance_km": 6.55
        },
        {
          "code_insee": "78451",
          "nom": "Nézel",
          "slug": "nezel",
          "code_postal": "78410",
          "population": 1139,
          "superficie_km2": 132.09,
          "latitude": 48.9428,
          "longitude": 1.8398,
          "distance_km": 6.59
        },
        {
          "code_insee": "78402",
          "nom": "Mézières-sur-Seine",
          "slug": "mezieres-sur-seine",
          "code_postal": "78970",
          "population": 3923,
          "superficie_km2": 1082.46,
          "latitude": 48.9481,
          "longitude": 1.782,
          "distance_km": 7.08
        },
        {
          "code_insee": "78653",
          "nom": "Vicq",
          "slug": "vicq",
          "code_postal": "78490",
          "population": 389,
          "superficie_km2": 447.2,
          "latitude": 48.8223,
          "longitude": 1.8283,
          "distance_km": 7.33
        },
        {
          "code_insee": "78084",
          "nom": "Boissy-sans-Avoir",
          "slug": "boissy-sans-avoir",
          "code_postal": "78490",
          "population": 616,
          "superficie_km2": 407.16,
          "latitude": 48.8211,
          "longitude": 1.7979,
          "distance_km": 7.38
        }
      ],
      "zonage_abc": "B1",
      "reclassement_abc": "Non",
      "codes_postaux": [
        {
          "code_postal": "78770",
          "libelle_acheminement": "ANDELU"
        }
      ],
      "logement": {
        "logements_total": 204,
        "residences_principales": 189,
        "logements_vacants": 7,
        "residences_secondaires": 7,
        "maisons": 195,
        "appartements": 3,
        "proprietaires": 173,
        "locataires": 13,
        "hlm": 0,
        "construits_avant_1919": 30,
        "construits_1919_1945": 6,
        "construits_1946_1970": 17,
        "construits_1971_1990": 44,
        "construits_1991_2005": 46,
        "construits_2006_2019": 15,
        "chauffage_electrique": 117,
        "chauffage_fioul": 25,
        "chauffage_gaz_ville": 0,
        "chauffage_gaz_bouteille": 16,
        "chauffage_autre": 29,
        "menages": 189,
        "logements_avant_1990": 97
      },
      "artisans": {
        "monte_escalier": 0,
        "chauffage_pac_clim": 3,
        "isolation": 1,
        "menuiserie": 0,
        "fenetres_velux": 0,
        "couverture_toiture": 1,
        "facade_peinture": 0,
        "portes_volets": 0,
        "piscine": 1,
        "vmc_ventilation": 3,
        "assainissement": 0
      },
      "revenus": {
        "revenu_median": 31040.0,
        "part_menages_imposes": null,
        "taux_pauvrete": null
      },
      "aides_etat": {
        "zone_climatique": "H1",
        "qpv": false,
        "action_coeur_de_ville": false,
        "petites_villes_de_demain": false
      }
    },
    {
      "code_insee": "78015",
      "nom": "Andrésy",
      "nom_a": null,
      "nom_de": null,
      "slug": "andresy",
      "code_postal": "78570",
      "population": 13230,
      "superficie_km2": 7.0,
      "latitude": 48.9819984,
      "longitude": 2.05,
      "villes_proches": [
        {
          "code_insee": "78138",
          "nom": "Chanteloup-les-Vignes",
          "slug": "chanteloup-les-vignes",
          "code_postal": "78570",
          "population": 10735,
          "superficie_km2": 3.0,
          "latitude": 48.9760017,
          "longitude": 2.0320001,
          "distance_km": 1.47
        },
        {
          "code_insee": "78382",
          "nom": "Maurecourt",
          "slug": "maurecourt",
          "code_postal": "78780",
          "population": 4355,
          "superficie_km2": 4.0,
          "latitude": 48.9990006,
          "longitude": 2.053,
          "distance_km": 1.9
        },
        {
          "code_insee": "78624",
          "nom": "Triel-sur-Seine",
          "slug": "triel-sur-seine",
          "code_postal": "78510",
          "population": 12388,
          "superficie_km2": 14.0,
          "latitude": 48.9780006,
          "longitude": 2.0090001,
          "distance_km": 3.03
        },
        {
          "code_insee": "78005",
          "nom": "Achères",
          "slug": "acheres",
          "code_postal": "78260",
          "population": 21368,
          "superficie_km2": 10.0,
          "latitude": 48.9720001,
          "longitude": 2.0899999,
          "distance_km": 3.12
        },
        {
          "code_insee": "95323",
          "nom": "Jouy-le-Moutier",
          "slug": "jouy-le-moutier",
          "code_postal": "95280",
          "population": 17175,
          "superficie_km2": 7.0,
          "latitude": 49.0110016,
          "longitude": 2.0339999,
          "distance_km": 3.43
        },
        {
          "code_insee": "95450",
          "nom": "Neuville-sur-Oise",
          "slug": "neuville-sur-oise",
          "code_postal": "95000",
          "population": 2070,
          "superficie_km2": 4.0,
          "latitude": 49.0169983,
          "longitude": 2.063,
          "distance_km": 4.01
        },
        {
          "code_insee": "78172",
          "nom": "Conflans-Sainte-Honorine",
          "slug": "conflans-sainte-honorine",
          "code_postal": "78700",
          "population": 35926,
          "superficie_km2": 10.0,
          "latitude": 49.0,
          "longitude": 2.099,
          "distance_km": 4.1
        },
        {
          "code_insee": "78123",
          "nom": "Carrières-sous-Poissy",
          "slug": "carrieres-sous-poissy",
          "code_postal": "78955",
          "population": 18316,
          "superficie_km2": 7.0,
          "latitude": 48.9459992,
          "longitude": 2.029,
          "distance_km": 4.29
        },
        {
          "code_insee": "78384",
          "nom": "Médan",
          "slug": "medan",
          "code_postal": "78670",
          "population": 1322,
          "superficie_km2": 3.0,
          "latitude": 48.9550018,
          "longitude": 1.988,
          "distance_km": 5.43
        },
        {
          "code_insee": "95218",
          "nom": "Éragny",
          "slug": "eragny",
          "code_postal": "95610",
          "population": 18468,
          "superficie_km2": 5.0,
          "latitude": 49.0200005,
          "longitude": 2.1010001,
          "distance_km": 5.63
        },
        {
          "code_insee": "95637",
          "nom": "Vauréal",
          "slug": "vaureal",
          "code_postal": "95490",
          "population": 16034,
          "superficie_km2": 4.0,
          "latitude": 49.0299988,
          "longitude": 2.0239999,
          "distance_km": 5.66
        },
        {
          "code_insee": "78643",
          "nom": "Vernouillet",
          "slug": "vernouillet",
          "code_postal": "78540",
          "population": 10025,
          "superficie_km2": 7.0,
          "latitude": 48.9659996,
          "longitude": 1.975,
          "distance_km": 5.76
        },
        {
          "code_insee": "78551",
          "nom": "Saint-Germain-en-Laye",
          "slug": "saint-germain-en-laye",
          "code_postal": "78112",
          "population": 44380,
          "superficie_km2": 49.0,
          "latitude": 48.9410019,
          "longitude": 2.099,
          "distance_km": 5.79
        },
        {
          "code_insee": "78638",
          "nom": "Vaux-sur-Seine",
          "slug": "vaux-sur-seine",
          "code_postal": "78740",
          "population": 5083,
          "superficie_km2": 8.0,
          "latitude": 49.0099983,
          "longitude": 1.974,
          "distance_km": 6.36
        },
        {
          "code_insee": "78672",
          "nom": "Villennes-sur-Seine",
          "slug": "villennes-sur-seine",
          "code_postal": "78670",
          "population": 5628,
          "superficie_km2": 5.0,
          "latitude": 48.9370003,
          "longitude": 1.9960001,
          "distance_km": 6.37
        },
        {
          "code_insee": "78642",
          "nom": "Verneuil-sur-Seine",
          "slug": "verneuil-sur-seine",
          "code_postal": "78480",
          "population": 15914,
          "superficie_km2": 10.0,
          "latitude": 48.9869995,
          "longitude": 1.9630001,
          "distance_km": 6.37
        },
        {
          "code_insee": "95127",
          "nom": "Cergy",
          "slug": "cergy",
          "code_postal": "95000",
          "population": 68348,
          "superficie_km2": 15.0,
          "latitude": 49.0400009,
          "longitude": 2.0510001,
          "distance_km": 6.45
        },
        {
          "code_insee": "78498",
          "nom": "Poissy",
          "slug": "poissy",
          "code_postal": "78300",
          "population": 40016,
          "superficie_km2": 13.0,
          "latitude": 48.9239998,
          "longitude": 2.027,
          "distance_km": 6.66
        },
        {
          "code_insee": "95388",
          "nom": "Menucourt",
          "slug": "menucourt",
          "code_postal": "95180",
          "population": 6093,
          "superficie_km2": 4.0,
          "latitude": 49.0279999,
          "longitude": 1.975,
          "distance_km": 7.49
        },
        {
          "code_insee": "95183",
          "nom": "Courdimanche",
          "slug": "courdimanche",
          "code_postal": "95800",
          "population": 6816,
          "superficie_km2": 6.0,
          "latitude": 49.0410004,
          "longitude": 1.999,
          "distance_km": 7.54
        }
      ],
      "zonage_abc": "A",
      "reclassement_abc": "Non",
      "codes_postaux": [
        {
          "code_postal": "78570",
          "libelle_acheminement": "ANDRESY"
        }
      ],
      "logement": {
        "logements_total": 6152,
        "residences_principales": 5659,
        "logements_vacants": 398,
        "residences_secondaires": 94,
        "maisons": 2852,
        "appartements": 3217,
        "proprietaires": 3706,
        "locataires": 1876,
        "hlm": 934,
        "construits_avant_1919": 347,
        "construits_1919_1945": 404,
        "construits_1946_1970": 956,
        "construits_1971_1990": 2678,
        "construits_1991_2005": 521,
        "construits_2006_2019": 557,
        "chauffage_electrique": 1762,
        "chauffage_fioul": 303,
        "chauffage_gaz_ville": 3449,
        "chauffage_gaz_bouteille": 20,
        "chauffage_autre": 123,
        "menages": 5659,
        "logements_avant_1990": 4385
      },
      "artisans": {
        "monte_escalier": 1,
        "chauffage_pac_clim": 17,
        "isolation": 12,
        "menuiserie": 13,
        "fenetres_velux": 13,
        "couverture_toiture": 13,
        "facade_peinture": 20,
        "portes_volets": 13,
        "piscine": 0,
        "vmc_ventilation": 5,
        "assainissement": 12
      },
      "revenus": {
        "revenu_median": 28840.0,
        "part_menages_imposes": 74.0,
        "taux_pauvrete": 7.0
      },
      "aides_etat": {
        "zone_climatique": "H1",
        "qpv": false,
        "action_coeur_de_ville": false,
        "petites_villes_de_demain": false
      }
    },
    {
      "code_insee": "78020",
      "nom": "Arnouville-lès-Mantes",
      "nom_a": null,
      "nom_de": null,
      "slug": "arnouville-les-mantes",
      "code_postal": "78790",
      "population": 951,
      "superficie_km2": 990.37,
      "latitude": 48.911,
      "longitude": 1.7225,
      "villes_proches": [
        {
          "code_insee": "78300",
          "nom": "Hargeville",
          "slug": "hargeville",
          "code_postal": "78790",
          "population": 418,
          "superficie_km2": 700.98,
          "latitude": 48.8953,
          "longitude": 1.7464,
          "distance_km": 2.47
        },
        {
          "code_insee": "78070",
          "nom": "Boinville-en-Mantois",
          "slug": "boinville-en-mantois",
          "code_postal": "78930",
          "population": 285,
          "superficie_km2": 491.36,
          "latitude": 48.9272,
          "longitude": 1.7491,
          "distance_km": 2.65
        },
        {
          "code_insee": "78677",
          "nom": "Villette",
          "slug": "villette",
          "code_postal": "78930",
          "population": 524,
          "superficie_km2": 463.39,
          "latitude": 48.9244,
          "longitude": 1.6917,
          "distance_km": 2.7
        },
        {
          "code_insee": "78530",
          "nom": "Rosay",
          "slug": "rosay",
          "code_postal": "78790",
          "population": 387,
          "superficie_km2": 450.77,
          "latitude": 48.9108,
          "longitude": 1.684,
          "distance_km": 2.81
        },
        {
          "code_insee": "78591",
          "nom": "Septeuil",
          "slug": "septeuil",
          "code_postal": "78790",
          "population": 2264,
          "superficie_km2": 956.66,
          "latitude": 48.8883,
          "longitude": 1.6891,
          "distance_km": 3.51
        },
        {
          "code_insee": "78281",
          "nom": "Goussonville",
          "slug": "goussonville",
          "code_postal": "78930",
          "population": 650,
          "superficie_km2": 467.89,
          "latitude": 48.9251,
          "longitude": 1.7668,
          "distance_km": 3.6
        },
        {
          "code_insee": "78565",
          "nom": "Saint-Martin-des-Champs",
          "slug": "saint-martin-des-champs",
          "code_postal": "78790",
          "population": 304,
          "superficie_km2": 620.71,
          "latitude": 48.8776,
          "longitude": 1.7215,
          "distance_km": 3.71
        },
        {
          "code_insee": "78104",
          "nom": "Breuil-Bois-Robert",
          "slug": "breuil-bois-robert",
          "code_postal": "78930",
          "population": 764,
          "superficie_km2": 376.54,
          "latitude": 48.9447,
          "longitude": 1.7129,
          "distance_km": 3.81
        },
        {
          "code_insee": "78325",
          "nom": "Jumeauville",
          "slug": "jumeauville",
          "code_postal": "78580",
          "population": 638,
          "superficie_km2": 766.64,
          "latitude": 48.9087,
          "longitude": 1.7827,
          "distance_km": 4.41
        },
        {
          "code_insee": "78278",
          "nom": "Goupillières",
          "slug": "goupillieres",
          "code_postal": "78770",
          "population": 570,
          "superficie_km2": 564.2,
          "latitude": 48.882,
          "longitude": 1.7651,
          "distance_km": 4.48
        },
        {
          "code_insee": "78072",
          "nom": "Boinvilliers",
          "slug": "boinvilliers",
          "code_postal": "78200",
          "population": 243,
          "superficie_km2": 360.15,
          "latitude": 48.9188,
          "longitude": 1.661,
          "distance_km": 4.58
        },
        {
          "code_insee": "78647",
          "nom": "Vert",
          "slug": "vert",
          "code_postal": "78930",
          "population": 852,
          "superficie_km2": 372.04,
          "latitude": 48.9429,
          "longitude": 1.6824,
          "distance_km": 4.6
        },
        {
          "code_insee": "78185",
          "nom": "Courgent",
          "slug": "courgent",
          "code_postal": "78790",
          "population": 414,
          "superficie_km2": 201.23,
          "latitude": 48.8971,
          "longitude": 1.6595,
          "distance_km": 4.86
        },
        {
          "code_insee": "78031",
          "nom": "Auffreville-Brasseuil",
          "slug": "auffreville-brasseuil",
          "code_postal": "78930",
          "population": 671,
          "superficie_km2": 234.58,
          "latitude": 48.9543,
          "longitude": 1.7057,
          "distance_km": 4.97
        },
        {
          "code_insee": "78291",
          "nom": "Guerville",
          "slug": "guerville",
          "code_postal": "78930",
          "population": 2052,
          "superficie_km2": 1011.48,
          "latitude": 48.9544,
          "longitude": 1.7409,
          "distance_km": 5.01
        },
        {
          "code_insee": "78475",
          "nom": "Osmoy",
          "slug": "osmoy",
          "code_postal": "78910",
          "population": 413,
          "superficie_km2": 256.82,
          "latitude": 48.8645,
          "longitude": 1.7162,
          "distance_km": 5.19
        },
        {
          "code_insee": "78597",
          "nom": "Soindres",
          "slug": "soindres",
          "code_postal": "78200",
          "population": 757,
          "superficie_km2": 522.9,
          "latitude": 48.9547,
          "longitude": 1.6732,
          "distance_km": 6.05
        },
        {
          "code_insee": "78236",
          "nom": "Flexanville",
          "slug": "flexanville",
          "code_postal": "78910",
          "population": 576,
          "superficie_km2": 887.76,
          "latitude": 48.8569,
          "longitude": 1.7415,
          "distance_km": 6.17
        },
        {
          "code_insee": "78354",
          "nom": "Magnanville",
          "slug": "magnanville",
          "code_postal": "78200",
          "population": 6383,
          "superficie_km2": 427.99,
          "latitude": 48.9685,
          "longitude": 1.6842,
          "distance_km": 6.98
        },
        {
          "code_insee": "78362",
          "nom": "Mantes-la-Ville",
          "slug": "mantes-la-ville",
          "code_postal": "78711",
          "population": 22332,
          "superficie_km2": 624.38,
          "latitude": 48.9752,
          "longitude": 1.7103,
          "distance_km": 7.19
        }
      ],
      "zonage_abc": "B1",
      "reclassement_abc": "Non",
      "codes_postaux": [
        {
          "code_postal": "78790",
          "libelle_acheminement": "ARNOUVILLE LES MANTES"
        }
      ],
      "logement": {
        "logements_total": 407,
        "residences_principales": 372,
        "logements_vacants": 22,
        "residences_secondaires": 13,
        "maisons": 392,
        "appartements": 14,
        "proprietaires": 317,
        "locataires": 48,
        "hlm": 1,
        "construits_avant_1919": 77,
        "construits_1919_1945": 8,
        "construits_1946_1970": 51,
        "construits_1971_1990": 96,
        "construits_1991_2005": 61,
        "construits_2006_2019": 65,
        "chauffage_electrique": 140,
        "chauffage_fioul": 27,
        "chauffage_gaz_ville": 164,
        "chauffage_gaz_bouteille": 7,
        "chauffage_autre": 34,
        "menages": 372,
        "logements_avant_1990": 232
      },
      "artisans": {
        "monte_escalier": 0,
        "chauffage_pac_clim": 1,
        "isolation": 0,
        "menuiserie": 1,
        "fenetres_velux": 1,
        "couverture_toiture": 0,
        "facade_peinture": 2,
        "portes_volets": 1,
        "piscine": 1,
        "vmc_ventilation": 0,
        "assainissement": 2
      },
      "revenus": {
        "revenu_median": 29280.0,
        "part_menages_imposes": null,
        "taux_pauvrete": null
      },
      "aides_etat": {
        "zone_climatique": "H1",
        "qpv": false,
        "action_coeur_de_ville": false,
        "petites_villes_de_demain": false
      }
    },
    {
      "code_insee": "78029",
      "nom": "Aubergenville",
      "nom_a": null,
      "nom_de": null,
      "slug": "aubergenville",
      "code_postal": "78410",
      "population": 12317,
      "superficie_km2": 9.0,
      "latitude": 48.9630013,
      "longitude": 1.849,
      "villes_proches": [
        {
          "code_insee": "78238",
          "nom": "Flins-sur-Seine",
          "slug": "flins-sur-seine",
          "code_postal": "78410",
          "population": 2424,
          "superficie_km2": 9.0,
          "latitude": 48.9669991,
          "longitude": 1.873,
          "distance_km": 1.81
        },
        {
          "code_insee": "78451",
          "nom": "Nézel",
          "slug": "nezel",
          "code_postal": "78410",
          "population": 1083,
          "superficie_km2": 1.0,
          "latitude": 48.9420013,
          "longitude": 1.839,
          "distance_km": 2.45
        },
        {
          "code_insee": "78217",
          "nom": "Épône",
          "slug": "epone",
          "code_postal": "78680",
          "population": 6585,
          "superficie_km2": 13.0,
          "latitude": 48.9469986,
          "longitude": 1.813,
          "distance_km": 3.17
        },
        {
          "code_insee": "78090",
          "nom": "Bouafle",
          "slug": "bouafle",
          "code_postal": "78410",
          "population": 2213,
          "superficie_km2": 7.0,
          "latitude": 48.9609985,
          "longitude": 1.897,
          "distance_km": 3.51
        },
        {
          "code_insee": "78033",
          "nom": "Aulnay-sur-Mauldre",
          "slug": "aulnay-sur-mauldre",
          "code_postal": "78126",
          "population": 1137,
          "superficie_km2": 2.0,
          "latitude": 48.9290009,
          "longitude": 1.841,
          "distance_km": 3.83
        },
        {
          "code_insee": "78049",
          "nom": "Bazemont",
          "slug": "bazemont",
          "code_postal": "78580",
          "population": 1695,
          "superficie_km2": 7.0,
          "latitude": 48.9319992,
          "longitude": 1.874,
          "distance_km": 3.9
        },
        {
          "code_insee": "78327",
          "nom": "Juziers",
          "slug": "juziers",
          "code_postal": "78820",
          "population": 3976,
          "superficie_km2": 9.0,
          "latitude": 49.0,
          "longitude": 1.84,
          "distance_km": 4.17
        },
        {
          "code_insee": "78267",
          "nom": "Gargenville",
          "slug": "gargenville",
          "code_postal": "78440",
          "population": 7863,
          "superficie_km2": 9.0,
          "latitude": 48.993,
          "longitude": 1.811,
          "distance_km": 4.34
        },
        {
          "code_insee": "78403",
          "nom": "Mézy-sur-Seine",
          "slug": "mezy-sur-seine",
          "code_postal": "78250",
          "population": 2287,
          "superficie_km2": 5.0,
          "latitude": 49.0029984,
          "longitude": 1.869,
          "distance_km": 4.68
        },
        {
          "code_insee": "78402",
          "nom": "Mézières-sur-Seine",
          "slug": "mezieres-sur-seine",
          "code_postal": "78970",
          "population": 3826,
          "superficie_km2": 11.0,
          "latitude": 48.9529991,
          "longitude": 1.783,
          "distance_km": 4.95
        },
        {
          "code_insee": "78314",
          "nom": "Issou",
          "slug": "issou",
          "code_postal": "78440",
          "population": 3928,
          "superficie_km2": 5.0,
          "latitude": 48.9869995,
          "longitude": 1.789,
          "distance_km": 5.13
        },
        {
          "code_insee": "78206",
          "nom": "Ecquevilly",
          "slug": "ecquevilly",
          "code_postal": "78920",
          "population": 4105,
          "superficie_km2": 11.0,
          "latitude": 48.9459992,
          "longitude": 1.92,
          "distance_km": 5.52
        },
        {
          "code_insee": "78440",
          "nom": "Les Mureaux",
          "slug": "les-mureaux",
          "code_postal": "78130",
          "population": 33977,
          "superficie_km2": 12.0,
          "latitude": 48.9889984,
          "longitude": 1.914,
          "distance_km": 5.56
        },
        {
          "code_insee": "78299",
          "nom": "Hardricourt",
          "slug": "hardricourt",
          "code_postal": "78250",
          "population": 2480,
          "superficie_km2": 3.0,
          "latitude": 49.0110016,
          "longitude": 1.887,
          "distance_km": 6.01
        },
        {
          "code_insee": "78501",
          "nom": "Porcheville",
          "slug": "porcheville",
          "code_postal": "78440",
          "population": 3162,
          "superficie_km2": 5.0,
          "latitude": 48.9760017,
          "longitude": 1.768,
          "distance_km": 6.09
        },
        {
          "code_insee": "78380",
          "nom": "Maule",
          "slug": "maule",
          "code_postal": "78580",
          "population": 6024,
          "superficie_km2": 17.0,
          "latitude": 48.908001,
          "longitude": 1.84,
          "distance_km": 6.15
        },
        {
          "code_insee": "78140",
          "nom": "Chapet",
          "slug": "chapet",
          "code_postal": "78130",
          "population": 1344,
          "superficie_km2": 5.0,
          "latitude": 48.9679985,
          "longitude": 1.9400001,
          "distance_km": 6.67
        },
        {
          "code_insee": "78401",
          "nom": "Meulan-en-Yvelines",
          "slug": "meulan-en-yvelines",
          "code_postal": "78250",
          "population": 9041,
          "superficie_km2": 3.0,
          "latitude": 49.0060005,
          "longitude": 1.913,
          "distance_km": 6.68
        },
        {
          "code_insee": "78460",
          "nom": "Oinville-sur-Montcient",
          "slug": "oinville-sur-montcient",
          "code_postal": "78250",
          "population": 1095,
          "superficie_km2": 4.0,
          "latitude": 49.026001,
          "longitude": 1.846,
          "distance_km": 7.01
        },
        {
          "code_insee": "78010",
          "nom": "Les Alluets-le-Roi",
          "slug": "les-alluets-le-roi",
          "code_postal": "78580",
          "population": 1273,
          "superficie_km2": 7.0,
          "latitude": 48.9140015,
          "longitude": 1.915,
          "distance_km": 7.27
        }
      ],
      "zonage_abc": "A",
      "reclassement_abc": "Non",
      "codes_postaux": [
        {
          "code_postal": "78410",
          "libelle_acheminement": "AUBERGENVILLE"
        }
      ],
      "logement": {
        "logements_total": 5346,
        "residences_principales": 5117,
        "logements_vacants": 184,
        "residences_secondaires": 44,
        "maisons": 1922,
        "appartements": 3414,
        "proprietaires": 2511,
        "locataires": 2557,
        "hlm": 1808,
        "construits_avant_1919": 112,
        "construits_1919_1945": 234,
        "construits_1946_1970": 2009,
        "construits_1971_1990": 1673,
        "construits_1991_2005": 561,
        "construits_2006_2019": 434,
        "chauffage_electrique": 1676,
        "chauffage_fioul": 256,
        "chauffage_gaz_ville": 2899,
        "chauffage_gaz_bouteille": 24,
        "chauffage_autre": 260,
        "menages": 5117,
        "logements_avant_1990": 4028
      },
      "artisans": {
        "monte_escalier": 2,
        "chauffage_pac_clim": 25,
        "isolation": 6,
        "menuiserie": 20,
        "fenetres_velux": 20,
        "couverture_toiture": 5,
        "facade_peinture": 17,
        "portes_volets": 20,
        "piscine": 1,
        "vmc_ventilation": 6,
        "assainissement": 20
      },
      "revenus": {
        "revenu_median": 22380.0,
        "part_menages_imposes": 58.0,
        "taux_pauvrete": 14.0
      },
      "aides_etat": {
        "zone_climatique": "H1",
        "qpv": false,
        "action_coeur_de_ville": false,
        "petites_villes_de_demain": false
      }
    },
    {
      "code_insee": "78030",
      "nom": "Auffargis",
      "nom_a": null,
      "nom_de": null,
      "slug": "auffargis",
      "code_postal": "78610",
      "population": 1974,
      "superficie_km2": 17.0,
      "latitude": 48.6839981,
      "longitude": 1.902,
      "villes_proches": [
        {
          "code_insee": "78220",
          "nom": "Les Essarts-le-Roi",
          "slug": "les-essarts-le-roi",
          "code_postal": "78690",
          "population": 6775,
          "superficie_km2": 20.0,
          "latitude": 48.7159996,
          "longitude": 1.895,
          "distance_km": 3.6
        },
        {
          "code_insee": "78486",
          "nom": "Le Perray-en-Yvelines",
          "slug": "le-perray-en-yvelines",
          "code_postal": "78610",
          "population": 6543,
          "superficie_km2": 14.0,
          "latitude": 48.6969986,
          "longitude": 1.844,
          "distance_km": 4.5
        },
        {
          "code_insee": "78128",
          "nom": "Cernay-la-Ville",
          "slug": "cernay-la-ville",
          "code_postal": "78720",
          "population": 1536,
          "superficie_km2": 10.0,
          "latitude": 48.6699982,
          "longitude": 1.96,
          "distance_km": 4.53
        },
        {
          "code_insee": "78334",
          "nom": "Lévis-Saint-Nom",
          "slug": "levis-saint-nom",
          "code_postal": "78320",
          "population": 1607,
          "superficie_km2": 8.0,
          "latitude": 48.7270012,
          "longitude": 1.9349999,
          "distance_km": 5.36
        },
        {
          "code_insee": "78517",
          "nom": "Rambouillet",
          "slug": "rambouillet",
          "code_postal": "78120",
          "population": 26816,
          "superficie_km2": 36.0,
          "latitude": 48.6539993,
          "longitude": 1.826,
          "distance_km": 6.5
        },
        {
          "code_insee": "78168",
          "nom": "Coignières",
          "slug": "coignieres",
          "code_postal": "78310",
          "population": 4377,
          "superficie_km2": 8.0,
          "latitude": 48.75,
          "longitude": 1.914,
          "distance_km": 7.39
        },
        {
          "code_insee": "78576",
          "nom": "Saint-Rémy-l'Honoré",
          "slug": "saint-remy-l-honore",
          "code_postal": "78690",
          "population": 1668,
          "superficie_km2": 10.0,
          "latitude": 48.7490006,
          "longitude": 1.876,
          "distance_km": 7.48
        },
        {
          "code_insee": "78108",
          "nom": "Les Bréviaires",
          "slug": "les-breviaires",
          "code_postal": "78610",
          "population": 1311,
          "superficie_km2": 20.0,
          "latitude": 48.7210007,
          "longitude": 1.816,
          "distance_km": 7.53
        },
        {
          "code_insee": "78397",
          "nom": "Le Mesnil-Saint-Denis",
          "slug": "le-mesnil-saint-denis",
          "code_postal": "78320",
          "population": 6929,
          "superficie_km2": 9.0,
          "latitude": 48.7400017,
          "longitude": 1.966,
          "distance_km": 7.8
        },
        {
          "code_insee": "78644",
          "nom": "La Verrière",
          "slug": "la-verriere",
          "code_postal": "78320",
          "population": 6183,
          "superficie_km2": 2.0,
          "latitude": 48.7550011,
          "longitude": 1.951,
          "distance_km": 8.67
        },
        {
          "code_insee": "78120",
          "nom": "Bullion",
          "slug": "bullion",
          "code_postal": "78830",
          "population": 1914,
          "superficie_km2": 21.0,
          "latitude": 48.625,
          "longitude": 1.983,
          "distance_km": 8.86
        },
        {
          "code_insee": "78383",
          "nom": "Maurepas",
          "slug": "maurepas",
          "code_postal": "78310",
          "population": 18611,
          "superficie_km2": 8.0,
          "latitude": 48.7700005,
          "longitude": 1.924,
          "distance_km": 9.7
        },
        {
          "code_insee": "78160",
          "nom": "Chevreuse",
          "slug": "chevreuse",
          "code_postal": "78460",
          "population": 5536,
          "superficie_km2": 14.0,
          "latitude": 48.7070007,
          "longitude": 2.0369999,
          "distance_km": 10.23
        },
        {
          "code_insee": "78269",
          "nom": "Gazeran",
          "slug": "gazeran",
          "code_postal": "78125",
          "population": 1288,
          "superficie_km2": 26.0,
          "latitude": 48.6329994,
          "longitude": 1.778,
          "distance_km": 10.73
        },
        {
          "code_insee": "78601",
          "nom": "Sonchamp",
          "slug": "sonchamp",
          "code_postal": "78120",
          "population": 1630,
          "superficie_km2": 46.0,
          "latitude": 48.5880013,
          "longitude": 1.869,
          "distance_km": 10.95
        },
        {
          "code_insee": "78208",
          "nom": "Élancourt",
          "slug": "elancourt",
          "code_postal": "78990",
          "population": 26082,
          "superficie_km2": 9.0,
          "latitude": 48.7779999,
          "longitude": 1.96,
          "distance_km": 11.28
        },
        {
          "code_insee": "78562",
          "nom": "Saint-Léger-en-Yvelines",
          "slug": "saint-leger-en-yvelines",
          "code_postal": "78610",
          "population": 1412,
          "superficie_km2": 35.0,
          "latitude": 48.7299995,
          "longitude": 1.76,
          "distance_km": 11.61
        },
        {
          "code_insee": "78321",
          "nom": "Jouars-Pontchartrain",
          "slug": "jouars-pontchartrain",
          "code_postal": "78760",
          "population": 5814,
          "superficie_km2": 10.0,
          "latitude": 48.7900009,
          "longitude": 1.908,
          "distance_km": 11.8
        },
        {
          "code_insee": "78420",
          "nom": "Montfort-l'Amaury",
          "slug": "montfort-l-amaury",
          "code_postal": "78490",
          "population": 2870,
          "superficie_km2": 6.0,
          "latitude": 48.7709999,
          "longitude": 1.809,
          "distance_km": 11.84
        },
        {
          "code_insee": "78087",
          "nom": "Bonnelles",
          "slug": "bonnelles",
          "code_postal": "78830",
          "population": 2123,
          "superficie_km2": 11.0,
          "latitude": 48.618,
          "longitude": 2.03,
          "distance_km": 11.93
        }
      ],
      "zonage_abc": "B1",
      "reclassement_abc": "Non",
      "codes_postaux": [
        {
          "code_postal": "78610",
          "libelle_acheminement": "AUFFARGIS"
        }
      ],
      "logement": {
        "logements_total": 903,
        "residences_principales": 834,
        "logements_vacants": 46,
        "residences_secondaires": 23,
        "maisons": 814,
        "appartements": 87,
        "proprietaires": 715,
        "locataires": 94,
        "hlm": 21,
        "construits_avant_1919": 116,
        "construits_1919_1945": 39,
        "construits_1946_1970": 179,
        "construits_1971_1990": 295,
        "construits_1991_2005": 106,
        "construits_2006_2019": 73,
        "chauffage_electrique": 338,
        "chauffage_fioul": 78,
        "chauffage_gaz_ville": 315,
        "chauffage_gaz_bouteille": 15,
        "chauffage_autre": 85,
        "menages": 834,
        "logements_avant_1990": 629
      },
      "artisans": {
        "monte_escalier": 0,
        "chauffage_pac_clim": 2,
        "isolation": 1,
        "menuiserie": 4,
        "fenetres_velux": 4,
        "couverture_toiture": 0,
        "facade_peinture": 2,
        "portes_volets": 4,
        "piscine": 0,
        "vmc_ventilation": 0,
        "assainissement": 2
      },
      "revenus": {
        "revenu_median": 32040.0,
        "part_menages_imposes": null,
        "taux_pauvrete": null
      },
      "aides_etat": {
        "zone_climatique": "H1",
        "qpv": false,
        "action_coeur_de_ville": false,
        "petites_villes_de_demain": false
      }
    },
    {
      "code_insee": "78031",
      "nom": "Auffreville-Brasseuil",
      "nom_a": null,
      "nom_de": null,
      "slug": "auffreville-brasseuil",
      "code_postal": "78930",
      "population": 671,
      "superficie_km2": 234.58,
      "latitude": 48.9543,
      "longitude": 1.7057,
      "villes_proches": [
        {
          "code_insee": "78104",
          "nom": "Breuil-Bois-Robert",
          "slug": "breuil-bois-robert",
          "code_postal": "78930",
          "population": 764,
          "superficie_km2": 376.54,
          "latitude": 48.9447,
          "longitude": 1.7129,
          "distance_km": 1.19
        },
        {
          "code_insee": "78647",
          "nom": "Vert",
          "slug": "vert",
          "code_postal": "78930",
          "population": 852,
          "superficie_km2": 372.04,
          "latitude": 48.9429,
          "longitude": 1.6824,
          "distance_km": 2.12
        },
        {
          "code_insee": "78354",
          "nom": "Magnanville",
          "slug": "magnanville",
          "code_postal": "78200",
          "population": 6383,
          "superficie_km2": 427.99,
          "latitude": 48.9685,
          "longitude": 1.6842,
          "distance_km": 2.23
        },
        {
          "code_insee": "78362",
          "nom": "Mantes-la-Ville",
          "slug": "mantes-la-ville",
          "code_postal": "78711",
          "population": 22332,
          "superficie_km2": 624.38,
          "latitude": 48.9752,
          "longitude": 1.7103,
          "distance_km": 2.35
        },
        {
          "code_insee": "78597",
          "nom": "Soindres",
          "slug": "soindres",
          "code_postal": "78200",
          "population": 757,
          "superficie_km2": 522.9,
          "latitude": 48.9547,
          "longitude": 1.6732,
          "distance_km": 2.37
        },
        {
          "code_insee": "78291",
          "nom": "Guerville",
          "slug": "guerville",
          "code_postal": "78930",
          "population": 2052,
          "superficie_km2": 1011.48,
          "latitude": 48.9544,
          "longitude": 1.7409,
          "distance_km": 2.57
        },
        {
          "code_insee": "78677",
          "nom": "Villette",
          "slug": "villette",
          "code_postal": "78930",
          "population": 524,
          "superficie_km2": 463.39,
          "latitude": 48.9244,
          "longitude": 1.6917,
          "distance_km": 3.48
        },
        {
          "code_insee": "78118",
          "nom": "Buchelay",
          "slug": "buchelay",
          "code_postal": "78200",
          "population": 3360,
          "superficie_km2": 492.97,
          "latitude": 48.983,
          "longitude": 1.6788,
          "distance_km": 3.75
        },
        {
          "code_insee": "78245",
          "nom": "Fontenay-Mauvoisin",
          "slug": "fontenay-mauvoisin",
          "code_postal": "78200",
          "population": 460,
          "superficie_km2": 331.74,
          "latitude": 48.9601,
          "longitude": 1.6486,
          "distance_km": 4.22
        },
        {
          "code_insee": "78070",
          "nom": "Boinville-en-Mantois",
          "slug": "boinville-en-mantois",
          "code_postal": "78930",
          "population": 285,
          "superficie_km2": 491.36,
          "latitude": 48.9272,
          "longitude": 1.7491,
          "distance_km": 4.37
        },
        {
          "code_insee": "78335",
          "nom": "Limay",
          "slug": "limay",
          "code_postal": "78520",
          "population": 17885,
          "superficie_km2": 1146.01,
          "latitude": 48.9911,
          "longitude": 1.7367,
          "distance_km": 4.68
        },
        {
          "code_insee": "78361",
          "nom": "Mantes-la-Jolie",
          "slug": "mantes-la-jolie",
          "code_postal": "78200",
          "population": 43526,
          "superficie_km2": 943.48,
          "latitude": 48.9961,
          "longitude": 1.6918,
          "distance_km": 4.76
        },
        {
          "code_insee": "78231",
          "nom": "Favrieux",
          "slug": "favrieux",
          "code_postal": "78200",
          "population": 157,
          "superficie_km2": 318.39,
          "latitude": 48.9439,
          "longitude": 1.6407,
          "distance_km": 4.89
        },
        {
          "code_insee": "78324",
          "nom": "Jouy-Mauvoisin",
          "slug": "jouy-mauvoisin",
          "code_postal": "78200",
          "population": 554,
          "superficie_km2": 284.29,
          "latitude": 48.9746,
          "longitude": 1.6461,
          "distance_km": 4.9
        },
        {
          "code_insee": "78020",
          "nom": "Arnouville-lès-Mantes",
          "slug": "arnouville-les-mantes",
          "code_postal": "78790",
          "population": 951,
          "superficie_km2": 990.37,
          "latitude": 48.911,
          "longitude": 1.7225,
          "distance_km": 4.97
        },
        {
          "code_insee": "78530",
          "nom": "Rosay",
          "slug": "rosay",
          "code_postal": "78790",
          "population": 387,
          "superficie_km2": 450.77,
          "latitude": 48.9108,
          "longitude": 1.684,
          "distance_km": 5.09
        },
        {
          "code_insee": "78072",
          "nom": "Boinvilliers",
          "slug": "boinvilliers",
          "code_postal": "78200",
          "population": 243,
          "superficie_km2": 360.15,
          "latitude": 48.9188,
          "longitude": 1.661,
          "distance_km": 5.12
        },
        {
          "code_insee": "78501",
          "nom": "Porcheville",
          "slug": "porcheville",
          "code_postal": "78440",
          "population": 3382,
          "superficie_km2": 462.27,
          "latitude": 48.9781,
          "longitude": 1.768,
          "distance_km": 5.26
        },
        {
          "code_insee": "78281",
          "nom": "Goussonville",
          "slug": "goussonville",
          "code_postal": "78930",
          "population": 650,
          "superficie_km2": 467.89,
          "latitude": 48.9251,
          "longitude": 1.7668,
          "distance_km": 5.52
        },
        {
          "code_insee": "78591",
          "nom": "Septeuil",
          "slug": "septeuil",
          "code_postal": "78790",
          "population": 2264,
          "superficie_km2": 956.66,
          "latitude": 48.8883,
          "longitude": 1.6891,
          "distance_km": 7.44
        }
      ],
      "zonage_abc": "A",
      "reclassement_abc": "Non",
      "codes_postaux": [
        {
          "code_postal": "78930",
          "libelle_acheminement": "AUFFREVILLE BRASSEUIL"
        }
      ],
      "logement": {
        "logements_total": 305,
        "residences_principales": 277,
        "logements_vacants": 16,
        "residences_secondaires": 11,
        "maisons": 296,
        "appartements": 9,
        "proprietaires": 243,
        "locataires": 26,
        "hlm": 0,
        "construits_avant_1919": 49,
        "construits_1919_1945": 22,
        "construits_1946_1970": 45,
        "construits_1971_1990": 85,
        "construits_1991_2005": 42,
        "construits_2006_2019": 32,
        "chauffage_electrique": 85,
        "chauffage_fioul": 50,
        "chauffage_gaz_ville": 123,
        "chauffage_gaz_bouteille": 0,
        "chauffage_autre": 17,
        "menages": 277,
        "logements_avant_1990": 201
      },
      "artisans": {
        "monte_escalier": 0,
        "chauffage_pac_clim": 5,
        "isolation": 0,
        "menuiserie": 0,
        "fenetres_velux": 0,
        "couverture_toiture": 0,
        "facade_peinture": 0,
        "portes_volets": 0,
        "piscine": 0,
        "vmc_ventilation": 3,
        "assainissement": 2
      },
      "revenus": {
        "revenu_median": 28560.0,
        "part_menages_imposes": null,
        "taux_pauvrete": null
      },
      "aides_etat": {
        "zone_climatique": "H1",
        "qpv": false,
        "action_coeur_de_ville": false,
        "petites_villes_de_demain": false
      }
    },
    {
      "code_insee": "78033",
      "nom": "Aulnay-sur-Mauldre",
      "nom_a": null,
      "nom_de": null,
      "slug": "aulnay-sur-mauldre",
      "code_postal": "78126",
      "population": 1137,
      "superficie_km2": 2.0,
      "latitude": 48.9290009,
      "longitude": 1.841,
      "villes_proches": [
        {
          "code_insee": "78451",
          "nom": "Nézel",
          "slug": "nezel",
          "code_postal": "78410",
          "population": 1083,
          "superficie_km2": 1.0,
          "latitude": 48.9420013,
          "longitude": 1.839,
          "distance_km": 1.45
        },
        {
          "code_insee": "78380",
          "nom": "Maule",
          "slug": "maule",
          "code_postal": "78580",
          "population": 6024,
          "superficie_km2": 17.0,
          "latitude": 48.908001,
          "longitude": 1.84,
          "distance_km": 2.34
        },
        {
          "code_insee": "78049",
          "nom": "Bazemont",
          "slug": "bazemont",
          "code_postal": "78580",
          "population": 1695,
          "superficie_km2": 7.0,
          "latitude": 48.9319992,
          "longitude": 1.874,
          "distance_km": 2.43
        },
        {
          "code_insee": "78217",
          "nom": "Épône",
          "slug": "epone",
          "code_postal": "78680",
          "population": 6585,
          "superficie_km2": 13.0,
          "latitude": 48.9469986,
          "longitude": 1.813,
          "distance_km": 2.86
        },
        {
          "code_insee": "78029",
          "nom": "Aubergenville",
          "slug": "aubergenville",
          "code_postal": "78410",
          "population": 12317,
          "superficie_km2": 9.0,
          "latitude": 48.9630013,
          "longitude": 1.849,
          "distance_km": 3.83
        },
        {
          "code_insee": "78238",
          "nom": "Flins-sur-Seine",
          "slug": "flins-sur-seine",
          "code_postal": "78410",
          "population": 2424,
          "superficie_km2": 9.0,
          "latitude": 48.9669991,
          "longitude": 1.873,
          "distance_km": 4.83
        },
        {
          "code_insee": "78402",
          "nom": "Mézières-sur-Seine",
          "slug": "mezieres-sur-seine",
          "code_postal": "78970",
          "population": 3826,
          "superficie_km2": 11.0,
          "latitude": 48.9529991,
          "longitude": 1.783,
          "distance_km": 5.01
        },
        {
          "code_insee": "78368",
          "nom": "Mareil-sur-Mauldre",
          "slug": "mareil-sur-mauldre",
          "code_postal": "78124",
          "population": 1709,
          "superficie_km2": 4.0,
          "latitude": 48.8889999,
          "longitude": 1.875,
          "distance_km": 5.09
        },
        {
          "code_insee": "78090",
          "nom": "Bouafle",
          "slug": "bouafle",
          "code_postal": "78410",
          "population": 2213,
          "superficie_km2": 7.0,
          "latitude": 48.9609985,
          "longitude": 1.897,
          "distance_km": 5.42
        },
        {
          "code_insee": "78010",
          "nom": "Les Alluets-le-Roi",
          "slug": "les-alluets-le-roi",
          "code_postal": "78580",
          "population": 1273,
          "superficie_km2": 7.0,
          "latitude": 48.9140015,
          "longitude": 1.915,
          "distance_km": 5.66
        },
        {
          "code_insee": "78206",
          "nom": "Ecquevilly",
          "slug": "ecquevilly",
          "code_postal": "78920",
          "population": 4105,
          "superficie_km2": 11.0,
          "latitude": 48.9459992,
          "longitude": 1.92,
          "distance_km": 6.07
        },
        {
          "code_insee": "78616",
          "nom": "Thoiry",
          "slug": "thoiry",
          "code_postal": "78770",
          "population": 1432,
          "superficie_km2": 7.0,
          "latitude": 48.8720017,
          "longitude": 1.798,
          "distance_km": 7.07
        },
        {
          "code_insee": "78267",
          "nom": "Gargenville",
          "slug": "gargenville",
          "code_postal": "78440",
          "population": 7863,
          "superficie_km2": 9.0,
          "latitude": 48.993,
          "longitude": 1.811,
          "distance_km": 7.45
        },
        {
          "code_insee": "78501",
          "nom": "Porcheville",
          "slug": "porcheville",
          "code_postal": "78440",
          "population": 3162,
          "superficie_km2": 5.0,
          "latitude": 48.9760017,
          "longitude": 1.768,
          "distance_km": 7.47
        },
        {
          "code_insee": "78314",
          "nom": "Issou",
          "slug": "issou",
          "code_postal": "78440",
          "population": 3928,
          "superficie_km2": 5.0,
          "latitude": 48.9869995,
          "longitude": 1.789,
          "distance_km": 7.48
        },
        {
          "code_insee": "78431",
          "nom": "Morainvilliers",
          "slug": "morainvilliers",
          "code_postal": "78630",
          "population": 3082,
          "superficie_km2": 7.0,
          "latitude": 48.9339981,
          "longitude": 1.946,
          "distance_km": 7.69
        },
        {
          "code_insee": "78291",
          "nom": "Guerville",
          "slug": "guerville",
          "code_postal": "78930",
          "population": 2124,
          "superficie_km2": 10.0,
          "latitude": 48.9519997,
          "longitude": 1.7410001,
          "distance_km": 7.74
        },
        {
          "code_insee": "78189",
          "nom": "Crespières",
          "slug": "crespieres",
          "code_postal": "78121",
          "population": 1702,
          "superficie_km2": 15.0,
          "latitude": 48.882,
          "longitude": 1.921,
          "distance_km": 7.84
        },
        {
          "code_insee": "78327",
          "nom": "Juziers",
          "slug": "juziers",
          "code_postal": "78820",
          "population": 3976,
          "superficie_km2": 9.0,
          "latitude": 49.0,
          "longitude": 1.84,
          "distance_km": 7.9
        },
        {
          "code_insee": "78140",
          "nom": "Chapet",
          "slug": "chapet",
          "code_postal": "78130",
          "population": 1344,
          "superficie_km2": 5.0,
          "latitude": 48.9679985,
          "longitude": 1.9400001,
          "distance_km": 8.43
        }
      ],
      "zonage_abc": "A",
      "reclassement_abc": "Non",
      "codes_postaux": [
        {
          "code_postal": "78126",
          "libelle_acheminement": "AULNAY SUR MAULDRE"
        }
      ],
      "logement": {
        "logements_total": 525,
        "residences_principales": 468,
        "logements_vacants": 42,
        "residences_secondaires": 14,
        "maisons": 463,
        "appartements": 60,
        "proprietaires": 404,
        "locataires": 52,
        "hlm": 0,
        "construits_avant_1919": 58,
        "construits_1919_1945": 27,
        "construits_1946_1970": 53,
        "construits_1971_1990": 206,
        "construits_1991_2005": 60,
        "construits_2006_2019": 49,
        "chauffage_electrique": 288,
        "chauffage_fioul": 57,
        "chauffage_gaz_ville": 56,
        "chauffage_gaz_bouteille": 13,
        "chauffage_autre": 52,
        "menages": 468,
        "logements_avant_1990": 344
      },
      "artisans": {
        "monte_escalier": 0,
        "chauffage_pac_clim": 3,
        "isolation": 4,
        "menuiserie": 4,
        "fenetres_velux": 4,
        "couverture_toiture": 3,
        "facade_peinture": 2,
        "portes_volets": 4,
        "piscine": 0,
        "vmc_ventilation": 1,
        "assainissement": 2
      },
      "revenus": {
        "revenu_median": 28360.0,
        "part_menages_imposes": null,
        "taux_pauvrete": null
      },
      "aides_etat": {
        "zone_climatique": "H1",
        "qpv": false,
        "action_coeur_de_ville": false,
        "petites_villes_de_demain": false
      }
    },
    {
      "code_insee": "78034",
      "nom": "Auteuil",
      "nom_a": null,
      "nom_de": null,
      "slug": "auteuil",
      "code_postal": "78770",
      "population": 1020,
      "superficie_km2": 441.4,
      "latitude": 48.8415,
      "longitude": 1.8172,
      "villes_proches": [
        {
          "code_insee": "78588",
          "nom": "Saulx-Marchais",
          "slug": "saulx-marchais",
          "code_postal": "78650",
          "population": 950,
          "superficie_km2": 215.36,
          "latitude": 48.8434,
          "longitude": 1.8361,
          "distance_km": 1.4
        },
        {
          "code_insee": "78036",
          "nom": "Autouillet",
          "slug": "autouillet",
          "code_postal": "78770",
          "population": 665,
          "superficie_km2": 505.81,
          "latitude": 48.8451,
          "longitude": 1.7958,
          "distance_km": 1.62
        },
        {
          "code_insee": "78653",
          "nom": "Vicq",
          "slug": "vicq",
          "code_postal": "78490",
          "population": 389,
          "superficie_km2": 447.2,
          "latitude": 48.8223,
          "longitude": 1.8283,
          "distance_km": 2.28
        },