{
  "departement": {
    "code": "84",
    "nom": "Vaucluse",
    "slug": "vaucluse",
    "population_totale": 564984
  },
  "region": {
    "id": 19,
    "code": "18",
    "nom": "Provence-Alpes-Côte d'Azur",
    "slug": "provence-alpes-cote-d-azur"
  },
  "voisins": [
    {
      "dep_code": "04",
      "dep_nom": "Alpes-de-Haute-Provence",
      "dep_slug": "alpes-de-haute-provence"
    },
    {
      "dep_code": "05",
      "dep_nom": "Hautes-Alpes",
      "dep_slug": "hautes-alpes"
    },
    {
      "dep_code": "06",
      "dep_nom": "Alpes-Maritimes",
      "dep_slug": "alpes-maritimes"
    },
    {
      "dep_code": "13",
      "dep_nom": "Bouches-du-Rhône",
      "dep_slug": "bouches-du-rhone"
    }
  ],
  "communes_count": 151,
  "communes": [
    {
      "code_insee": "84001",
      "nom": "Althen-des-Paluds",
      "nom_a": null,
      "nom_de": null,
      "slug": "althen-des-paluds",
      "code_postal": "84210",
      "population": 2802,
      "superficie_km2": 7.0,
      "latitude": 44.0050011,
      "longitude": 4.9580002,
      "villes_proches": [
        {
          "code_insee": "84043",
          "nom": "Entraigues-sur-la-Sorgue",
          "slug": "entraigues-sur-la-sorgue",
          "code_postal": "84320",
          "population": 8793,
          "superficie_km2": 17.0,
          "latitude": 43.9949989,
          "longitude": 4.9330001,
          "distance_km": 2.29
        },
        {
          "code_insee": "84080",
          "nom": "Monteux",
          "slug": "monteux",
          "code_postal": "84170",
          "population": 13129,
          "superficie_km2": 39.0,
          "latitude": 44.0340004,
          "longitude": 4.9850001,
          "distance_km": 3.88
        },
        {
          "code_insee": "84119",
          "nom": "Saint-Saturnin-lès-Avignon",
          "slug": "saint-saturnin-les-avignon",
          "code_postal": "84450",
          "population": 5119,
          "superficie_km2": 6.0,
          "latitude": 43.9620018,
          "longitude": 4.941,
          "distance_km": 4.97
        },
        {
          "code_insee": "84141",
          "nom": "Vedène",
          "slug": "vedene",
          "code_postal": "84270",
          "population": 11457,
          "superficie_km2": 11.0,
          "latitude": 43.9710007,
          "longitude": 4.9029999,
          "distance_km": 5.8
        },
        {
          "code_insee": "84016",
          "nom": "Bédarrides",
          "slug": "bedarrides",
          "code_postal": "84370",
          "population": 5410,
          "superficie_km2": 25.0,
          "latitude": 44.0480003,
          "longitude": 4.908,
          "distance_km": 6.23
        },
        {
          "code_insee": "84055",
          "nom": "Jonquerettes",
          "slug": "jonquerettes",
          "code_postal": "84450",
          "population": 1595,
          "superficie_km2": 3.0,
          "latitude": 43.9490013,
          "longitude": 4.9439998,
          "distance_km": 6.33
        },
        {
          "code_insee": "84088",
          "nom": "Pernes-les-Fontaines",
          "slug": "pernes-les-fontaines",
          "code_postal": "84210",
          "population": 10636,
          "superficie_km2": 51.0,
          "latitude": 43.9959984,
          "longitude": 5.04,
          "distance_km": 6.63
        },
        {
          "code_insee": "84142",
          "nom": "Velleron",
          "slug": "velleron",
          "code_postal": "84740",
          "population": 3084,
          "superficie_km2": 16.0,
          "latitude": 43.9620018,
          "longitude": 5.0279999,
          "distance_km": 7.36
        },
        {
          "code_insee": "84129",
          "nom": "Sorgues",
          "slug": "sorgues",
          "code_postal": "84700",
          "population": 19117,
          "superficie_km2": 34.0,
          "latitude": 44.0149994,
          "longitude": 4.8670001,
          "distance_km": 7.36
        },
        {
          "code_insee": "84092",
          "nom": "Le Pontet",
          "slug": "le-pontet",
          "code_postal": "84130",
          "population": 17551,
          "superficie_km2": 11.0,
          "latitude": 43.9679985,
          "longitude": 4.8660002,
          "distance_km": 8.43
        },
        {
          "code_insee": "84067",
          "nom": "Loriol-du-Comtat",
          "slug": "loriol-du-comtat",
          "code_postal": "84870",
          "population": 2471,
          "superficie_km2": 11.0,
          "latitude": 44.0750008,
          "longitude": 5.0050001,
          "distance_km": 8.64
        },
        {
          "code_insee": "84036",
          "nom": "Châteauneuf-de-Gadagne",
          "slug": "chateauneuf-de-gadagne",
          "code_postal": "84470",
          "population": 3437,
          "superficie_km2": 13.0,
          "latitude": 43.9280014,
          "longitude": 4.9429998,
          "distance_km": 8.65
        },
        {
          "code_insee": "84081",
          "nom": "Morières-lès-Avignon",
          "slug": "morieres-les-avignon",
          "code_postal": "84310",
          "population": 8922,
          "superficie_km2": 10.0,
          "latitude": 43.9339981,
          "longitude": 4.9089999,
          "distance_km": 8.82
        },
        {
          "code_insee": "84132",
          "nom": "Le Thor",
          "slug": "le-thor",
          "code_postal": "84250",
          "population": 8858,
          "superficie_km2": 36.0,
          "latitude": 43.9280014,
          "longitude": 4.993,
          "distance_km": 9.01
        },
        {
          "code_insee": "84031",
          "nom": "Carpentras",
          "slug": "carpentras",
          "code_postal": "84200",
          "population": 30769,
          "superficie_km2": 38.0,
          "latitude": 44.0589981,
          "longitude": 5.0609999,
          "distance_km": 10.19
        },
        {
          "code_insee": "84122",
          "nom": "Sarrians",
          "slug": "sarrians",
          "code_postal": "84260",
          "population": 5932,
          "superficie_km2": 38.0,
          "latitude": 44.098999,
          "longitude": 4.9569998,
          "distance_km": 10.45
        },
        {
          "code_insee": "84039",
          "nom": "Courthézon",
          "slug": "courthezon",
          "code_postal": "84350",
          "population": 6064,
          "superficie_km2": 33.0,
          "latitude": 44.0870018,
          "longitude": 4.882,
          "distance_km": 10.96
        },
        {
          "code_insee": "84004",
          "nom": "Aubignan",
          "slug": "aubignan",
          "code_postal": "84810",
          "population": 5894,
          "superficie_km2": 16.0,
          "latitude": 44.0979996,
          "longitude": 5.0320001,
          "distance_km": 11.91
        },
        {
          "code_insee": "30312",
          "nom": "Sauveterre",
          "slug": "sauveterre",
          "code_postal": "30150",
          "population": 2029,
          "superficie_km2": 13.0,
          "latitude": 44.0169983,
          "longitude": 4.809,
          "distance_km": 11.99
        },
        {
          "code_insee": "84108",
          "nom": "Saint-Didier",
          "slug": "saint-didier",
          "code_postal": "84210",
          "population": 2126,
          "superficie_km2": 4.0,
          "latitude": 44.0089989,
          "longitude": 5.1090002,
          "distance_km": 12.08
        }
      ],
      "zonage_abc": "B1",
      "reclassement_abc": "Non",
      "codes_postaux": [
        {
          "code_postal": "84210",
          "libelle_acheminement": "ALTHEN DES PALUDS"
        }
      ],
      "logement": {
        "logements_total": 1363,
        "residences_principales": 1272,
        "logements_vacants": 55,
        "residences_secondaires": 35,
        "maisons": 1042,
        "appartements": 316,
        "proprietaires": 839,
        "locataires": 404,
        "hlm": 62,
        "construits_avant_1919": 167,
        "construits_1919_1945": 47,
        "construits_1946_1970": 110,
        "construits_1971_1990": 259,
        "construits_1991_2005": 308,
        "construits_2006_2019": 301,
        "chauffage_electrique": 829,
        "chauffage_fioul": 119,
        "chauffage_gaz_ville": 127,
        "chauffage_gaz_bouteille": 20,
        "chauffage_autre": 176,
        "menages": 1272,
        "logements_avant_1990": 583
      },
      "artisans": {
        "monte_escalier": 1,
        "chauffage_pac_clim": 12,
        "isolation": 4,
        "menuiserie": 11,
        "fenetres_velux": 11,
        "couverture_toiture": 3,
        "facade_peinture": 5,
        "portes_volets": 11,
        "piscine": 1,
        "vmc_ventilation": 4,
        "assainissement": 9
      },
      "revenus": {
        "revenu_median": 23380.0,
        "part_menages_imposes": 55.0,
        "taux_pauvrete": 9.0
      },
      "aides_etat": {
        "zone_climatique": "H2",
        "qpv": false,
        "action_coeur_de_ville": false,
        "petites_villes_de_demain": false
      }
    },
    {
      "code_insee": "84002",
      "nom": "Ansouis",
      "nom_a": null,
      "nom_de": null,
      "slug": "ansouis",
      "code_postal": "84240",
      "population": 1061,
      "superficie_km2": 18.0,
      "latitude": 43.7360001,
      "longitude": 5.4710002,
      "villes_proches": [
        {
          "code_insee": "84147",
          "nom": "Villelaure",
          "slug": "villelaure",
          "code_postal": "84530",
          "population": 3337,
          "superficie_km2": 18.0,
          "latitude": 43.7080002,
          "longitude": 5.4310002,
          "distance_km": 4.48
        },
        {
          "code_insee": "84042",
          "nom": "Cucuron",
          "slug": "cucuron",
          "code_postal": "84160",
          "population": 1814,
          "superficie_km2": 33.0,
          "latitude": 43.7779999,
          "longitude": 5.4439998,
          "distance_km": 5.15
        },
        {
          "code_insee": "84089",
          "nom": "Pertuis",
          "slug": "pertuis",
          "code_postal": "84120",
          "population": 20012,
          "superficie_km2": 59.0,
          "latitude": 43.6870003,
          "longitude": 5.52,
          "distance_km": 6.72
        },
        {
          "code_insee": "84084",
          "nom": "La Motte-d'Aigues",
          "slug": "la-motte-d-aigues",
          "code_postal": "84240",
          "population": 1399,
          "superficie_km2": 15.0,
          "latitude": 43.7840004,
          "longitude": 5.5219998,
          "distance_km": 6.73
        },
        {
          "code_insee": "84026",
          "nom": "Cadenet",
          "slug": "cadenet",
          "code_postal": "84160",
          "population": 4292,
          "superficie_km2": 26.0,
          "latitude": 43.7299995,
          "longitude": 5.3839998,
          "distance_km": 7.02
        },
        {
          "code_insee": "84133",
          "nom": "La Tour-d'Aigues",
          "slug": "la-tour-d-aigues",
          "code_postal": "84240",
          "population": 4346,
          "superficie_km2": 41.0,
          "latitude": 43.7220001,
          "longitude": 5.5669999,
          "distance_km": 7.87
        },
        {
          "code_insee": "84068",
          "nom": "Lourmarin",
          "slug": "lourmarin",
          "code_postal": "84160",
          "population": 1042,
          "superficie_km2": 20.0,
          "latitude": 43.7779999,
          "longitude": 5.3660002,
          "distance_km": 9.64
        },
        {
          "code_insee": "13080",
          "nom": "Le Puy-Sainte-Réparade",
          "slug": "le-puy-sainte-reparade",
          "code_postal": "13610",
          "population": 5830,
          "superficie_km2": 45.0,
          "latitude": 43.6520004,
          "longitude": 5.4400001,
          "distance_km": 9.67
        },
        {
          "code_insee": "84052",
          "nom": "Grambois",
          "slug": "grambois",
          "code_postal": "84240",
          "population": 1214,
          "superficie_km2": 31.0,
          "latitude": 43.7610016,
          "longitude": 5.6040001,
          "distance_km": 11.04
        },
        {
          "code_insee": "13082",
          "nom": "Rognes",
          "slug": "rognes",
          "code_postal": "13840",
          "population": 4586,
          "superficie_km2": 58.0,
          "latitude": 43.6650009,
          "longitude": 5.3520002,
          "distance_km": 12.4
        },
        {
          "code_insee": "13059",
          "nom": "Meyrargues",
          "slug": "meyrargues",
          "code_postal": "13650",
          "population": 3830,
          "superficie_km2": 42.0,
          "latitude": 43.6240006,
          "longitude": 5.5229998,
          "distance_km": 13.14
        },
        {
          "code_insee": "13084",
          "nom": "La Roque-d'Anthéron",
          "slug": "la-roque-d-antheron",
          "code_postal": "13640",
          "population": 5377,
          "superficie_km2": 25.0,
          "latitude": 43.7179985,
          "longitude": 5.302,
          "distance_km": 13.73
        },
        {
          "code_insee": "84065",
          "nom": "Lauris",
          "slug": "lauris",
          "code_postal": "84360",
          "population": 3896,
          "superficie_km2": 22.0,
          "latitude": 43.7630005,
          "longitude": 5.303,
          "distance_km": 13.82
        },
        {
          "code_insee": "84076",
          "nom": "Mirabeau",
          "slug": "mirabeau",
          "code_postal": "84120",
          "population": 1419,
          "superficie_km2": 32.0,
          "latitude": 43.7050018,
          "longitude": 5.6430001,
          "distance_km": 14.25
        },
        {
          "code_insee": "13074",
          "nom": "Peyrolles-en-Provence",
          "slug": "peyrolles-en-provence",
          "code_postal": "13860",
          "population": 5223,
          "superficie_km2": 35.0,
          "latitude": 43.6279984,
          "longitude": 5.5770001,
          "distance_km": 14.73
        },
        {
          "code_insee": "84009",
          "nom": "La Bastide-des-Jourdans",
          "slug": "la-bastide-des-jourdans",
          "code_postal": "84240",
          "population": 1686,
          "superficie_km2": 28.0,
          "latitude": 43.7939987,
          "longitude": 5.6469998,
          "distance_km": 15.54
        },
        {
          "code_insee": "04045",
          "nom": "Céreste-en-Luberon",
          "slug": "cereste-en-luberon",
          "code_postal": "04280",
          "population": 1194,
          "superficie_km2": 33.0,
          "latitude": 43.8499985,
          "longitude": 5.5900002,
          "distance_km": 15.87
        },
        {
          "code_insee": "13113",
          "nom": "Venelles",
          "slug": "venelles",
          "code_postal": "13770",
          "population": 8426,
          "superficie_km2": 21.0,
          "latitude": 43.5929985,
          "longitude": 5.4910002,
          "distance_km": 15.98
        },
        {
          "code_insee": "84020",
          "nom": "Bonnieux",
          "slug": "bonnieux",
          "code_postal": "84480",
          "population": 1177,
          "superficie_km2": 51.0,
          "latitude": 43.8269997,
          "longitude": 5.3150001,
          "distance_km": 16.1
        },
        {
          "code_insee": "84003",
          "nom": "Apt",
          "slug": "apt",
          "code_postal": "84400",
          "population": 10536,
          "superficie_km2": 45.0,
          "latitude": 43.8790016,
          "longitude": 5.3889999,
          "distance_km": 17.21
        }
      ],
      "zonage_abc": "C",
      "reclassement_abc": "Non",
      "codes_postaux": [
        {
          "code_postal": "84240",
          "libelle_acheminement": "ANSOUIS"
        }
      ],
      "logement": {
        "logements_total": 668,
        "residences_principales": 474,
        "logements_vacants": 39,
        "residences_secondaires": 155,
        "maisons": 606,
        "appartements": 62,
        "proprietaires": 351,
        "locataires": 101,
        "hlm": 0,
        "construits_avant_1919": 120,
        "construits_1919_1945": 23,
        "construits_1946_1970": 42,
        "construits_1971_1990": 116,
        "construits_1991_2005": 112,
        "construits_2006_2019": 58,
        "chauffage_electrique": 259,
        "chauffage_fioul": 88,
        "chauffage_gaz_ville": 0,
        "chauffage_gaz_bouteille": 16,
        "chauffage_autre": 109,
        "menages": 474,
        "logements_avant_1990": 301
      },
      "artisans": {
        "monte_escalier": 0,
        "chauffage_pac_clim": 3,
        "isolation": 1,
        "menuiserie": 1,
        "fenetres_velux": 1,
        "couverture_toiture": 0,
        "facade_peinture": 0,
        "portes_volets": 1,
        "piscine": 0,
        "vmc_ventilation": 0,
        "assainissement": 3
      },
      "revenus": {
        "revenu_median": 24660.0,
        "part_menages_imposes": null,
        "taux_pauvrete": null
      },
      "aides_etat": {
        "zone_climatique": "H2",
        "qpv": false,
        "action_coeur_de_ville": false,
        "petites_villes_de_demain": false
      }
    },
    {
      "code_insee": "84003",
      "nom": "Apt",
      "nom_a": null,
      "nom_de": null,
      "slug": "apt",
      "code_postal": "84400",
      "population": 10536,
      "superficie_km2": 45.0,
      "latitude": 43.8790016,
      "longitude": 5.3889999,
      "villes_proches": [
        {
          "code_insee": "84047",
          "nom": "Gargas",
          "slug": "gargas",
          "code_postal": "84400",
          "population": 3039,
          "superficie_km2": 15.0,
          "latitude": 43.8959999,
          "longitude": 5.3439999,
          "distance_km": 4.07
        },
        {
          "code_insee": "84102",
          "nom": "Roussillon",
          "slug": "roussillon",
          "code_postal": "84220",
          "population": 1302,
          "superficie_km2": 30.0,
          "latitude": 43.901001,
          "longitude": 5.2919998,
          "distance_km": 8.15
        },
        {
          "code_insee": "84020",
          "nom": "Bonnieux",
          "slug": "bonnieux",
          "code_postal": "84480",
          "population": 1177,
          "superficie_km2": 51.0,
          "latitude": 43.8269997,
          "longitude": 5.3150001,
          "distance_km": 8.29
        },
        {
          "code_insee": "84118",
          "nom": "Saint-Saturnin-lès-Apt",
          "slug": "saint-saturnin-les-apt",
          "code_postal": "84490",
          "population": 2947,
          "superficie_km2": 77.0,
          "latitude": 43.9589996,
          "longitude": 5.3730001,
          "distance_km": 8.99
        },
        {
          "code_insee": "84068",
          "nom": "Lourmarin",
          "slug": "lourmarin",
          "code_postal": "84160",
          "population": 1042,
          "superficie_km2": 20.0,
          "latitude": 43.7779999,
          "longitude": 5.3660002,
          "distance_km": 11.38
        },
        {
          "code_insee": "84051",
          "nom": "Goult",
          "slug": "goult",
          "code_postal": "84220",
          "population": 1080,
          "superficie_km2": 24.0,
          "latitude": 43.8670006,
          "longitude": 5.2480001,
          "distance_km": 11.38
        },
        {
          "code_insee": "84042",
          "nom": "Cucuron",
          "slug": "cucuron",
          "code_postal": "84160",
          "population": 1814,
          "superficie_km2": 33.0,
          "latitude": 43.7779999,
          "longitude": 5.4439998,
          "distance_km": 12.07
        },
        {
          "code_insee": "84065",
          "nom": "Lauris",
          "slug": "lauris",
          "code_postal": "84360",
          "population": 3896,
          "superficie_km2": 22.0,
          "latitude": 43.7630005,
          "longitude": 5.303,
          "distance_km": 14.63
        },
        {
          "code_insee": "84084",
          "nom": "La Motte-d'Aigues",
          "slug": "la-motte-d-aigues",
          "code_postal": "84240",
          "population": 1399,
          "superficie_km2": 15.0,
          "latitude": 43.7840004,
          "longitude": 5.5219998,
          "distance_km": 15.01
        },
        {
          "code_insee": "84050",
          "nom": "Gordes",
          "slug": "gordes",
          "code_postal": "84220",
          "population": 1666,
          "superficie_km2": 49.0,
          "latitude": 43.9090004,
          "longitude": 5.198,
          "distance_km": 15.66
        },
        {
          "code_insee": "04045",
          "nom": "Céreste-en-Luberon",
          "slug": "cereste-en-luberon",
          "code_postal": "04280",
          "population": 1194,
          "superficie_km2": 33.0,
          "latitude": 43.8499985,
          "longitude": 5.5900002,
          "distance_km": 16.43
        },
        {
          "code_insee": "84026",
          "nom": "Cadenet",
          "slug": "cadenet",
          "code_postal": "84160",
          "population": 4292,
          "superficie_km2": 26.0,
          "latitude": 43.7299995,
          "longitude": 5.3839998,
          "distance_km": 16.57
        },
        {
          "code_insee": "84002",
          "nom": "Ansouis",
          "slug": "ansouis",
          "code_postal": "84240",
          "population": 1061,
          "superficie_km2": 18.0,
          "latitude": 43.7360001,
          "longitude": 5.4710002,
          "distance_km": 17.21
        },
        {
          "code_insee": "84086",
          "nom": "Oppède",
          "slug": "oppede",
          "code_postal": "84580",
          "population": 1284,
          "superficie_km2": 24.0,
          "latitude": 43.8310013,
          "longitude": 5.1700001,
          "distance_km": 18.35
        },
        {
          "code_insee": "84025",
          "nom": "Cabrières-d'Avignon",
          "slug": "cabrieres-d-avignon",
          "code_postal": "84220",
          "population": 1795,
          "superficie_km2": 15.0,
          "latitude": 43.8959999,
          "longitude": 5.1529999,
          "distance_km": 19.01
        },
        {
          "code_insee": "84107",
          "nom": "Saint-Christol",
          "slug": "saint-christol",
          "code_postal": "84390",
          "population": 1422,
          "superficie_km2": 46.0,
          "latitude": 44.0309982,
          "longitude": 5.5029998,
          "distance_km": 19.21
        },
        {
          "code_insee": "13084",
          "nom": "La Roque-d'Anthéron",
          "slug": "la-roque-d-antheron",
          "code_postal": "13640",
          "population": 5377,
          "superficie_km2": 25.0,
          "latitude": 43.7179985,
          "longitude": 5.302,
          "distance_km": 19.22
        },
        {
          "code_insee": "84147",
          "nom": "Villelaure",
          "slug": "villelaure",
          "code_postal": "84530",
          "population": 3337,
          "superficie_km2": 18.0,
          "latitude": 43.7080002,
          "longitude": 5.4310002,
          "distance_km": 19.31
        },
        {
          "code_insee": "84074",
          "nom": "Mérindol",
          "slug": "merindol",
          "code_postal": "84360",
          "population": 2251,
          "superficie_km2": 27.0,
          "latitude": 43.762001,
          "longitude": 5.2020001,
          "distance_km": 19.86
        },
        {
          "code_insee": "84071",
          "nom": "Maubec",
          "slug": "maubec",
          "code_postal": "84660",
          "population": 1914,
          "superficie_km2": 9.0,
          "latitude": 43.8419991,
          "longitude": 5.138,
          "distance_km": 20.54
        }
      ],
      "zonage_abc": "C",
      "reclassement_abc": "Non",
      "codes_postaux": [
        {
          "code_postal": "84400",
          "libelle_acheminement": "APT"
        }
      ],
      "logement": {
        "logements_total": 6775,
        "residences_principales": 5122,
        "logements_vacants": 986,
        "residences_secondaires": 667,
        "maisons": 3171,
        "appartements": 3489,
        "proprietaires": 2459,
        "locataires": 2530,
        "hlm": 845,
        "construits_avant_1919": 760,
        "construits_1919_1945": 255,
        "construits_1946_1970": 1455,
        "construits_1971_1990": 1651,
        "construits_1991_2005": 531,
        "construits_2006_2019": 431,
        "chauffage_electrique": 2475,
        "chauffage_fioul": 564,
        "chauffage_gaz_ville": 1172,
        "chauffage_gaz_bouteille": 108,
        "chauffage_autre": 800,
        "menages": 5122,
        "logements_avant_1990": 4121
      },
      "artisans": {
        "monte_escalier": 2,
        "chauffage_pac_clim": 29,
        "isolation": 6,
        "menuiserie": 27,
        "fenetres_velux": 27,
        "couverture_toiture": 5,
        "facade_peinture": 18,
        "portes_volets": 27,
        "piscine": 3,
        "vmc_ventilation": 11,
        "assainissement": 22
      },
      "revenus": {
        "revenu_median": 18070.0,
        "part_menages_imposes": 37.0,
        "taux_pauvrete": 27.0
      },
      "aides_etat": {
        "zone_climatique": "H2",
        "qpv": true,
        "action_coeur_de_ville": false,
        "petites_villes_de_demain": true
      }
    },
    {
      "code_insee": "84004",
      "nom": "Aubignan",
      "nom_a": null,
      "nom_de": null,
      "slug": "aubignan",
      "code_postal": "84810",
      "population": 5894,
      "superficie_km2": 16.0,
      "latitude": 44.0979996,
      "longitude": 5.0320001,
      "villes_proches": [
        {
          "code_insee": "84012",
          "nom": "Beaumes-de-Venise",
          "slug": "beaumes-de-venise",
          "code_postal": "84190",
          "population": 2389,
          "superficie_km2": 19.0,
          "latitude": 44.1230011,
          "longitude": 5.0289998,
          "distance_km": 2.79
        },
        {
          "code_insee": "84067",
          "nom": "Loriol-du-Comtat",
          "slug": "loriol-du-comtat",
          "code_postal": "84870",
          "population": 2471,
          "superficie_km2": 11.0,
          "latitude": 44.0750008,
          "longitude": 5.0050001,
          "distance_km": 3.35
        },
        {
          "code_insee": "84031",
          "nom": "Carpentras",
          "slug": "carpentras",
          "code_postal": "84200",
          "population": 30769,
          "superficie_km2": 38.0,
          "latitude": 44.0589981,
          "longitude": 5.0609999,
          "distance_km": 4.92
        },
        {
          "code_insee": "84122",
          "nom": "Sarrians",
          "slug": "sarrians",
          "code_postal": "84260",
          "population": 5932,
          "superficie_km2": 38.0,
          "latitude": 44.098999,
          "longitude": 4.9569998,
          "distance_km": 5.99
        },
        {
          "code_insee": "84030",
          "nom": "Caromb",
          "slug": "caromb",
          "code_postal": "84330",
          "population": 3458,
          "superficie_km2": 18.0,
          "latitude": 44.1119995,
          "longitude": 5.1069999,
          "distance_km": 6.19
        },
        {
          "code_insee": "84136",
          "nom": "Vacqueyras",
          "slug": "vacqueyras",
          "code_postal": "84190",
          "population": 1209,
          "superficie_km2": 9.0,
          "latitude": 44.1450005,
          "longitude": 4.9790001,
          "distance_km": 6.72
        },
        {
          "code_insee": "84080",
          "nom": "Monteux",
          "slug": "monteux",
          "code_postal": "84170",
          "population": 13129,
          "superficie_km2": 39.0,
          "latitude": 44.0340004,
          "longitude": 4.9850001,
          "distance_km": 8.05
        },
        {
          "code_insee": "84072",
          "nom": "Mazan",
          "slug": "mazan",
          "code_postal": "84380",
          "population": 6269,
          "superficie_km2": 38.0,
          "latitude": 44.0540009,
          "longitude": 5.1300001,
          "distance_km": 9.23
        },
        {
          "code_insee": "84056",
          "nom": "Jonquières",
          "slug": "jonquieres",
          "code_postal": "84150",
          "population": 5298,
          "superficie_km2": 24.0,
          "latitude": 44.132,
          "longitude": 4.9130001,
          "distance_km": 10.22
        },
        {
          "code_insee": "84149",
          "nom": "Violès",
          "slug": "violes",
          "code_postal": "84150",
          "population": 1736,
          "superficie_km2": 15.0,
          "latitude": 44.1769981,
          "longitude": 4.9510002,
          "distance_km": 10.91
        },
        {
          "code_insee": "84104",
          "nom": "Sablet",
          "slug": "sablet",
          "code_postal": "84110",
          "population": 1391,
          "superficie_km2": 11.0,
          "latitude": 44.1949997,
          "longitude": 5.0009999,
          "distance_km": 11.07
        },
        {
          "code_insee": "84016",
          "nom": "Bédarrides",
          "slug": "bedarrides",
          "code_postal": "84370",
          "population": 5410,
          "superficie_km2": 25.0,
          "latitude": 44.0480003,
          "longitude": 4.908,
          "distance_km": 11.36
        },
        {
          "code_insee": "84088",
          "nom": "Pernes-les-Fontaines",
          "slug": "pernes-les-fontaines",
          "code_postal": "84210",
          "population": 10636,
          "superficie_km2": 51.0,
          "latitude": 43.9959984,
          "longitude": 5.04,
          "distance_km": 11.36
        },
        {
          "code_insee": "84108",
          "nom": "Saint-Didier",
          "slug": "saint-didier",
          "code_postal": "84210",
          "population": 2126,
          "superficie_km2": 4.0,
          "latitude": 44.0089989,
          "longitude": 5.1090002,
          "distance_km": 11.65
        },
        {
          "code_insee": "84001",
          "nom": "Althen-des-Paluds",
          "slug": "althen-des-paluds",
          "code_postal": "84210",
          "population": 2802,
          "superficie_km2": 7.0,
          "latitude": 44.0050011,
          "longitude": 4.9580002,
          "distance_km": 11.91
        },
        {
          "code_insee": "84039",
          "nom": "Courthézon",
          "slug": "courthezon",
          "code_postal": "84350",
          "population": 6064,
          "superficie_km2": 33.0,
          "latitude": 44.0870018,
          "longitude": 4.882,
          "distance_km": 12.04
        },
        {
          "code_insee": "84082",
          "nom": "Mormoiron",
          "slug": "mormoiron",
          "code_postal": "84570",
          "population": 1879,
          "superficie_km2": 25.0,
          "latitude": 44.0699997,
          "longitude": 5.191,
          "distance_km": 13.08
        },
        {
          "code_insee": "84029",
          "nom": "Camaret-sur-Aigues",
          "slug": "camaret-sur-aigues",
          "code_postal": "84850",
          "population": 4547,
          "superficie_km2": 18.0,
          "latitude": 44.1599999,
          "longitude": 4.8839998,
          "distance_km": 13.68
        },
        {
          "code_insee": "84069",
          "nom": "Malaucène",
          "slug": "malaucene",
          "code_postal": "84340",
          "population": 2756,
          "superficie_km2": 45.0,
          "latitude": 44.1879997,
          "longitude": 5.1500001,
          "distance_km": 13.74
        },
        {
          "code_insee": "84070",
          "nom": "Malemort-du-Comtat",
          "slug": "malemort-du-comtat",
          "code_postal": "84570",
          "population": 1935,
          "superficie_km2": 12.0,
          "latitude": 44.019001,
          "longitude": 5.1669998,
          "distance_km": 13.91
        }
      ],
      "zonage_abc": "B1",
      "reclassement_abc": "Non",
      "codes_postaux": [
        {
          "code_postal": "84810",
          "libelle_acheminement": "AUBIGNAN"
        }
      ],
      "logement": {
        "logements_total": 3102,
        "residences_principales": 2493,
        "logements_vacants": 248,
        "residences_secondaires": 360,
        "maisons": 2674,
        "appartements": 405,
        "proprietaires": 1616,
        "locataires": 818,
        "hlm": 167,
        "construits_avant_1919": 254,
        "construits_1919_1945": 102,
        "construits_1946_1970": 261,
        "construits_1971_1990": 592,
        "construits_1991_2005": 591,
        "construits_2006_2019": 690,
        "chauffage_electrique": 1506,
        "chauffage_fioul": 369,
        "chauffage_gaz_ville": 201,
        "chauffage_gaz_bouteille": 30,
        "chauffage_autre": 385,
        "menages": 2493,
        "logements_avant_1990": 1209
      },
      "artisans": {
        "monte_escalier": 2,
        "chauffage_pac_clim": 17,
        "isolation": 7,
        "menuiserie": 18,
        "fenetres_velux": 18,
        "couverture_toiture": 3,
        "facade_peinture": 9,
        "portes_volets": 18,
        "piscine": 3,
        "vmc_ventilation": 4,
        "assainissement": 15
      },
      "revenus": {
        "revenu_median": 21690.0,
        "part_menages_imposes": 46.0,
        "taux_pauvrete": 15.0
      },
      "aides_etat": {
        "zone_climatique": "H2",
        "qpv": false,
        "action_coeur_de_ville": false,
        "petites_villes_de_demain": true
      }
    },
    {
      "code_insee": "84005",
      "nom": "Aurel",
      "nom_a": null,
      "nom_de": null,
      "slug": "aurel",
      "code_postal": "84390",
      "population": 190,
      "superficie_km2": 2929.22,
      "latitude": 44.1357,
      "longitude": 5.3906,
      "villes_proches": [
        {
          "code_insee": "26263",
          "nom": "Reilhanette",
          "slug": "reilhanette",
          "code_postal": "26570",
          "population": 107,
          "superficie_km2": 1503.36,
          "latitude": 44.1751,
          "longitude": 5.4085,
          "distance_km": 4.61
        },
        {
          "code_insee": "84125",
          "nom": "Savoillan",
          "slug": "savoillan",
          "code_postal": "84390",
          "population": 81,
          "superficie_km2": 878.53,
          "latitude": 44.1778,
          "longitude": 5.3707,
          "distance_km": 4.94
        },
        {
          "code_insee": "26193",
          "nom": "Montbrun-les-Bains",
          "slug": "montbrun-les-bains",
          "code_postal": "26570",
          "population": 442,
          "superficie_km2": 3354.24,
          "latitude": 44.1823,
          "longitude": 5.4313,
          "distance_km": 6.11
        },
        {
          "code_insee": "84123",
          "nom": "Sault",
          "slug": "sault",
          "code_postal": "84390",
          "population": 1343,
          "superficie_km2": 11219.47,
          "latitude": 44.0774,
          "longitude": 5.3892,
          "distance_km": 6.48
        },
        {
          "code_insee": "84021",
          "nom": "Brantes",
          "slug": "brantes",
          "code_postal": "84390",
          "population": 86,
          "superficie_km2": 2824.18,
          "latitude": 44.1861,
          "longitude": 5.3315,
          "distance_km": 7.32
        },
        {
          "code_insee": "84120",
          "nom": "Saint-Trinit",
          "slug": "saint-trinit",
          "code_postal": "84390",
          "population": 118,
          "superficie_km2": 1690.17,
          "latitude": 44.0913,
          "longitude": 5.4747,
          "distance_km": 8.33
        },
        {
          "code_insee": "26135",
          "nom": "Ferrassières",
          "slug": "ferrassieres",
          "code_postal": "26570",
          "population": 122,
          "superficie_km2": 2953.84,
          "latitude": 44.1425,
          "longitude": 5.4993,
          "distance_km": 8.71
        },
        {
          "code_insee": "84079",
          "nom": "Monieux",
          "slug": "monieux",
          "code_postal": "84390",
          "population": 263,
          "superficie_km2": 4755.07,
          "latitude": 44.052,
          "longitude": 5.345,
          "distance_km": 9.99
        },
        {
          "code_insee": "26018",
          "nom": "Aulan",
          "slug": "aulan",
          "code_postal": "26570",
          "population": 8,
          "superficie_km2": 1076.25,
          "latitude": 44.2289,
          "longitude": 5.4197,
          "distance_km": 10.62
        },
        {
          "code_insee": "84046",
          "nom": "Flassan",
          "slug": "flassan",
          "code_postal": "84410",
          "population": 453,
          "superficie_km2": 2086.48,
          "latitude": 44.0995,
          "longitude": 5.2613,
          "distance_km": 11.08
        },
        {
          "code_insee": "26239",
          "nom": "Plaisians",
          "slug": "plaisians",
          "code_postal": "26170",
          "population": 209,
          "superficie_km2": 3036.14,
          "latitude": 44.2288,
          "longitude": 5.3398,
          "distance_km": 11.12
        },
        {
          "code_insee": "26026",
          "nom": "Barret-de-Lioure",
          "slug": "barret-de-lioure",
          "code_postal": "26570",
          "population": 72,
          "superficie_km2": 3488.48,
          "latitude": 44.1768,
          "longitude": 5.5195,
          "distance_km": 11.25
        },
        {
          "code_insee": "84110",
          "nom": "Saint-Léger-du-Ventoux",
          "slug": "saint-leger-du-ventoux",
          "code_postal": "84390",
          "population": 25,
          "superficie_km2": 1950.82,
          "latitude": 44.2027,
          "longitude": 5.2749,
          "distance_km": 11.86
        },
        {
          "code_insee": "26242",
          "nom": "Le Poët-en-Percip",
          "slug": "le-poet-en-percip",
          "code_postal": "26170",
          "population": 25,
          "superficie_km2": 611.86,
          "latitude": 44.2498,
          "longitude": 5.3961,
          "distance_km": 12.69
        },
        {
          "code_insee": "26375",
          "nom": "Villefranche-le-Château",
          "slug": "villefranche-le-chateau",
          "code_postal": "26560",
          "population": 20,
          "superficie_km2": 745.68,
          "latitude": 44.2174,
          "longitude": 5.5067,
          "distance_km": 12.97
        },
        {
          "code_insee": "26181",
          "nom": "Mévouillon",
          "slug": "mevouillon",
          "code_postal": "26560",
          "population": 246,
          "superficie_km2": 2933.46,
          "latitude": 44.2334,
          "longitude": 5.484,
          "distance_km": 13.17
        },
        {
          "code_insee": "84148",
          "nom": "Villes-sur-Auzon",
          "slug": "villes-sur-auzon",
          "code_postal": "84570",
          "population": 1306,
          "superficie_km2": 2719.43,
          "latitude": 44.0658,
          "longitude": 5.2572,
          "distance_km": 13.19
        },
        {
          "code_insee": "26127",
          "nom": "Eygaliers",
          "slug": "eygaliers",
          "code_postal": "26170",
          "population": 139,
          "superficie_km2": 820.85,
          "latitude": 44.2383,
          "longitude": 5.2877,
          "distance_km": 14.05
        },
        {
          "code_insee": "26279",
          "nom": "La Rochette-du-Buis",
          "slug": "la-rochette-du-buis",
          "code_postal": "26170",
          "population": 56,
          "superficie_km2": 1057.99,
          "latitude": 44.2604,
          "longitude": 5.4206,
          "distance_km": 14.07
        },
        {
          "code_insee": "26278",
          "nom": "La Roche-sur-le-Buis",
          "slug": "la-roche-sur-le-buis",
          "code_postal": "26170",
          "population": 281,
          "superficie_km2": 2812.98,
          "latitude": 44.2586,
          "longitude": 5.3396,
          "distance_km": 14.26
        }
      ],
      "zonage_abc": "C",
      "reclassement_abc": "Non",
      "codes_postaux": [
        {
          "code_postal": "84390",
          "libelle_acheminement": "AUREL"
        }
      ],
      "logement": {
        "logements_total": 193,
        "residences_principales": 91,
        "logements_vacants": 2,
        "residences_secondaires": 98,
        "maisons": 148,
        "appartements": 44,
        "proprietaires": 66,
        "locataires": 21,
        "hlm": 0,
        "construits_avant_1919": 28,
        "construits_1919_1945": 5,
        "construits_1946_1970": 10,
        "construits_1971_1990": 21,
        "construits_1991_2005": 10,
        "construits_2006_2019": 14,
        "chauffage_electrique": 21,
        "chauffage_fioul": 25,
        "chauffage_gaz_ville": 0,
        "chauffage_gaz_bouteille": 0,
        "chauffage_autre": 44,
        "menages": 91,
        "logements_avant_1990": 64
      },
      "artisans": {
        "monte_escalier": 0,
        "chauffage_pac_clim": 0,
        "isolation": 0,
        "menuiserie": 0,
        "fenetres_velux": 0,
        "couverture_toiture": 0,
        "facade_peinture": 0,
        "portes_volets": 0,
        "piscine": 0,
        "vmc_ventilation": 0,
        "assainissement": 0
      },
      "revenus": {
        "revenu_median": 20200.0,
        "part_menages_imposes": null,
        "taux_pauvrete": null
      },
      "aides_etat": {
        "zone_climatique": "H2",
        "qpv": false,
        "action_coeur_de_ville": false,
        "petites_villes_de_demain": false
      }
    },
    {
      "code_insee": "84006",
      "nom": "Auribeau",
      "nom_a": null,
      "nom_de": null,
      "slug": "auribeau",
      "code_postal": "84400",
      "population": 68,
      "superficie_km2": 752.98,
      "latitude": 43.8275,
      "longitude": 5.4444,
      "villes_proches": [
        {
          "code_insee": "84128",
          "nom": "Sivergues",
          "slug": "sivergues",
          "code_postal": "84400",
          "population": 39,
          "superficie_km2": 943.5,
          "latitude": 43.8231,
          "longitude": 5.418,
          "distance_km": 2.17
        },
        {
          "code_insee": "84033",
          "nom": "Castellet-en-Luberon",
          "slug": "castellet-en-luberon",
          "code_postal": "84400",
          "population": 113,
          "superficie_km2": 955.08,
          "latitude": 43.8336,
          "longitude": 5.4876,
          "distance_km": 3.53
        },
        {
          "code_insee": "84105",
          "nom": "Saignon",
          "slug": "saignon",
          "code_postal": "84400",
          "population": 912,
          "superficie_km2": 1978.46,
          "latitude": 43.868,
          "longitude": 5.4405,
          "distance_km": 4.51
        },
        {
          "code_insee": "84042",
          "nom": "Cucuron",
          "slug": "cucuron",
          "code_postal": "84160",
          "population": 1885,
          "superficie_km2": 3249.69,
          "latitude": 43.7801,
          "longitude": 5.4401,
          "distance_km": 5.28
        },
        {
          "code_insee": "84024",
          "nom": "Cabrières-d'Aigues",
          "slug": "cabrieres-d-aigues",
          "code_postal": "84240",
          "population": 946,
          "superficie_km2": 1891.54,
          "latitude": 43.7882,
          "longitude": 5.4891,
          "distance_km": 5.65
        },
        {
          "code_insee": "84023",
          "nom": "Buoux",
          "slug": "buoux",
          "code_postal": "84480",
          "population": 104,
          "superficie_km2": 1760.7,
          "latitude": 43.8207,
          "longitude": 5.3745,
          "distance_km": 5.66
        },
        {
          "code_insee": "84112",
          "nom": "Saint-Martin-de-Castillon",
          "slug": "saint-martin-de-castillon",
          "code_postal": "84750",
          "population": 689,
          "superficie_km2": 3836.92,
          "latitude": 43.8557,
          "longitude": 5.5141,
          "distance_km": 6.41
        },
        {
          "code_insee": "84140",
          "nom": "Vaugines",
          "slug": "vaugines",
          "code_postal": "84160",
          "population": 553,
          "superficie_km2": 1553.91,
          "latitude": 43.7738,
          "longitude": 5.4081,
          "distance_km": 6.64
        },
        {
          "code_insee": "84032",
          "nom": "Caseneuve",
          "slug": "caseneuve",
          "code_postal": "84750",
          "population": 527,
          "superficie_km2": 1809.47,
          "latitude": 43.8859,
          "longitude": 5.4833,
          "distance_km": 7.2
        },
        {
          "code_insee": "84003",
          "nom": "Apt",
          "slug": "apt",
          "code_postal": "84400",
          "population": 10143,
          "superficie_km2": 4517.33,
          "latitude": 43.8815,
          "longitude": 5.3814,
          "distance_km": 7.85
        },
        {
          "code_insee": "84084",
          "nom": "La Motte-d'Aigues",
          "slug": "la-motte-d-aigues",
          "code_postal": "84240",
          "population": 1438,
          "superficie_km2": 1467.05,
          "latitude": 43.7817,
          "longitude": 5.5237,
          "distance_km": 8.15
        },
        {
          "code_insee": "84121",
          "nom": "Sannes",
          "slug": "sannes",
          "code_postal": "84240",
          "population": 290,
          "superficie_km2": 457.43,
          "latitude": 43.7588,
          "longitude": 5.4917,
          "distance_km": 8.53
        },
        {
          "code_insee": "84068",
          "nom": "Lourmarin",
          "slug": "lourmarin",
          "code_postal": "84160",
          "population": 1020,
          "superficie_km2": 2021.19,
          "latitude": 43.7785,
          "longitude": 5.3625,
          "distance_km": 8.54
        },
        {
          "code_insee": "84090",
          "nom": "Peypin-d'Aigues",
          "slug": "peypin-d-aigues",
          "code_postal": "84240",
          "population": 664,
          "superficie_km2": 1728.44,
          "latitude": 43.7962,
          "longitude": 5.5617,
          "distance_km": 10.04
        },
        {
          "code_insee": "84113",
          "nom": "Saint-Martin-de-la-Brasque",
          "slug": "saint-martin-de-la-brasque",
          "code_postal": "84760",
          "population": 805,
          "superficie_km2": 560.96,
          "latitude": 43.7656,
          "longitude": 5.5401,
          "distance_km": 10.31
        },
        {
          "code_insee": "84002",
          "nom": "Ansouis",
          "slug": "ansouis",
          "code_postal": "84240",
          "population": 1064,
          "superficie_km2": 1758.57,
          "latitude": 43.7338,
          "longitude": 5.4682,
          "distance_km": 10.59
        },
        {
          "code_insee": "84047",
          "nom": "Gargas",
          "slug": "gargas",
          "code_postal": "84400",
          "population": 3035,
          "superficie_km2": 1488.0,
          "latitude": 43.8939,
          "longitude": 5.3435,
          "distance_km": 10.95
        },
        {
          "code_insee": "84026",
          "nom": "Cadenet",
          "slug": "cadenet",
          "code_postal": "84160",
          "population": 4363,
          "superficie_km2": 2579.09,
          "latitude": 43.7299,
          "longitude": 5.386,
          "distance_km": 11.82
        },
        {
          "code_insee": "84103",
          "nom": "Rustrel",
          "slug": "rustrel",
          "code_postal": "84400",
          "population": 672,
          "superficie_km2": 2879.34,
          "latitude": 43.9315,
          "longitude": 5.4759,
          "distance_km": 11.84
        },
        {
          "code_insee": "84147",
          "nom": "Villelaure",
          "slug": "villelaure",
          "code_postal": "84530",
          "population": 3398,
          "superficie_km2": 1810.15,
          "latitude": 43.7066,
          "longitude": 5.4266,
          "distance_km": 13.52
        }
      ],
      "zonage_abc": "C",
      "reclassement_abc": "Non",
      "codes_postaux": [
        {
          "code_postal": "84400",
          "libelle_acheminement": "AURIBEAU"
        }
      ],
      "logement": {
        "logements_total": 63,
        "residences_principales": 35,
        "logements_vacants": 3,
        "residences_secondaires": 23,
        "maisons": 57,
        "appartements": 5,
        "proprietaires": 18,
        "locataires": 16,
        "hlm": 0,
        "construits_avant_1919": 13,
        "construits_1919_1945": 2,
        "construits_1946_1970": 6,
        "construits_1971_1990": 4,
        "construits_1991_2005": 2,
        "construits_2006_2019": 4,
        "chauffage_electrique": 8,
        "chauffage_fioul": 7,
        "chauffage_gaz_ville": 0,
        "chauffage_gaz_bouteille": 2,
        "chauffage_autre": 17,
        "menages": 35,
        "logements_avant_1990": 25
      },
      "artisans": {
        "monte_escalier": 0,
        "chauffage_pac_clim": 0,
        "isolation": 0,
        "menuiserie": 0,
        "fenetres_velux": 0,
        "couverture_toiture": 0,
        "facade_peinture": 0,
        "portes_volets": 0,
        "piscine": 0,
        "vmc_ventilation": 0,
        "assainissement": 0
      },
      "revenus": {
        "revenu_median": null,
        "part_menages_imposes": null,
        "taux_pauvrete": null
      },
      "aides_etat": {
        "zone_climatique": "H2",
        "qpv": false,
        "action_coeur_de_ville": false,
        "petites_villes_de_demain": false
      }
    },
    {
      "code_insee": "84007",
      "nom": "Avignon",
      "nom_a": null,
      "nom_de": null,
      "slug": "avignon",
      "code_postal": "84000",
      "population": 90330,
      "superficie_km2": 65.0,
      "latitude": 43.9350014,
      "longitude": 4.8410001,
      "villes_proches": [
        {
          "code_insee": "84092",
          "nom": "Le Pontet",
          "slug": "le-pontet",
          "code_postal": "84130",
          "population": 17551,
          "superficie_km2": 11.0,
          "latitude": 43.9679985,
          "longitude": 4.8660002,
          "distance_km": 4.18
        },
        {
          "code_insee": "13083",
          "nom": "Rognonas",
          "slug": "rognonas",
          "code_postal": "13870",
          "population": 4111,
          "superficie_km2": 8.0,
          "latitude": 43.9000015,
          "longitude": 4.7989998,
          "distance_km": 5.14
        },
        {
          "code_insee": "84081",
          "nom": "Morières-lès-Avignon",
          "slug": "morieres-les-avignon",
          "code_postal": "84310",
          "population": 8922,
          "superficie_km2": 10.0,
          "latitude": 43.9339981,
          "longitude": 4.9089999,
          "distance_km": 5.45
        },
        {
          "code_insee": "13027",
          "nom": "Châteaurenard",
          "slug": "chateaurenard",
          "code_postal": "13160",
          "population": 16669,
          "superficie_km2": 35.0,
          "latitude": 43.882,
          "longitude": 4.8400002,
          "distance_km": 5.89
        },
        {
          "code_insee": "30351",
          "nom": "Villeneuve-lès-Avignon",
          "slug": "villeneuve-les-avignon",
          "code_postal": "30400",
          "population": 12617,
          "superficie_km2": 18.0,
          "latitude": 43.9770012,
          "longitude": 4.7950001,
          "distance_km": 5.95
        },
        {
          "code_insee": "84141",
          "nom": "Vedène",
          "slug": "vedene",
          "code_postal": "84270",
          "population": 11457,
          "superficie_km2": 11.0,
          "latitude": 43.9710007,
          "longitude": 4.9029999,
          "distance_km": 6.38
        },
        {
          "code_insee": "30011",
          "nom": "Les Angles",
          "slug": "les-angles",
          "code_postal": "30133",
          "population": 8480,
          "superficie_km2": 17.0,
          "latitude": 43.9469986,
          "longitude": 4.7529998,
          "distance_km": 7.17
        },
        {
          "code_insee": "84036",
          "nom": "Châteauneuf-de-Gadagne",
          "slug": "chateauneuf-de-gadagne",
          "code_postal": "84470",
          "population": 3437,
          "superficie_km2": 13.0,
          "latitude": 43.9280014,
          "longitude": 4.9429998,
          "distance_km": 8.21
        },
        {
          "code_insee": "84055",
          "nom": "Jonquerettes",
          "slug": "jonquerettes",
          "code_postal": "84450",
          "population": 1595,
          "superficie_km2": 3.0,
          "latitude": 43.9490013,
          "longitude": 4.9439998,
          "distance_km": 8.39
        },
        {
          "code_insee": "84119",
          "nom": "Saint-Saturnin-lès-Avignon",
          "slug": "saint-saturnin-les-avignon",
          "code_postal": "84450",
          "population": 5119,
          "superficie_km2": 6.0,
          "latitude": 43.9620018,
          "longitude": 4.941,
          "distance_km": 8.55
        },
        {
          "code_insee": "13010",
          "nom": "Barbentane",
          "slug": "barbentane",
          "code_postal": "13570",
          "population": 4236,
          "superficie_km2": 27.0,
          "latitude": 43.8950005,
          "longitude": 4.7490001,
          "distance_km": 8.61
        },
        {
          "code_insee": "84129",
          "nom": "Sorgues",
          "slug": "sorgues",
          "code_postal": "84700",
          "population": 19117,
          "superficie_km2": 34.0,
          "latitude": 44.0149994,
          "longitude": 4.8670001,
          "distance_km": 9.14
        },
        {
          "code_insee": "30209",
          "nom": "Pujaut",
          "slug": "pujaut",
          "code_postal": "30131",
          "population": 3908,
          "superficie_km2": 24.0,
          "latitude": 43.9990006,
          "longitude": 4.7649999,
          "distance_km": 9.36
        },
        {
          "code_insee": "30312",
          "nom": "Sauveterre",
          "slug": "sauveterre",
          "code_postal": "30150",
          "population": 2029,
          "superficie_km2": 13.0,
          "latitude": 44.0169983,
          "longitude": 4.809,
          "distance_km": 9.47
        },
        {
          "code_insee": "13066",
          "nom": "Noves",
          "slug": "noves",
          "code_postal": "13550",
          "population": 5853,
          "superficie_km2": 26.0,
          "latitude": 43.8580017,
          "longitude": 4.9000001,
          "distance_km": 9.78
        },
        {
          "code_insee": "84043",
          "nom": "Entraigues-sur-la-Sorgue",
          "slug": "entraigues-sur-la-sorgue",
          "code_postal": "84320",
          "population": 8793,
          "superficie_km2": 17.0,
          "latitude": 43.9949989,
          "longitude": 4.9330001,
          "distance_km": 9.94
        },
        {
          "code_insee": "13036",
          "nom": "Eyragues",
          "slug": "eyragues",
          "code_postal": "13630",
          "population": 4355,
          "superficie_km2": 21.0,
          "latitude": 43.8429985,
          "longitude": 4.8429999,
          "distance_km": 10.23
        },
        {
          "code_insee": "84034",
          "nom": "Caumont-sur-Durance",
          "slug": "caumont-sur-durance",
          "code_postal": "84510",
          "population": 5422,
          "superficie_km2": 18.0,
          "latitude": 43.8909988,
          "longitude": 4.9559999,
          "distance_km": 10.43
        },
        {
          "code_insee": "13045",
          "nom": "Graveson",
          "slug": "graveson",
          "code_postal": "13690",
          "population": 4791,
          "superficie_km2": 24.0,
          "latitude": 43.8540001,
          "longitude": 4.7670002,
          "distance_km": 10.78
        },
        {
          "code_insee": "30315",
          "nom": "Saze",
          "slug": "saze",
          "code_postal": "30650",
          "population": 2104,
          "superficie_km2": 13.0,
          "latitude": 43.9449997,
          "longitude": 4.698,
          "distance_km": 11.5
        }
      ],
      "zonage_abc": "B1",
      "reclassement_abc": "Non",
      "codes_postaux": [
        {
          "code_postal": "84000",
          "libelle_acheminement": "AVIGNON"
        },
        {
          "code_postal": "84140",
          "libelle_acheminement": "AVIGNON"
        }
      ],
      "logement": {
        "logements_total": 55299,
        "residences_principales": 43912,
        "logements_vacants": 8202,
        "residences_secondaires": 3184,
        "maisons": 14766,
        "appartements": 39992,
        "proprietaires": 15834,
        "locataires": 27318,
        "hlm": 10638,
        "construits_avant_1919": 3990,
        "construits_1919_1945": 3234,
        "construits_1946_1970": 13793,
        "construits_1971_1990": 12330,
        "construits_1991_2005": 5499,
        "construits_2006_2019": 4568,
        "chauffage_electrique": 21130,
        "chauffage_fioul": 1841,
        "chauffage_gaz_ville": 18954,
        "chauffage_gaz_bouteille": 420,
        "chauffage_autre": 1564,
        "menages": 43912,
        "logements_avant_1990": 33347
      },
      "artisans": {
        "monte_escalier": 14,
        "chauffage_pac_clim": 191,
        "isolation": 203,
        "menuiserie": 98,
        "fenetres_velux": 98,
        "couverture_toiture": 55,
        "facade_peinture": 261,
        "portes_volets": 98,
        "piscine": 23,
        "vmc_ventilation": 89,
        "assainissement": 117
      },
      "revenus": {
        "revenu_median": 17200.0,
        "part_menages_imposes": 38.0,
        "taux_pauvrete": 31.0
      },
      "aides_etat": {
        "zone_climatique": "H2",
        "qpv": true,
        "action_coeur_de_ville": true,
        "petites_villes_de_demain": false
      }
    },
    {
      "code_insee": "84012",
      "nom": "Beaumes-de-Venise",
      "nom_a": null,
      "nom_de": null,
      "slug": "beaumes-de-venise",
      "code_postal": "84190",
      "population": 2389,
      "superficie_km2": 19.0,
      "latitude": 44.1230011,
      "longitude": 5.0289998,
      "villes_proches": [
        {
          "code_insee": "84004",
          "nom": "Aubignan",
          "slug": "aubignan",
          "code_postal": "84810",
          "population": 5894,
          "superficie_km2": 16.0,
          "latitude": 44.0979996,
          "longitude": 5.0320001,
          "distance_km": 2.79
        },
        {
          "code_insee": "84136",
          "nom": "Vacqueyras",
          "slug": "vacqueyras",
          "code_postal": "84190",
          "population": 1209,
          "superficie_km2": 9.0,
          "latitude": 44.1450005,
          "longitude": 4.9790001,
          "distance_km": 4.68
        },
        {
          "code_insee": "84067",
          "nom": "Loriol-du-Comtat",
          "slug": "loriol-du-comtat",
          "code_postal": "84870",
          "population": 2471,
          "superficie_km2": 11.0,
          "latitude": 44.0750008,
          "longitude": 5.0050001,
          "distance_km": 5.67
        },
        {
          "code_insee": "84122",
          "nom": "Sarrians",
          "slug": "sarrians",
          "code_postal": "84260",
          "population": 5932,
          "superficie_km2": 38.0,
          "latitude": 44.098999,
          "longitude": 4.9569998,
          "distance_km": 6.34
        },
        {
          "code_insee": "84030",
          "nom": "Caromb",
          "slug": "caromb",
          "code_postal": "84330",
          "population": 3458,
          "superficie_km2": 18.0,
          "latitude": 44.1119995,
          "longitude": 5.1069999,
          "distance_km": 6.35
        },
        {
          "code_insee": "84031",
          "nom": "Carpentras",
          "slug": "carpentras",
          "code_postal": "84200",
          "population": 30769,
          "superficie_km2": 38.0,
          "latitude": 44.0589981,
          "longitude": 5.0609999,
          "distance_km": 7.56
        },
        {
          "code_insee": "84104",
          "nom": "Sablet",
          "slug": "sablet",
          "code_postal": "84110",
          "population": 1391,
          "superficie_km2": 11.0,
          "latitude": 44.1949997,
          "longitude": 5.0009999,
          "distance_km": 8.31
        },
        {
          "code_insee": "84149",
          "nom": "Violès",
          "slug": "violes",
          "code_postal": "84150",
          "population": 1736,
          "superficie_km2": 15.0,
          "latitude": 44.1769981,
          "longitude": 4.9510002,
          "distance_km": 8.65
        },
        {
          "code_insee": "84056",
          "nom": "Jonquières",
          "slug": "jonquieres",
          "code_postal": "84150",
          "population": 5298,
          "superficie_km2": 24.0,
          "latitude": 44.132,
          "longitude": 4.9130001,
          "distance_km": 9.31
        },
        {
          "code_insee": "84080",
          "nom": "Monteux",
          "slug": "monteux",
          "code_postal": "84170",
          "population": 13129,
          "superficie_km2": 39.0,
          "latitude": 44.0340004,
          "longitude": 4.9850001,
          "distance_km": 10.5
        },
        {
          "code_insee": "84072",
          "nom": "Mazan",
          "slug": "mazan",
          "code_postal": "84380",
          "population": 6269,
          "superficie_km2": 38.0,
          "latitude": 44.0540009,
          "longitude": 5.1300001,
          "distance_km": 11.13
        },
        {
          "code_insee": "84069",
          "nom": "Malaucène",
          "slug": "malaucene",
          "code_postal": "84340",
          "population": 2756,
          "superficie_km2": 45.0,
          "latitude": 44.1879997,
          "longitude": 5.1500001,
          "distance_km": 12.06
        },
        {
          "code_insee": "84029",
          "nom": "Camaret-sur-Aigues",
          "slug": "camaret-sur-aigues",
          "code_postal": "84850",
          "population": 4547,
          "superficie_km2": 18.0,
          "latitude": 44.1599999,
          "longitude": 4.8839998,
          "distance_km": 12.28
        },
        {
          "code_insee": "84039",
          "nom": "Courthézon",
          "slug": "courthezon",
          "code_postal": "84350",
          "population": 6064,
          "superficie_km2": 33.0,
          "latitude": 44.0870018,
          "longitude": 4.882,
          "distance_km": 12.4
        },
        {
          "code_insee": "84016",
          "nom": "Bédarrides",
          "slug": "bedarrides",
          "code_postal": "84370",
          "population": 5410,
          "superficie_km2": 25.0,
          "latitude": 44.0480003,
          "longitude": 4.908,
          "distance_km": 12.77
        },
        {
          "code_insee": "84044",
          "nom": "Entrechaux",
          "slug": "entrechaux",
          "code_postal": "84340",
          "population": 1151,
          "superficie_km2": 15.0,
          "latitude": 44.2220001,
          "longitude": 5.1329999,
          "distance_km": 13.78
        },
        {
          "code_insee": "84137",
          "nom": "Vaison-la-Romaine",
          "slug": "vaison-la-romaine",
          "code_postal": "84110",
          "population": 5929,
          "superficie_km2": 27.0,
          "latitude": 44.2480011,
          "longitude": 5.0599999,
          "distance_km": 14.12
        },
        {
          "code_insee": "84088",
          "nom": "Pernes-les-Fontaines",
          "slug": "pernes-les-fontaines",
          "code_postal": "84210",
          "population": 10636,
          "superficie_km2": 51.0,
          "latitude": 43.9959984,
          "longitude": 5.04,
          "distance_km": 14.15
        },
        {
          "code_insee": "84028",
          "nom": "Cairanne",
          "slug": "cairanne",
          "code_postal": "84290",
          "population": 1104,
          "superficie_km2": 23.0,
          "latitude": 44.2299995,
          "longitude": 4.9330001,
          "distance_km": 14.15
        },
        {
          "code_insee": "84108",
          "nom": "Saint-Didier",
          "slug": "saint-didier",
          "code_postal": "84210",
          "population": 2126,
          "superficie_km2": 4.0,
          "latitude": 44.0089989,
          "longitude": 5.1090002,
          "distance_km": 14.2
        }
      ],
      "zonage_abc": "B1",
      "reclassement_abc": "Non",
      "codes_postaux": [
        {
          "code_postal": "84190",
          "libelle_acheminement": "BEAUMES DE VENISE"
        }
      ],
      "logement": {
        "logements_total": 1520,
        "residences_principales": 1135,
        "logements_vacants": 176,
        "residences_secondaires": 207,
        "maisons": 1246,
        "appartements": 270,
        "proprietaires": 649,
        "locataires": 441,
        "hlm": 74,
        "construits_avant_1919": 228,
        "construits_1919_1945": 85,
        "construits_1946_1970": 162,
        "construits_1971_1990": 277,
        "construits_1991_2005": 159,
        "construits_2006_2019": 223,
        "chauffage_electrique": 669,
        "chauffage_fioul": 186,
        "chauffage_gaz_ville": 100,
        "chauffage_gaz_bouteille": 25,
        "chauffage_autre": 153,
        "menages": 1135,
        "logements_avant_1990": 752
      },
      "artisans": {
        "monte_escalier": 0,
        "chauffage_pac_clim": 7,
        "isolation": 3,
        "menuiserie": 3,
        "fenetres_velux": 3,
        "couverture_toiture": 1,
        "facade_peinture": 5,
        "portes_volets": 3,
        "piscine": 0,
        "vmc_ventilation": 1,
        "assainissement": 6
      },
      "revenus": {
        "revenu_median": 21510.0,
        "part_menages_imposes": 47.0,
        "taux_pauvrete": 18.0
      },
      "aides_etat": {
        "zone_climatique": "H2",
        "qpv": false,
        "action_coeur_de_ville": false,
        "petites_villes_de_demain": false
      }
    },
    {
      "code_insee": "84013",
      "nom": "Beaumettes",
      "nom_a": null,
      "nom_de": null,
      "slug": "beaumettes",
      "code_postal": "84220",
      "population": 314,
      "superficie_km2": 266.07,
      "latitude": 43.8632,
      "longitude": 5.202,
      "villes_proches": [
        {
          "code_insee": "84114",
          "nom": "Saint-Pantaléon",
          "slug": "saint-pantaleon",
          "code_postal": "84220",
          "population": 222,
          "superficie_km2": 79.16,
          "latitude": 43.8787,
          "longitude": 5.2154,
          "distance_km": 2.03
        },
        {
          "code_insee": "84051",
          "nom": "Goult",
          "slug": "goult",
          "code_postal": "84220",
          "population": 1055,
          "superficie_km2": 2384.29,
          "latitude": 43.8675,
          "longitude": 5.2448,
          "distance_km": 3.46
        },
        {
          "code_insee": "84086",
          "nom": "Oppède",
          "slug": "oppede",
          "code_postal": "84580",
          "population": 1285,
          "superficie_km2": 2439.27,
          "latitude": 43.8331,
          "longitude": 5.1707,
          "distance_km": 4.18
        },
        {
          "code_insee": "84073",
          "nom": "Ménerbes",
          "slug": "menerbes",
          "code_postal": "84560",
          "population": 962,
          "superficie_km2": 3044.76,
          "latitude": 43.8271,
          "longitude": 5.2172,
          "distance_km": 4.2
        },
        {
          "code_insee": "84050",
          "nom": "Gordes",
          "slug": "gordes",
          "code_postal": "84220",
          "population": 1661,
          "superficie_km2": 4892.1,
          "latitude": 43.9074,
          "longitude": 5.204,
          "distance_km": 4.92
        },
        {
          "code_insee": "84071",
          "nom": "Maubec",
          "slug": "maubec",
          "code_postal": "84660",
          "population": 1915,
          "superficie_km2": 918.39,
          "latitude": 43.8384,
          "longitude": 5.1357,
          "distance_km": 5.99
        },
        {
          "code_insee": "84025",
          "nom": "Cabrières-d'Avignon",
          "slug": "cabrieres-d-avignon",
          "code_postal": "84220",
          "population": 1686,
          "superficie_km2": 1456.27,
          "latitude": 43.9034,
          "longitude": 5.1494,
          "distance_km": 6.14
        },
        {
          "code_insee": "84058",
          "nom": "Lacoste",
          "slug": "lacoste",
          "code_postal": "84480",
          "population": 468,
          "superficie_km2": 1069.39,
          "latitude": 43.8236,
          "longitude": 5.2645,
          "distance_km": 6.67
        },
        {
          "code_insee": "84057",
          "nom": "Joucas",
          "slug": "joucas",
          "code_postal": "84220",
          "population": 348,
          "superficie_km2": 843.87,
          "latitude": 43.9223,
          "longitude": 5.2522,
          "distance_km": 7.71
        },
        {
          "code_insee": "84102",
          "nom": "Roussillon",
          "slug": "roussillon",
          "code_postal": "84220",
          "population": 1333,
          "superficie_km2": 3025.68,
          "latitude": 43.8959,
          "longitude": 5.2906,
          "distance_km": 7.98
        },
        {
          "code_insee": "84099",
          "nom": "Robion",
          "slug": "robion",
          "code_postal": "84440",
          "population": 4816,
          "superficie_km2": 1784.99,
          "latitude": 43.8429,
          "longitude": 5.1066,
          "distance_km": 7.98
        },
        {
          "code_insee": "84062",
          "nom": "Lagnes",
          "slug": "lagnes",
          "code_postal": "84800",
          "population": 1742,
          "superficie_km2": 1687.49,
          "latitude": 43.9044,
          "longitude": 5.1181,
          "distance_km": 8.14
        },
        {
          "code_insee": "84139",
          "nom": "Fontaine-de-Vaucluse",
          "slug": "fontaine-de-vaucluse",
          "code_postal": "84800",
          "population": 585,
          "superficie_km2": 717.37,
          "latitude": 43.9244,
          "longitude": 5.1307,
          "distance_km": 8.89
        },
        {
          "code_insee": "84131",
          "nom": "Taillades",
          "slug": "taillades",
          "code_postal": "84300",
          "population": 2040,
          "superficie_km2": 689.6,
          "latitude": 43.8312,
          "longitude": 5.0965,
          "distance_km": 9.18
        },
        {
          "code_insee": "84020",
          "nom": "Bonnieux",
          "slug": "bonnieux",
          "code_postal": "84480",
          "population": 1198,
          "superficie_km2": 5137.48,
          "latitude": 43.8327,
          "longitude": 5.3172,
          "distance_km": 9.84
        },
        {
          "code_insee": "84124",
          "nom": "Saumane-de-Vaucluse",
          "slug": "saumane-de-vaucluse",
          "code_postal": "84800",
          "population": 886,
          "superficie_km2": 2095.58,
          "latitude": 43.9334,
          "longitude": 5.1201,
          "distance_km": 10.2
        },
        {
          "code_insee": "84038",
          "nom": "Cheval-Blanc",
          "slug": "cheval-blanc",
          "code_postal": "84460",
          "population": 4362,
          "superficie_km2": 5852.98,
          "latitude": 43.7875,
          "longitude": 5.1204,
          "distance_km": 10.66
        },
        {
          "code_insee": "84074",
          "nom": "Mérindol",
          "slug": "merindol",
          "code_postal": "84360",
          "population": 2283,
          "superficie_km2": 2710.4,
          "latitude": 43.7648,
          "longitude": 5.1884,
          "distance_km": 11.0
        },
        {
          "code_insee": "84093",
          "nom": "Puget",
          "slug": "puget",
          "code_postal": "84360",
          "population": 894,
          "superficie_km2": 1956.31,
          "latitude": 43.7699,
          "longitude": 5.2572,
          "distance_km": 11.28
        },
        {
          "code_insee": "84085",
          "nom": "Murs",
          "slug": "murs",
          "code_postal": "84220",
          "population": 376,
          "superficie_km2": 3140.05,
          "latitude": 43.965,
          "longitude": 5.2432,
          "distance_km": 11.79
        }
      ],
      "zonage_abc": "C",
      "reclassement_abc": "Non",
      "codes_postaux": [
        {
          "code_postal": "84220",
          "libelle_acheminement": "BEAUMETTES"
        }
      ],
      "logement": {
        "logements_total": 276,
        "residences_principales": 129,
        "logements_vacants": 6,
        "residences_secondaires": 141,
        "maisons": 145,
        "appartements": 131,
        "proprietaires": 86,
        "locataires": 22,
        "hlm": 0,
        "construits_avant_1919": 22,
        "construits_1919_1945": 7,
        "construits_1946_1970": 8,
        "construits_1971_1990": 36,
        "construits_1991_2005": 14,
        "construits_2006_2019": 36,
        "chauffage_electrique": 65,
        "chauffage_fioul": 28,
        "chauffage_gaz_ville": 1,
        "chauffage_gaz_bouteille": 5,
        "chauffage_autre": 29,
        "menages": 129,
        "logements_avant_1990": 73
      },
      "artisans": {
        "monte_escalier": 0,
        "chauffage_pac_clim": 2,
        "isolation": 2,
        "menuiserie": 2,
        "fenetres_velux": 2,
        "couverture_toiture": 0,
        "facade_peinture": 2,
        "portes_volets": 2,
        "piscine": 0,
        "vmc_ventilation": 0,
        "assainissement": 3
      },
      "revenus": {
        "revenu_median": 21780.0,
        "part_menages_imposes": null,
        "taux_pauvrete": null
      },
      "aides_etat": {
        "zone_climatique": "H2",
        "qpv": false,
        "action_coeur_de_ville": false,
        "petites_villes_de_demain": false
      }
    },
    {
      "code_insee": "84014",
      "nom": "Beaumont-de-Pertuis",
      "nom_a": null,
      "nom_de": null,
      "slug": "beaumont-de-pertuis",
      "code_postal": "84120",
      "population": 1115,
      "superficie_km2": 54.0,
      "latitude": 43.737999,
      "longitude": 5.6960001,
      "villes_proches": [
        {
          "code_insee": "04063",
          "nom": "Corbières-en-Provence",
          "slug": "corbieres-en-provence",
          "code_postal": "04220",
          "population": 1254,
          "superficie_km2": 19.0,
          "latitude": 43.7610016,
          "longitude": 5.7459998,
          "distance_km": 4.76
        },
        {
          "code_insee": "84076",
          "nom": "Mirabeau",
          "slug": "mirabeau",
          "code_postal": "84120",
          "population": 1419,
          "superficie_km2": 32.0,
          "latitude": 43.7050018,
          "longitude": 5.6430001,
          "distance_km": 5.62
        },
        {
          "code_insee": "84009",
          "nom": "La Bastide-des-Jourdans",
          "slug": "la-bastide-des-jourdans",
          "code_postal": "84240",
          "population": 1686,
          "superficie_km2": 28.0,
          "latitude": 43.7939987,
          "longitude": 5.6469998,
          "distance_km": 7.37
        },
        {
          "code_insee": "84052",
          "nom": "Grambois",
          "slug": "grambois",
          "code_postal": "84240",
          "population": 1214,
          "superficie_km2": 31.0,
          "latitude": 43.7610016,
          "longitude": 5.6040001,
          "distance_km": 7.82
        },
        {
          "code_insee": "04152",
          "nom": "Pierrevert",
          "slug": "pierrevert",
          "code_postal": "04860",
          "population": 3941,
          "superficie_km2": 28.0,
          "latitude": 43.8059998,
          "longitude": 5.7230001,
          "distance_km": 7.87
        },
        {
          "code_insee": "04197",
          "nom": "Sainte-Tulle",
          "slug": "sainte-tulle",
          "code_postal": "04220",
          "population": 3489,
          "superficie_km2": 17.0,
          "latitude": 43.783001,
          "longitude": 5.7729998,
          "distance_km": 7.95
        },
        {
          "code_insee": "83150",
          "nom": "Vinon-sur-Verdon",
          "slug": "vinon-sur-verdon",
          "code_postal": "83560",
          "population": 4333,
          "superficie_km2": 36.0,
          "latitude": 43.7220001,
          "longitude": 5.8080001,
          "distance_km": 9.17
        },
        {
          "code_insee": "84133",
          "nom": "La Tour-d'Aigues",
          "slug": "la-tour-d-aigues",
          "code_postal": "84240",
          "population": 4346,
          "superficie_km2": 41.0,
          "latitude": 43.7220001,
          "longitude": 5.5669999,
          "distance_km": 10.52
        },
        {
          "code_insee": "13048",
          "nom": "Jouques",
          "slug": "jouques",
          "code_postal": "13490",
          "population": 4404,
          "superficie_km2": 80.0,
          "latitude": 43.6329994,
          "longitude": 5.6570001,
          "distance_km": 12.09
        },
        {
          "code_insee": "04112",
          "nom": "Manosque",
          "slug": "manosque",
          "code_postal": "04100",
          "population": 22926,
          "superficie_km2": 57.0,
          "latitude": 43.8349991,
          "longitude": 5.7909999,
          "distance_km": 13.21
        },
        {
          "code_insee": "04094",
          "nom": "Gréoux-les-Bains",
          "slug": "greoux-les-bains",
          "code_postal": "04800",
          "population": 2939,
          "superficie_km2": 70.0,
          "latitude": 43.7680016,
          "longitude": 5.8649998,
          "distance_km": 13.98
        },
        {
          "code_insee": "83066",
          "nom": "Ginasservis",
          "slug": "ginasservis",
          "code_postal": "83560",
          "population": 1983,
          "superficie_km2": 38.0,
          "latitude": 43.6590004,
          "longitude": 5.8379998,
          "distance_km": 14.4
        },
        {
          "code_insee": "84084",
          "nom": "La Motte-d'Aigues",
          "slug": "la-motte-d-aigues",
          "code_postal": "84240",
          "population": 1399,
          "superficie_km2": 15.0,
          "latitude": 43.7840004,
          "longitude": 5.5219998,
          "distance_km": 14.88
        },
        {
          "code_insee": "04045",
          "nom": "Céreste-en-Luberon",
          "slug": "cereste-en-luberon",
          "code_postal": "04280",
          "population": 1194,
          "superficie_km2": 33.0,
          "latitude": 43.8499985,
          "longitude": 5.5900002,
          "distance_km": 15.08
        },
        {
          "code_insee": "83104",
          "nom": "Rians",
          "slug": "rians",
          "code_postal": "83560",
          "population": 4272,
          "superficie_km2": 97.0,
          "latitude": 43.605999,
          "longitude": 5.7410002,
          "distance_km": 15.12
        },
        {
          "code_insee": "84089",
          "nom": "Pertuis",
          "slug": "pertuis",
          "code_postal": "84120",
          "population": 20012,
          "superficie_km2": 59.0,
          "latitude": 43.6870003,
          "longitude": 5.52,
          "distance_km": 15.24
        },
        {
          "code_insee": "13074",
          "nom": "Peyrolles-en-Provence",
          "slug": "peyrolles-en-provence",
          "code_postal": "13860",
          "population": 5223,
          "superficie_km2": 35.0,
          "latitude": 43.6279984,
          "longitude": 5.5770001,
          "distance_km": 15.53
        },
        {
          "code_insee": "04160",
          "nom": "Reillanne",
          "slug": "reillanne",
          "code_postal": "04110",
          "population": 1713,
          "superficie_km2": 39.0,
          "latitude": 43.8860016,
          "longitude": 5.6589999,
          "distance_km": 16.72
        },
        {
          "code_insee": "84002",
          "nom": "Ansouis",
          "slug": "ansouis",
          "code_postal": "84240",
          "population": 1061,
          "superficie_km2": 18.0,
          "latitude": 43.7360001,
          "longitude": 5.4710002,
          "distance_km": 18.08
        },
        {
          "code_insee": "83113",
          "nom": "Saint-Julien",
          "slug": "saint-julien",
          "code_postal": "83560",
          "population": 2394,
          "superficie_km2": 76.0,
          "latitude": 43.7000008,
          "longitude": 5.915,
          "distance_km": 18.1
        }
      ],
      "zonage_abc": "C",
      "reclassement_abc": "Non",
      "codes_postaux": [
        {
          "code_postal": "84120",
          "libelle_acheminement": "BEAUMONT DE PERTUIS"
        }
      ],
      "logement": {
        "logements_total": 707,
        "residences_principales": 533,
        "logements_vacants": 50,
        "residences_secondaires": 123,
        "maisons": 587,
        "appartements": 105,
        "proprietaires": 345,
        "locataires": 156,
        "hlm": 15,
        "construits_avant_1919": 151,
        "construits_1919_1945": 39,
        "construits_1946_1970": 110,
        "construits_1971_1990": 118,
        "construits_1991_2005": 74,
        "construits_2006_2019": 38,
        "chauffage_electrique": 257,
        "chauffage_fioul": 91,
        "chauffage_gaz_ville": 1,
        "chauffage_gaz_bouteille": 15,
        "chauffage_autre": 166,
        "menages": 533,
        "logements_avant_1990": 418
      },
      "artisans": {
        "monte_escalier": 0,
        "chauffage_pac_clim": 2,
        "isolation": 1,
        "menuiserie": 3,
        "fenetres_velux": 3,
        "couverture_toiture": 0,
        "facade_peinture": 1,
        "portes_volets": 3,
        "piscine": 0,
        "vmc_ventilation": 1,
        "assainissement": 1
      },
      "revenus": {
        "revenu_median": 22660.0,
        "part_menages_imposes": null,
        "taux_pauvrete": null
      },
      "aides_etat": {
        "zone_climatique": "H2",
        "qpv": false,
        "action_coeur_de_ville": false,
        "petites_villes_de_demain": false
      }
    },
    {
      "code_insee": "84015",
      "nom": "Beaumont-du-Ventoux",
      "nom_a": null,
      "nom_de": null,
      "slug": "beaumont-du-ventoux",
      "code_postal": "84340",
      "population": 308,
      "superficie_km2": 2812.6,
      "latitude": 44.182,
      "longitude": 5.2197,
      "villes_proches": [
        {
          "code_insee": "84110",
          "nom": "Saint-Léger-du-Ventoux",
          "slug": "saint-leger-du-ventoux",
          "code_postal": "84390",
          "population": 25,
          "superficie_km2": 1950.82,
          "latitude": 44.2027,
          "longitude": 5.2749,
          "distance_km": 4.97
        },
        {
          "code_insee": "84069",
          "nom": "Malaucène",
          "slug": "malaucene",
          "code_postal": "84340",
          "population": 2758,
          "superficie_km2": 4534.23,
          "latitude": 44.1804,
          "longitude": 5.1559,
          "distance_km": 5.09
        },
        {
          "code_insee": "84017",
          "nom": "Bédoin",
          "slug": "bedoin",
          "code_postal": "84410",
          "population": 3106,
          "superficie_km2": 9061.3,
          "latitude": 44.1337,
          "longitude": 5.2342,
          "distance_km": 5.49
        },
        {
          "code_insee": "26188",
          "nom": "Mollans-sur-Ouvèze",
          "slug": "mollans-sur-ouveze",
          "code_postal": "26170",
          "population": 1043,
          "superficie_km2": 2042.77,
          "latitude": 44.2371,
          "longitude": 5.1949,
          "distance_km": 6.44
        },
        {
          "code_insee": "26236",
          "nom": "Pierrelongue",
          "slug": "pierrelongue",
          "code_postal": "26170",
          "population": 231,
          "superficie_km2": 533.89,
          "latitude": 44.2493,
          "longitude": 5.2145,
          "distance_km": 7.49
        },
        {
          "code_insee": "26229",
          "nom": "La Penne-sur-l'Ouvèze",
          "slug": "la-penne-sur-l-ouveze",
          "code_postal": "26170",
          "population": 82,
          "superficie_km2": 748.13,
          "latitude": 44.2529,
          "longitude": 5.2334,
          "distance_km": 7.96
        },
        {
          "code_insee": "84044",
          "nom": "Entrechaux",
          "slug": "entrechaux",
          "code_postal": "84340",
          "population": 1177,
          "superficie_km2": 1490.58,
          "latitude": 44.2238,
          "longitude": 5.1364,
          "distance_km": 8.11
        },
        {
          "code_insee": "26127",
          "nom": "Eygaliers",
          "slug": "eygaliers",
          "code_postal": "26170",
          "population": 139,
          "superficie_km2": 820.85,
          "latitude": 44.2383,
          "longitude": 5.2877,
          "distance_km": 8.28
        },
        {
          "code_insee": "84041",
          "nom": "Crillon-le-Brave",
          "slug": "crillon-le-brave",
          "code_postal": "84410",
          "population": 488,
          "superficie_km2": 765.67,
          "latitude": 44.1187,
          "longitude": 5.152,
          "distance_km": 8.87
        },
        {
          "code_insee": "84021",
          "nom": "Brantes",
          "slug": "brantes",
          "code_postal": "84390",
          "population": 86,
          "superficie_km2": 2824.18,
          "latitude": 44.1861,
          "longitude": 5.3315,
          "distance_km": 8.93
        },
        {
          "code_insee": "84008",
          "nom": "Le Barroux",
          "slug": "le-barroux",
          "code_postal": "84330",
          "population": 662,
          "superficie_km2": 1604.61,
          "latitude": 44.1591,
          "longitude": 5.1046,
          "distance_km": 9.53
        },
        {
          "code_insee": "84046",
          "nom": "Flassan",
          "slug": "flassan",
          "code_postal": "84410",
          "population": 453,
          "superficie_km2": 2086.48,
          "latitude": 44.0995,
          "longitude": 5.2613,
          "distance_km": 9.76
        },
        {
          "code_insee": "84045",
          "nom": "Faucon",
          "slug": "faucon",
          "code_postal": "84110",
          "population": 454,
          "superficie_km2": 874.47,
          "latitude": 44.2524,
          "longitude": 5.1404,
          "distance_km": 10.06
        },
        {
          "code_insee": "26256",
          "nom": "Propiac",
          "slug": "propiac",
          "code_postal": "26170",
          "population": 131,
          "superficie_km2": 1126.1,
          "latitude": 44.2749,
          "longitude": 5.2113,
          "distance_km": 10.35
        },
        {
          "code_insee": "84077",
          "nom": "Modène",
          "slug": "modene",
          "code_postal": "84330",
          "population": 458,
          "superficie_km2": 476.61,
          "latitude": 44.1092,
          "longitude": 5.1285,
          "distance_km": 10.88
        },
        {
          "code_insee": "26180",
          "nom": "Mérindol-les-Oliviers",
          "slug": "merindol-les-oliviers",
          "code_postal": "26170",
          "population": 208,
          "superficie_km2": 958.33,
          "latitude": 44.2723,
          "longitude": 5.166,
          "distance_km": 10.91
        },
        {
          "code_insee": "84115",
          "nom": "Saint-Pierre-de-Vassols",
          "slug": "saint-pierre-de-vassols",
          "code_postal": "84330",
          "population": 499,
          "superficie_km2": 499.89,
          "latitude": 44.0983,
          "longitude": 5.1463,
          "distance_km": 11.0
        },
        {
          "code_insee": "26063",
          "nom": "Buis-les-Baronnies",
          "slug": "buis-les-baronnies",
          "code_postal": "26170",
          "population": 2218,
          "superficie_km2": 3411.28,
          "latitude": 44.2714,
          "longitude": 5.2811,
          "distance_km": 11.08
        },
        {
          "code_insee": "84082",
          "nom": "Mormoiron",
          "slug": "mormoiron",
          "code_postal": "84570",
          "population": 1884,
          "superficie_km2": 2522.77,
          "latitude": 44.0686,
          "longitude": 5.1918,
          "distance_km": 12.8
        },
        {
          "code_insee": "84148",
          "nom": "Villes-sur-Auzon",
          "slug": "villes-sur-auzon",
          "code_postal": "84570",
          "population": 1306,
          "superficie_km2": 2719.43,
          "latitude": 44.0658,
          "longitude": 5.2572,
          "distance_km": 13.26
        }
      ],
      "zonage_abc": "C",
      "reclassement_abc": "Non",
      "codes_postaux": [
        {
          "code_postal": "84340",
          "libelle_acheminement": "BEAUMONT DU VENTOUX"
        }
      ],
      "logement": {
        "logements_total": 368,
        "residences_principales": 149,
        "logements_vacants": 18,
        "residences_secondaires": 200,
        "maisons": 346,
        "appartements": 22,
        "proprietaires": 109,
        "locataires": 32,
        "hlm": 0,
        "construits_avant_1919": 44,
        "construits_1919_1945": 7,
        "construits_1946_1970": 22,
        "construits_1971_1990": 35,
        "construits_1991_2005": 24,
        "construits_2006_2019": 16,
        "chauffage_electrique": 46,
        "chauffage_fioul": 43,
        "chauffage_gaz_ville": 1,
        "chauffage_gaz_bouteille": 1,
        "chauffage_autre": 57,
        "menages": 149,
        "logements_avant_1990": 108
      },
      "artisans": {
        "monte_escalier": 0,
        "chauffage_pac_clim": 0,
        "isolation": 0,
        "menuiserie": 0,
        "fenetres_velux": 0,
        "couverture_toiture": 0,
        "facade_peinture": 0,
        "portes_volets": 0,
        "piscine": 0,
        "vmc_ventilation": 0,
        "assainissement": 1
      },
      "revenus": {
        "revenu_median": 19010.0,
        "part_menages_imposes": null,
        "taux_pauvrete": null
      },
      "aides_etat": {
        "zone_climatique": "H2",
        "qpv": false,
        "action_coeur_de_ville": false,
        "petites_villes_de_demain": false
      }
    },
    {
      "code_insee": "84018",
      "nom": "Blauvac",
      "nom_a": null,
      "nom_de": null,
      "slug": "blauvac",
      "code_postal": "84570",
      "population": 573,
      "superficie_km2": 2106.14,
      "latitude": 44.0356,
      "longitude": 5.2418,
      "villes_proches": [
        {
          "code_insee": "84075",
          "nom": "Méthamis",
          "slug": "methamis",
          "code_postal": "84570",
          "population": 450,
          "superficie_km2": 3706.51,
          "latitude": 44.0153,
          "longitude": 5.2483,
          "distance_km": 2.32
        },
        {
          "code_insee": "84148",
          "nom": "Villes-sur-Auzon",
          "slug": "villes-sur-auzon",
          "code_postal": "84570",
          "population": 1306,
          "superficie_km2": 2719.43,
          "latitude": 44.0658,
          "longitude": 5.2572,
          "distance_km": 3.58
        },
        {
          "code_insee": "84082",
          "nom": "Mormoiron",
          "slug": "mormoiron",
          "code_postal": "84570",
          "population": 1884,
          "superficie_km2": 2522.77,
          "latitude": 44.0686,
          "longitude": 5.1918,
          "distance_km": 5.43
        },
        {
          "code_insee": "84070",
          "nom": "Malemort-du-Comtat",
          "slug": "malemort-du-comtat",
          "code_postal": "84570",
          "population": 1969,
          "superficie_km2": 1198.13,
          "latitude": 44.0171,
          "longitude": 5.1646,
          "distance_km": 6.51
        },
        {
          "code_insee": "84046",
          "nom": "Flassan",
          "slug": "flassan",
          "code_postal": "84410",
          "population": 453,
          "superficie_km2": 2086.48,
          "latitude": 44.0995,
          "longitude": 5.2613,
          "distance_km": 7.27
        },
        {
          "code_insee": "84085",
          "nom": "Murs",
          "slug": "murs",
          "code_postal": "84220",
          "population": 376,
          "superficie_km2": 3140.05,
          "latitude": 43.965,
          "longitude": 5.2432,
          "distance_km": 7.85
        },
        {
          "code_insee": "84143",
          "nom": "Venasque",
          "slug": "venasque",
          "code_postal": "84210",
          "population": 1082,
          "superficie_km2": 3507.05,
          "latitude": 43.9866,
          "longitude": 5.1684,
          "distance_km": 8.01
        },
        {
          "code_insee": "84079",
          "nom": "Monieux",
          "slug": "monieux",
          "code_postal": "84390",
          "population": 263,
          "superficie_km2": 4755.07,
          "latitude": 44.052,
          "longitude": 5.345,
          "distance_km": 8.45
        },
        {
          "code_insee": "84066",
          "nom": "Lioux",
          "slug": "lioux",
          "code_postal": "84220",
          "population": 286,
          "superficie_km2": 3884.93,
          "latitude": 43.9782,
          "longitude": 5.3122,
          "distance_km": 8.51
        },
        {
          "code_insee": "84072",
          "nom": "Mazan",
          "slug": "mazan",
          "code_postal": "84380",
          "population": 6285,
          "superficie_km2": 3796.11,
          "latitude": 44.0528,
          "longitude": 5.1333,
          "distance_km": 8.88
        },
        {
          "code_insee": "84115",
          "nom": "Saint-Pierre-de-Vassols",
          "slug": "saint-pierre-de-vassols",
          "code_postal": "84330",
          "population": 499,
          "superficie_km2": 499.89,
          "latitude": 44.0983,
          "longitude": 5.1463,
          "distance_km": 10.34
        },
        {
          "code_insee": "84011",
          "nom": "Le Beaucet",
          "slug": "le-beaucet",
          "code_postal": "84210",
          "population": 397,
          "superficie_km2": 903.94,
          "latitude": 43.9761,
          "longitude": 5.1341,
          "distance_km": 10.86
        },
        {
          "code_insee": "84017",
          "nom": "Bédoin",
          "slug": "bedoin",
          "code_postal": "84410",
          "population": 3106,
          "superficie_km2": 9061.3,
          "latitude": 44.1337,
          "longitude": 5.2342,
          "distance_km": 10.93
        },
        {
          "code_insee": "84108",
          "nom": "Saint-Didier",
          "slug": "saint-didier",
          "code_postal": "84210",
          "population": 2208,
          "superficie_km2": 365.99,
          "latitude": 44.0108,
          "longitude": 5.1093,
          "distance_km": 10.95
        },
        {
          "code_insee": "84041",
          "nom": "Crillon-le-Brave",
          "slug": "crillon-le-brave",
          "code_postal": "84410",
          "population": 488,
          "superficie_km2": 765.67,
          "latitude": 44.1187,
          "longitude": 5.152,
          "distance_km": 11.7
        },
        {
          "code_insee": "84077",
          "nom": "Modène",
          "slug": "modene",
          "code_postal": "84330",
          "population": 458,
          "superficie_km2": 476.61,
          "latitude": 44.1092,
          "longitude": 5.1285,
          "distance_km": 12.2
        },
        {
          "code_insee": "84118",
          "nom": "Saint-Saturnin-lès-Apt",
          "slug": "saint-saturnin-les-apt",
          "code_postal": "84490",
          "population": 3004,
          "superficie_km2": 7682.46,
          "latitude": 43.961,
          "longitude": 5.3566,
          "distance_km": 12.37
        },
        {
          "code_insee": "84057",
          "nom": "Joucas",
          "slug": "joucas",
          "code_postal": "84220",
          "population": 348,
          "superficie_km2": 843.87,
          "latitude": 43.9223,
          "longitude": 5.2522,
          "distance_km": 12.63
        },
        {
          "code_insee": "84050",
          "nom": "Gordes",
          "slug": "gordes",
          "code_postal": "84220",
          "population": 1661,
          "superficie_km2": 4892.1,
          "latitude": 43.9074,
          "longitude": 5.204,
          "distance_km": 14.57
        },
        {
          "code_insee": "84102",
          "nom": "Roussillon",
          "slug": "roussillon",
          "code_postal": "84220",
          "population": 1333,
          "superficie_km2": 3025.68,
          "latitude": 43.8959,
          "longitude": 5.2906,
          "distance_km": 16.02
        }
      ],
      "zonage_abc": "C",
      "reclassement_abc": "Non",
      "codes_postaux": [
        {
          "code_postal": "84570",
          "libelle_acheminement": "BLAUVAC"
        }
      ],
      "logement": {
        "logements_total": 388,
        "residences_principales": 239,
        "logements_vacants": 27,
        "residences_secondaires": 121,
        "maisons": 342,
        "appartements": 44,
        "proprietaires": 160,
        "locataires": 64,
        "hlm": 0,
        "construits_avant_1919": 34,
        "construits_1919_1945": 13,
        "construits_1946_1970": 21,
        "construits_1971_1990": 38,
        "construits_1991_2005": 30,
        "construits_2006_2019": 78,
        "chauffage_electrique": 122,
        "chauffage_fioul": 30,
        "chauffage_gaz_ville": 0,
        "chauffage_gaz_bouteille": 0,
        "chauffage_autre": 86,
        "menages": 239,
        "logements_avant_1990": 106
      },
      "artisans": {
        "monte_escalier": 0,
        "chauffage_pac_clim": 1,
        "isolation": 0,
        "menuiserie": 1,
        "fenetres_velux": 1,
        "couverture_toiture": 0,
        "facade_peinture": 1,
        "portes_volets": 1,
        "piscine": 0,
        "vmc_ventilation": 0,
        "assainissement": 1
      },
      "revenus": {
        "revenu_median": 21520.0,
        "part_menages_imposes": null,
        "taux_pauvrete": null
      },
      "aides_etat": {
        "zone_climatique": "H2",
        "qpv": false,
        "action_coeur_de_ville": false,
        "petites_villes_de_demain": false
      }
    },
    {
      "code_insee": "84019",
      "nom": "Bollène",
      "nom_a": null,
      "nom_de": null,
      "slug": "bollene",
      "code_postal": "84500",
      "population": 13605,
      "superficie_km2": 54.0,
      "latitude": 44.2879982,
      "longitude": 4.7519999,
      "villes_proches": [
        {
          "code_insee": "84078",
          "nom": "Mondragon",
          "slug": "mondragon",
          "code_postal": "84430",
          "population": 3679,
          "superficie_km2": 41.0,
          "latitude": 44.243,
          "longitude": 4.7249999,
          "distance_km": 5.45
        },