{
  "departement": {
    "code": "90",
    "nom": "Territoire de Belfort",
    "slug": "territoire-de-belfort",
    "population_totale": 139628
  },
  "region": {
    "id": 3,
    "code": "02",
    "nom": "Bourgogne-Franche-Comté",
    "slug": "bourgogne-franche-comte"
  },
  "voisins": [
    {
      "dep_code": "21",
      "dep_nom": "Côte-d'Or",
      "dep_slug": "cote-d-or"
    },
    {
      "dep_code": "25",
      "dep_nom": "Doubs",
      "dep_slug": "doubs"
    },
    {
      "dep_code": "39",
      "dep_nom": "Jura",
      "dep_slug": "jura"
    },
    {
      "dep_code": "58",
      "dep_nom": "Nièvre",
      "dep_slug": "nievre"
    }
  ],
  "communes_count": 101,
  "communes": [
    {
      "code_insee": "90001",
      "nom": "Andelnans",
      "nom_a": null,
      "nom_de": null,
      "slug": "andelnans",
      "code_postal": "90400",
      "population": 1153,
      "superficie_km2": 4.0,
      "latitude": 47.6030006,
      "longitude": 6.8660002,
      "villes_proches": [
        {
          "code_insee": "90032",
          "nom": "Danjoutin",
          "slug": "danjoutin",
          "code_postal": "90400",
          "population": 3541,
          "superficie_km2": 6.0,
          "latitude": 47.618,
          "longitude": 6.8660002,
          "distance_km": 1.67
        },
        {
          "code_insee": "90008",
          "nom": "Bavilliers",
          "slug": "bavilliers",
          "code_postal": "90800",
          "population": 4595,
          "superficie_km2": 5.0,
          "latitude": 47.6199989,
          "longitude": 6.8309999,
          "distance_km": 3.23
        },
        {
          "code_insee": "90068",
          "nom": "Meroux-Moval",
          "slug": "meroux-moval",
          "code_postal": "90400",
          "population": 1405,
          "superficie_km2": 9.0,
          "latitude": 47.5919991,
          "longitude": 6.9099998,
          "distance_km": 3.52
        },
        {
          "code_insee": "90097",
          "nom": "Trévenans",
          "slug": "trevenans",
          "code_postal": "90400",
          "population": 1286,
          "superficie_km2": 6.0,
          "latitude": 47.5670013,
          "longitude": 6.869,
          "distance_km": 4.01
        },
        {
          "code_insee": "90104",
          "nom": "Vézelois",
          "slug": "vezelois",
          "code_postal": "90400",
          "population": 1003,
          "superficie_km2": 9.0,
          "latitude": 47.6090012,
          "longitude": 6.9190001,
          "distance_km": 4.03
        },
        {
          "code_insee": "90076",
          "nom": "Pérouse",
          "slug": "perouse",
          "code_postal": "90160",
          "population": 1199,
          "superficie_km2": 5.0,
          "latitude": 47.6360016,
          "longitude": 6.8940001,
          "distance_km": 4.23
        },
        {
          "code_insee": "90010",
          "nom": "Belfort",
          "slug": "belfort",
          "code_postal": "90000",
          "population": 45155,
          "superficie_km2": 17.0,
          "latitude": 47.6469994,
          "longitude": 6.8449998,
          "distance_km": 5.14
        },
        {
          "code_insee": "90017",
          "nom": "Bourogne",
          "slug": "bourogne",
          "code_postal": "90140",
          "population": 1792,
          "superficie_km2": 14.0,
          "latitude": 47.5639992,
          "longitude": 6.9060001,
          "distance_km": 5.27
        },
        {
          "code_insee": "90022",
          "nom": "Châtenois-les-Forges",
          "slug": "chatenois-les-forges",
          "code_postal": "90700",
          "population": 2616,
          "superficie_km2": 9.0,
          "latitude": 47.5589981,
          "longitude": 6.8340001,
          "distance_km": 5.45
        },
        {
          "code_insee": "90026",
          "nom": "Chèvremont",
          "slug": "chevremont",
          "code_postal": "90340",
          "population": 1569,
          "superficie_km2": 9.0,
          "latitude": 47.6279984,
          "longitude": 6.9299998,
          "distance_km": 5.54
        },
        {
          "code_insee": "90039",
          "nom": "Essert",
          "slug": "essert",
          "code_postal": "90850",
          "population": 3348,
          "superficie_km2": 7.0,
          "latitude": 47.637001,
          "longitude": 6.8119998,
          "distance_km": 5.54
        },
        {
          "code_insee": "90029",
          "nom": "Cravanche",
          "slug": "cravanche",
          "code_postal": "90300",
          "population": 1928,
          "superficie_km2": 1.0,
          "latitude": 47.6520004,
          "longitude": 6.8239999,
          "distance_km": 6.29
        },
        {
          "code_insee": "90075",
          "nom": "Offemont",
          "slug": "offemont",
          "code_postal": "90300",
          "population": 4109,
          "superficie_km2": 6.0,
          "latitude": 47.6629982,
          "longitude": 6.875,
          "distance_km": 6.71
        },
        {
          "code_insee": "25428",
          "nom": "Nommay",
          "slug": "nommay",
          "code_postal": "25600",
          "population": 1606,
          "superficie_km2": 3.0,
          "latitude": 47.5400009,
          "longitude": 6.8470001,
          "distance_km": 7.15
        },
        {
          "code_insee": "90012",
          "nom": "Bessoncourt",
          "slug": "bessoncourt",
          "code_postal": "90160",
          "population": 1297,
          "superficie_km2": 8.0,
          "latitude": 47.6450005,
          "longitude": 6.9429998,
          "distance_km": 7.42
        },
        {
          "code_insee": "90099",
          "nom": "Valdoie",
          "slug": "valdoie",
          "code_postal": "90300",
          "population": 5236,
          "superficie_km2": 5.0,
          "latitude": 47.6710014,
          "longitude": 6.849,
          "distance_km": 7.67
        },
        {
          "code_insee": "70117",
          "nom": "Châlonvillars",
          "slug": "chalonvillars",
          "code_postal": "70400",
          "population": 1242,
          "superficie_km2": 8.0,
          "latitude": 47.6380005,
          "longitude": 6.777,
          "distance_km": 7.72
        },
        {
          "code_insee": "25284",
          "nom": "Grand-Charmont",
          "slug": "grand-charmont",
          "code_postal": "25200",
          "population": 5857,
          "superficie_km2": 4.0,
          "latitude": 47.5340004,
          "longitude": 6.823,
          "distance_km": 8.32
        },
        {
          "code_insee": "70285",
          "nom": "Héricourt",
          "slug": "hericourt",
          "code_postal": "70400",
          "population": 10478,
          "superficie_km2": 18.0,
          "latitude": 47.5699997,
          "longitude": 6.7649999,
          "distance_km": 8.42
        },
        {
          "code_insee": "25057",
          "nom": "Bethoncourt",
          "slug": "bethoncourt",
          "code_postal": "25200",
          "population": 5308,
          "superficie_km2": 7.0,
          "latitude": 47.5410004,
          "longitude": 6.8000002,
          "distance_km": 8.49
        }
      ],
      "zonage_abc": "B2",
      "reclassement_abc": "Non",
      "codes_postaux": [
        {
          "code_postal": "90400",
          "libelle_acheminement": "ANDELNANS"
        }
      ],
      "logement": {
        "logements_total": 530,
        "residences_principales": 501,
        "logements_vacants": 25,
        "residences_secondaires": 3,
        "maisons": 472,
        "appartements": 57,
        "proprietaires": 437,
        "locataires": 57,
        "hlm": 0,
        "construits_avant_1919": 23,
        "construits_1919_1945": 20,
        "construits_1946_1970": 90,
        "construits_1971_1990": 258,
        "construits_1991_2005": 35,
        "construits_2006_2019": 70,
        "chauffage_electrique": 84,
        "chauffage_fioul": 58,
        "chauffage_gaz_ville": 291,
        "chauffage_gaz_bouteille": 1,
        "chauffage_autre": 65,
        "menages": 501,
        "logements_avant_1990": 391
      },
      "artisans": {
        "monte_escalier": 0,
        "chauffage_pac_clim": 2,
        "isolation": 1,
        "menuiserie": 2,
        "fenetres_velux": 2,
        "couverture_toiture": 0,
        "facade_peinture": 3,
        "portes_volets": 2,
        "piscine": 0,
        "vmc_ventilation": 1,
        "assainissement": 1
      },
      "revenus": {
        "revenu_median": 24370.0,
        "part_menages_imposes": null,
        "taux_pauvrete": null
      },
      "aides_etat": {
        "zone_climatique": "H1",
        "qpv": false,
        "action_coeur_de_ville": false,
        "petites_villes_de_demain": false
      }
    },
    {
      "code_insee": "90002",
      "nom": "Angeot",
      "nom_a": null,
      "nom_de": null,
      "slug": "angeot",
      "code_postal": "90150",
      "population": 354,
      "superficie_km2": 663.14,
      "latitude": 47.6958,
      "longitude": 7.0032,
      "villes_proches": [
        {
          "code_insee": "90062",
          "nom": "Larivière",
          "slug": "lariviere",
          "code_postal": "90150",
          "population": 282,
          "superficie_km2": 479.03,
          "latitude": 47.6782,
          "longitude": 6.9962,
          "distance_km": 2.03
        },
        {
          "code_insee": "90044",
          "nom": "Felon",
          "slug": "felon",
          "code_postal": "90110",
          "population": 222,
          "superficie_km2": 410.22,
          "latitude": 47.7061,
          "longitude": 6.979,
          "distance_km": 2.14
        },
        {
          "code_insee": "90058",
          "nom": "Lachapelle-sous-Rougemont",
          "slug": "lachapelle-sous-rougemont",
          "code_postal": "90360",
          "population": 539,
          "superficie_km2": 498.14,
          "latitude": 47.7152,
          "longitude": 7.0149,
          "distance_km": 2.33
        },
        {
          "code_insee": "90060",
          "nom": "Lagrange",
          "slug": "lagrange",
          "code_postal": "90150",
          "population": 144,
          "superficie_km2": 91.74,
          "latitude": 47.6844,
          "longitude": 6.9767,
          "distance_km": 2.35
        },
        {
          "code_insee": "90100",
          "nom": "Vauthiermont",
          "slug": "vauthiermont",
          "code_postal": "90150",
          "population": 232,
          "superficie_km2": 479.59,
          "latitude": 47.6801,
          "longitude": 7.0258,
          "distance_km": 2.43
        },
        {
          "code_insee": "90091",
          "nom": "Saint-Germain-le-Châtelet",
          "slug": "saint-germain-le-chatelet",
          "code_postal": "90110",
          "population": 654,
          "superficie_km2": 339.44,
          "latitude": 47.7035,
          "longitude": 6.9637,
          "distance_km": 3.08
        },
        {
          "code_insee": "90013",
          "nom": "Bethonvilliers",
          "slug": "bethonvilliers",
          "code_postal": "90150",
          "population": 232,
          "superficie_km2": 193.51,
          "latitude": 47.6805,
          "longitude": 6.9672,
          "distance_km": 3.19
        },
        {
          "code_insee": "90078",
          "nom": "Petitefontaine",
          "slug": "petitefontaine",
          "code_postal": "90360",
          "population": 193,
          "superficie_km2": 315.67,
          "latitude": 47.7245,
          "longitude": 7.0071,
          "distance_km": 3.2
        },
        {
          "code_insee": "68085",
          "nom": "Eteimbes",
          "slug": "eteimbes",
          "code_postal": "68210",
          "population": 405,
          "superficie_km2": 498.76,
          "latitude": 47.7078,
          "longitude": 7.0425,
          "distance_km": 3.23
        },
        {
          "code_insee": "90086",
          "nom": "Romagny-sous-Rougemont",
          "slug": "romagny-sous-rougemont",
          "code_postal": "90110",
          "population": 213,
          "superficie_km2": 252.29,
          "latitude": 47.7191,
          "longitude": 6.9658,
          "distance_km": 3.81
        },
        {
          "code_insee": "90067",
          "nom": "Menoncourt",
          "slug": "menoncourt",
          "code_postal": "90150",
          "population": 391,
          "superficie_km2": 470.85,
          "latitude": 47.6804,
          "longitude": 6.954,
          "distance_km": 4.06
        },
        {
          "code_insee": "90066",
          "nom": "Leval",
          "slug": "leval",
          "code_postal": "90110",
          "population": 250,
          "superficie_km2": 610.75,
          "latitude": 47.7324,
          "longitude": 6.9945,
          "distance_km": 4.12
        },
        {
          "code_insee": "68024",
          "nom": "Bellemagny",
          "slug": "bellemagny",
          "code_postal": "68210",
          "population": 147,
          "superficie_km2": 212.77,
          "latitude": 47.6915,
          "longitude": 7.058,
          "distance_km": 4.13
        },
        {
          "code_insee": "90084",
          "nom": "Reppe",
          "slug": "reppe",
          "code_postal": "90150",
          "population": 322,
          "superficie_km2": 389.4,
          "latitude": 47.6623,
          "longitude": 7.0279,
          "distance_km": 4.16
        },
        {
          "code_insee": "68293",
          "nom": "Saint-Cosme",
          "slug": "saint-cosme",
          "code_postal": "68210",
          "population": 75,
          "superficie_km2": 280.1,
          "latitude": 47.6805,
          "longitude": 7.0549,
          "distance_km": 4.23
        },
        {
          "code_insee": "90016",
          "nom": "Bourg-sous-Châtelet",
          "slug": "bourg-sous-chatelet",
          "code_postal": "90110",
          "population": 115,
          "superficie_km2": 84.65,
          "latitude": 47.7068,
          "longitude": 6.948,
          "distance_km": 4.31
        },
        {
          "code_insee": "90047",
          "nom": "Fontaine",
          "slug": "fontaine",
          "code_postal": "90150",
          "population": 605,
          "superficie_km2": 694.77,
          "latitude": 47.6567,
          "longitude": 6.997,
          "distance_km": 4.37
        },
        {
          "code_insee": "90059",
          "nom": "Lacollonge",
          "slug": "lacollonge",
          "code_postal": "90150",
          "population": 234,
          "superficie_km2": 193.36,
          "latitude": 47.6624,
          "longitude": 6.9577,
          "distance_km": 5.04
        },
        {
          "code_insee": "90050",
          "nom": "Frais",
          "slug": "frais",
          "code_postal": "90150",
          "population": 249,
          "superficie_km2": 281.98,
          "latitude": 47.646,
          "longitude": 6.9823,
          "distance_km": 5.75
        },
        {
          "code_insee": "90049",
          "nom": "Foussemagne",
          "slug": "foussemagne",
          "code_postal": "90150",
          "population": 869,
          "superficie_km2": 507.27,
          "latitude": 47.6389,
          "longitude": 6.9959,
          "distance_km": 6.35
        }
      ],
      "zonage_abc": "C",
      "reclassement_abc": "Non",
      "codes_postaux": [
        {
          "code_postal": "90150",
          "libelle_acheminement": "ANGEOT"
        }
      ],
      "logement": {
        "logements_total": 165,
        "residences_principales": 151,
        "logements_vacants": 9,
        "residences_secondaires": 5,
        "maisons": 152,
        "appartements": 12,
        "proprietaires": 134,
        "locataires": 15,
        "hlm": 0,
        "construits_avant_1919": 34,
        "construits_1919_1945": 4,
        "construits_1946_1970": 13,
        "construits_1971_1990": 41,
        "construits_1991_2005": 29,
        "construits_2006_2019": 27,
        "chauffage_electrique": 34,
        "chauffage_fioul": 37,
        "chauffage_gaz_ville": 5,
        "chauffage_gaz_bouteille": 9,
        "chauffage_autre": 66,
        "menages": 151,
        "logements_avant_1990": 92
      },
      "artisans": {
        "monte_escalier": 0,
        "chauffage_pac_clim": 0,
        "isolation": 0,
        "menuiserie": 1,
        "fenetres_velux": 1,
        "couverture_toiture": 0,
        "facade_peinture": 1,
        "portes_volets": 1,
        "piscine": 1,
        "vmc_ventilation": 0,
        "assainissement": 0
      },
      "revenus": {
        "revenu_median": 26070.0,
        "part_menages_imposes": null,
        "taux_pauvrete": null
      },
      "aides_etat": {
        "zone_climatique": "H1",
        "qpv": false,
        "action_coeur_de_ville": false,
        "petites_villes_de_demain": false
      }
    },
    {
      "code_insee": "90003",
      "nom": "Anjoutey",
      "nom_a": null,
      "nom_de": null,
      "slug": "anjoutey",
      "code_postal": "90170",
      "population": 611,
      "superficie_km2": 773.1,
      "latitude": 47.7055,
      "longitude": 6.9227,
      "villes_proches": [
        {
          "code_insee": "90016",
          "nom": "Bourg-sous-Châtelet",
          "slug": "bourg-sous-chatelet",
          "code_postal": "90110",
          "population": 115,
          "superficie_km2": 84.65,
          "latitude": 47.7068,
          "longitude": 6.948,
          "distance_km": 1.9
        },
        {
          "code_insee": "90041",
          "nom": "Étueffont",
          "slug": "etueffont",
          "code_postal": "90170",
          "population": 1393,
          "superficie_km2": 1263.53,
          "latitude": 47.7248,
          "longitude": 6.9171,
          "distance_km": 2.19
        },
        {
          "code_insee": "90079",
          "nom": "Petitmagny",
          "slug": "petitmagny",
          "code_postal": "90170",
          "population": 315,
          "superficie_km2": 222.06,
          "latitude": 47.7257,
          "longitude": 6.9003,
          "distance_km": 2.8
        },
        {
          "code_insee": "90091",
          "nom": "Saint-Germain-le-Châtelet",
          "slug": "saint-germain-le-chatelet",
          "code_postal": "90110",
          "population": 654,
          "superficie_km2": 339.44,
          "latitude": 47.7035,
          "longitude": 6.9637,
          "distance_km": 3.08
        },
        {
          "code_insee": "90036",
          "nom": "Eguenigue",
          "slug": "eguenigue",
          "code_postal": "90150",
          "population": 272,
          "superficie_km2": 250.45,
          "latitude": 47.6785,
          "longitude": 6.9351,
          "distance_km": 3.14
        },
        {
          "code_insee": "90087",
          "nom": "Roppe",
          "slug": "roppe",
          "code_postal": "90380",
          "population": 1041,
          "superficie_km2": 751.64,
          "latitude": 47.6773,
          "longitude": 6.9073,
          "distance_km": 3.34
        },
        {
          "code_insee": "90086",
          "nom": "Romagny-sous-Rougemont",
          "slug": "romagny-sous-rougemont",
          "code_postal": "90110",
          "population": 213,
          "superficie_km2": 252.29,
          "latitude": 47.7191,
          "longitude": 6.9658,
          "distance_km": 3.56
        },
        {
          "code_insee": "90067",
          "nom": "Menoncourt",
          "slug": "menoncourt",
          "code_postal": "90150",
          "population": 391,
          "superficie_km2": 470.85,
          "latitude": 47.6804,
          "longitude": 6.954,
          "distance_km": 3.64
        },
        {
          "code_insee": "90054",
          "nom": "Grosmagny",
          "slug": "grosmagny",
          "code_postal": "90200",
          "population": 569,
          "superficie_km2": 889.23,
          "latitude": 47.7226,
          "longitude": 6.8787,
          "distance_km": 3.8
        },
        {
          "code_insee": "90044",
          "nom": "Felon",
          "slug": "felon",
          "code_postal": "90110",
          "population": 222,
          "superficie_km2": 410.22,
          "latitude": 47.7061,
          "longitude": 6.979,
          "distance_km": 4.21
        },
        {
          "code_insee": "90037",
          "nom": "Éloie",
          "slug": "eloie",
          "code_postal": "90300",
          "population": 952,
          "superficie_km2": 553.9,
          "latitude": 47.687,
          "longitude": 6.873,
          "distance_km": 4.25
        },
        {
          "code_insee": "90013",
          "nom": "Bethonvilliers",
          "slug": "bethonvilliers",
          "code_postal": "90150",
          "population": 232,
          "superficie_km2": 193.51,
          "latitude": 47.6805,
          "longitude": 6.9672,
          "distance_km": 4.34
        },
        {
          "code_insee": "90103",
          "nom": "Vétrigne",
          "slug": "vetrigne",
          "code_postal": "90300",
          "population": 636,
          "superficie_km2": 244.75,
          "latitude": 47.6693,
          "longitude": 6.8962,
          "distance_km": 4.49
        },
        {
          "code_insee": "90060",
          "nom": "Lagrange",
          "slug": "lagrange",
          "code_postal": "90150",
          "population": 144,
          "superficie_km2": 91.74,
          "latitude": 47.6844,
          "longitude": 6.9767,
          "distance_km": 4.67
        },
        {
          "code_insee": "90089",
          "nom": "Rougemont-le-Château",
          "slug": "rougemont-le-chateau",
          "code_postal": "90110",
          "population": 1487,
          "superficie_km2": 1677.54,
          "latitude": 47.7468,
          "longitude": 6.96,
          "distance_km": 5.37
        },
        {
          "code_insee": "90080",
          "nom": "Phaffans",
          "slug": "phaffans",
          "code_postal": "90150",
          "population": 432,
          "superficie_km2": 324.33,
          "latitude": 47.6593,
          "longitude": 6.9476,
          "distance_km": 5.46
        },
        {
          "code_insee": "90059",
          "nom": "Lacollonge",
          "slug": "lacollonge",
          "code_postal": "90150",
          "population": 234,
          "superficie_km2": 193.36,
          "latitude": 47.6624,
          "longitude": 6.9577,
          "distance_km": 5.46
        },
        {
          "code_insee": "90034",
          "nom": "Denney",
          "slug": "denney",
          "code_postal": "90160",
          "population": 763,
          "superficie_km2": 358.46,
          "latitude": 47.6549,
          "longitude": 6.9054,
          "distance_km": 5.77
        },
        {
          "code_insee": "90061",
          "nom": "Lamadeleine-Val-des-Anges",
          "slug": "lamadeleine-val-des-anges",
          "code_postal": "90170",
          "population": 46,
          "superficie_km2": 643.82,
          "latitude": 47.762,
          "longitude": 6.9067,
          "distance_km": 6.4
        },
        {
          "code_insee": "90012",
          "nom": "Bessoncourt",
          "slug": "bessoncourt",
          "code_postal": "90160",
          "population": 1309,
          "superficie_km2": 791.5,
          "latitude": 47.6458,
          "longitude": 6.9417,
          "distance_km": 6.79
        }
      ],
      "zonage_abc": "C",
      "reclassement_abc": "Non",
      "codes_postaux": [
        {
          "code_postal": "90170",
          "libelle_acheminement": "ANJOUTEY"
        }
      ],
      "logement": {
        "logements_total": 296,
        "residences_principales": 274,
        "logements_vacants": 19,
        "residences_secondaires": 3,
        "maisons": 245,
        "appartements": 51,
        "proprietaires": 230,
        "locataires": 41,
        "hlm": 19,
        "construits_avant_1919": 50,
        "construits_1919_1945": 11,
        "construits_1946_1970": 24,
        "construits_1971_1990": 91,
        "construits_1991_2005": 67,
        "construits_2006_2019": 21,
        "chauffage_electrique": 81,
        "chauffage_fioul": 43,
        "chauffage_gaz_ville": 2,
        "chauffage_gaz_bouteille": 21,
        "chauffage_autre": 124,
        "menages": 274,
        "logements_avant_1990": 176
      },
      "artisans": {
        "monte_escalier": 0,
        "chauffage_pac_clim": 0,
        "isolation": 1,
        "menuiserie": 2,
        "fenetres_velux": 2,
        "couverture_toiture": 0,
        "facade_peinture": 1,
        "portes_volets": 2,
        "piscine": 0,
        "vmc_ventilation": 0,
        "assainissement": 1
      },
      "revenus": {
        "revenu_median": 24610.0,
        "part_menages_imposes": null,
        "taux_pauvrete": null
      },
      "aides_etat": {
        "zone_climatique": "H1",
        "qpv": false,
        "action_coeur_de_ville": false,
        "petites_villes_de_demain": false
      }
    },
    {
      "code_insee": "90004",
      "nom": "Argiésans",
      "nom_a": null,
      "nom_de": null,
      "slug": "argiesans",
      "code_postal": "90800",
      "population": 607,
      "superficie_km2": 279.85,
      "latitude": 47.6072,
      "longitude": 6.8207,
      "villes_proches": [
        {
          "code_insee": "90098",
          "nom": "Urcerey",
          "slug": "urcerey",
          "code_postal": "90800",
          "population": 257,
          "superficie_km2": 336.7,
          "latitude": 47.6118,
          "longitude": 6.8026,
          "distance_km": 1.45
        },
        {
          "code_insee": "90008",
          "nom": "Bavilliers",
          "slug": "bavilliers",
          "code_postal": "90800",
          "population": 4678,
          "superficie_km2": 475.7,
          "latitude": 47.6214,
          "longitude": 6.8275,
          "distance_km": 1.66
        },
        {
          "code_insee": "90007",
          "nom": "Banvillars",
          "slug": "banvillars",
          "code_postal": "90800",
          "population": 289,
          "superficie_km2": 463.14,
          "latitude": 47.5881,
          "longitude": 6.8127,
          "distance_km": 2.21
        },
        {
          "code_insee": "90015",
          "nom": "Botans",
          "slug": "botans",
          "code_postal": "90400",
          "population": 249,
          "superficie_km2": 229.06,
          "latitude": 47.5955,
          "longitude": 6.8502,
          "distance_km": 2.57
        },
        {
          "code_insee": "90020",
          "nom": "Buc",
          "slug": "buc",
          "code_postal": "90800",
          "population": 244,
          "superficie_km2": 245.64,
          "latitude": 47.616,
          "longitude": 6.7886,
          "distance_km": 2.6
        },
        {
          "code_insee": "90035",
          "nom": "Dorans",
          "slug": "dorans",
          "code_postal": "90400",
          "population": 824,
          "superficie_km2": 381.64,
          "latitude": 47.5865,
          "longitude": 6.8398,
          "distance_km": 2.71
        },
        {
          "code_insee": "90001",
          "nom": "Andelnans",
          "slug": "andelnans",
          "code_postal": "90400",
          "population": 1093,
          "superficie_km2": 419.32,
          "latitude": 47.6017,
          "longitude": 6.8628,
          "distance_km": 3.22
        },
        {
          "code_insee": "70096",
          "nom": "Brevilliers",
          "slug": "brevilliers",
          "code_postal": "70400",
          "population": 626,
          "superficie_km2": 648.73,
          "latitude": 47.5794,
          "longitude": 6.7997,
          "distance_km": 3.47
        },
        {
          "code_insee": "90039",
          "nom": "Essert",
          "slug": "essert",
          "code_postal": "90850",
          "population": 3417,
          "superficie_km2": 712.29,
          "latitude": 47.6382,
          "longitude": 6.8127,
          "distance_km": 3.5
        },
        {
          "code_insee": "90032",
          "nom": "Danjoutin",
          "slug": "danjoutin",
          "code_postal": "90400",
          "population": 3519,
          "superficie_km2": 561.82,
          "latitude": 47.6187,
          "longitude": 6.8647,
          "distance_km": 3.54
        },
        {
          "code_insee": "90011",
          "nom": "Bermont",
          "slug": "bermont",
          "code_postal": "90400",
          "population": 358,
          "superficie_km2": 284.07,
          "latitude": 47.5757,
          "longitude": 6.8416,
          "distance_km": 3.84
        },
        {
          "code_insee": "70330",
          "nom": "Mandrevillars",
          "slug": "mandrevillars",
          "code_postal": "70400",
          "population": 344,
          "superficie_km2": 294.55,
          "latitude": 47.6172,
          "longitude": 6.7715,
          "distance_km": 3.85
        },
        {
          "code_insee": "70206",
          "nom": "Échenans-sous-Mont-Vaudois",
          "slug": "echenans-sous-mont-vaudois",
          "code_postal": "70400",
          "population": 567,
          "superficie_km2": 547.13,
          "latitude": 47.6067,
          "longitude": 6.7691,
          "distance_km": 3.87
        },
        {
          "code_insee": "90094",
          "nom": "Sevenans",
          "slug": "sevenans",
          "code_postal": "90400",
          "population": 688,
          "superficie_km2": 204.84,
          "latitude": 47.5898,
          "longitude": 6.8718,
          "distance_km": 4.29
        },
        {
          "code_insee": "90010",
          "nom": "Belfort",
          "slug": "belfort",
          "code_postal": "90000",
          "population": 45912,
          "superficie_km2": 1728.19,
          "latitude": 47.6458,
          "longitude": 6.841,
          "distance_km": 4.55
        },
        {
          "code_insee": "70117",
          "nom": "Châlonvillars",
          "slug": "chalonvillars",
          "code_postal": "70400",
          "population": 1264,
          "superficie_km2": 761.52,
          "latitude": 47.6378,
          "longitude": 6.7766,
          "distance_km": 4.74
        },
        {
          "code_insee": "90029",
          "nom": "Cravanche",
          "slug": "cravanche",
          "code_postal": "90300",
          "population": 1942,
          "superficie_km2": 118.9,
          "latitude": 47.653,
          "longitude": 6.8238,
          "distance_km": 5.1
        },
        {
          "code_insee": "90022",
          "nom": "Châtenois-les-Forges",
          "slug": "chatenois-les-forges",
          "code_postal": "90700",
          "population": 2608,
          "superficie_km2": 873.06,
          "latitude": 47.5602,
          "longitude": 6.834,
          "distance_km": 5.32
        },
        {
          "code_insee": "90097",
          "nom": "Trévenans",
          "slug": "trevenans",
          "code_postal": "90400",
          "population": 1310,
          "superficie_km2": 592.23,
          "latitude": 47.5663,
          "longitude": 6.8696,
          "distance_km": 5.84
        },
        {
          "code_insee": "90042",
          "nom": "Évette-Salbert",
          "slug": "evette-salbert",
          "code_postal": "90350",
          "population": 2029,
          "superficie_km2": 916.55,
          "latitude": 47.6693,
          "longitude": 6.8034,
          "distance_km": 7.03
        }
      ],
      "zonage_abc": "B2",
      "reclassement_abc": "Non",
      "codes_postaux": [
        {
          "code_postal": "90800",
          "libelle_acheminement": "ARGIESANS"
        }
      ],
      "logement": {
        "logements_total": 244,
        "residences_principales": 236,
        "logements_vacants": 8,
        "residences_secondaires": 0,
        "maisons": 172,
        "appartements": 71,
        "proprietaires": 175,
        "locataires": 59,
        "hlm": 8,
        "construits_avant_1919": 15,
        "construits_1919_1945": 10,
        "construits_1946_1970": 11,
        "construits_1971_1990": 56,
        "construits_1991_2005": 60,
        "construits_2006_2019": 56,
        "chauffage_electrique": 38,
        "chauffage_fioul": 12,
        "chauffage_gaz_ville": 148,
        "chauffage_gaz_bouteille": 2,
        "chauffage_autre": 36,
        "menages": 236,
        "logements_avant_1990": 92
      },
      "artisans": {
        "monte_escalier": 1,
        "chauffage_pac_clim": 2,
        "isolation": 4,
        "menuiserie": 0,
        "fenetres_velux": 0,
        "couverture_toiture": 1,
        "facade_peinture": 1,
        "portes_volets": 0,
        "piscine": 4,
        "vmc_ventilation": 2,
        "assainissement": 0
      },
      "revenus": {
        "revenu_median": 25380.0,
        "part_menages_imposes": null,
        "taux_pauvrete": null
      },
      "aides_etat": {
        "zone_climatique": "H1",
        "qpv": false,
        "action_coeur_de_ville": false,
        "petites_villes_de_demain": false
      }
    },
    {
      "code_insee": "90082",
      "nom": "Autrechêne",
      "nom_a": null,
      "nom_de": null,
      "slug": "autrechene",
      "code_postal": "90140",
      "population": 281,
      "superficie_km2": 299.14,
      "latitude": 47.5911,
      "longitude": 6.9626,
      "villes_proches": [
        {
          "code_insee": "90074",
          "nom": "Novillard",
          "slug": "novillard",
          "code_postal": "90340",
          "population": 300,
          "superficie_km2": 384.24,
          "latitude": 47.6047,
          "longitude": 6.9622,
          "distance_km": 1.51
        },
        {
          "code_insee": "90018",
          "nom": "Brebotte",
          "slug": "brebotte",
          "code_postal": "90140",
          "population": 353,
          "superficie_km2": 377.93,
          "latitude": 47.5769,
          "longitude": 6.9754,
          "distance_km": 1.85
        },
        {
          "code_insee": "90021",
          "nom": "Charmois",
          "slug": "charmois",
          "code_postal": "90140",
          "population": 369,
          "superficie_km2": 421.03,
          "latitude": 47.5795,
          "longitude": 6.9403,
          "distance_km": 2.11
        },
        {
          "code_insee": "90083",
          "nom": "Recouvrance",
          "slug": "recouvrance",
          "code_postal": "90140",
          "population": 147,
          "superficie_km2": 149.5,
          "latitude": 47.5718,
          "longitude": 6.977,
          "distance_km": 2.4
        },
        {
          "code_insee": "90051",
          "nom": "Froidefontaine",
          "slug": "froidefontaine",
          "code_postal": "90140",
          "population": 433,
          "superficie_km2": 452.98,
          "latitude": 47.5684,
          "longitude": 6.9594,
          "distance_km": 2.54
        },
        {
          "code_insee": "90019",
          "nom": "Bretagne",
          "slug": "bretagne",
          "code_postal": "90130",
          "population": 319,
          "superficie_km2": 467.65,
          "latitude": 47.5909,
          "longitude": 6.9972,
          "distance_km": 2.59
        },
        {
          "code_insee": "90071",
          "nom": "Montreux-Château",
          "slug": "montreux-chateau",
          "code_postal": "90130",
          "population": 1180,
          "superficie_km2": 463.54,
          "latitude": 47.6089,
          "longitude": 6.9941,
          "distance_km": 3.08
        },
        {
          "code_insee": "90055",
          "nom": "Grosne",
          "slug": "grosne",
          "code_postal": "90100",
          "population": 321,
          "superficie_km2": 363.84,
          "latitude": 47.5717,
          "longitude": 6.994,
          "distance_km": 3.19
        },
        {
          "code_insee": "90048",
          "nom": "Fontenelle",
          "slug": "fontenelle",
          "code_postal": "90340",
          "population": 135,
          "superficie_km2": 174.6,
          "latitude": 47.6207,
          "longitude": 6.9564,
          "distance_km": 3.32
        },
        {
          "code_insee": "90077",
          "nom": "Petit-Croix",
          "slug": "petit-croix",
          "code_postal": "90130",
          "population": 308,
          "superficie_km2": 382.97,
          "latitude": 47.6218,
          "longitude": 6.9751,
          "distance_km": 3.54
        },
        {
          "code_insee": "90068",
          "nom": "Meroux-Moval",
          "slug": "meroux-moval",
          "code_postal": "90400",
          "population": 1440,
          "superficie_km2": 1003.51,
          "latitude": 47.5945,
          "longitude": 6.9136,
          "distance_km": 3.69
        },
        {
          "code_insee": "90104",
          "nom": "Vézelois",
          "slug": "vezelois",
          "code_postal": "90400",
          "population": 1029,
          "superficie_km2": 937.07,
          "latitude": 47.6082,
          "longitude": 6.9155,
          "distance_km": 4.01
        },
        {
          "code_insee": "90031",
          "nom": "Cunelières",
          "slug": "cunelieres",
          "code_postal": "90150",
          "population": 341,
          "superficie_km2": 201.53,
          "latitude": 47.6256,
          "longitude": 6.9928,
          "distance_km": 4.45
        },
        {
          "code_insee": "90101",
          "nom": "Vellescot",
          "slug": "vellescot",
          "code_postal": "90100",
          "population": 257,
          "superficie_km2": 351.4,
          "latitude": 47.5752,
          "longitude": 7.0176,
          "distance_km": 4.49
        },
        {
          "code_insee": "90026",
          "nom": "Chèvremont",
          "slug": "chevremont",
          "code_postal": "90340",
          "population": 1539,
          "superficie_km2": 878.32,
          "latitude": 47.6268,
          "longitude": 6.9303,
          "distance_km": 4.65
        },
        {
          "code_insee": "90049",
          "nom": "Foussemagne",
          "slug": "foussemagne",
          "code_postal": "90150",
          "population": 869,
          "superficie_km2": 507.27,
          "latitude": 47.6389,
          "longitude": 6.9959,
          "distance_km": 5.87
        },
        {
          "code_insee": "90053",
          "nom": "Grandvillars",
          "slug": "grandvillars",
          "code_postal": "90600",
          "population": 2947,
          "superficie_km2": 1527.85,
          "latitude": 47.5378,
          "longitude": 6.9754,
          "distance_km": 6.0
        },
        {
          "code_insee": "90072",
          "nom": "Morvillars",
          "slug": "morvillars",
          "code_postal": "90120",
          "population": 1113,
          "superficie_km2": 563.5,
          "latitude": 47.5398,
          "longitude": 6.9353,
          "distance_km": 6.06
        },
        {
          "code_insee": "90050",
          "nom": "Frais",
          "slug": "frais",
          "code_postal": "90150",
          "population": 249,
          "superficie_km2": 281.98,
          "latitude": 47.646,
          "longitude": 6.9823,
          "distance_km": 6.28
        },
        {
          "code_insee": "90012",
          "nom": "Bessoncourt",
          "slug": "bessoncourt",
          "code_postal": "90160",
          "population": 1309,
          "superficie_km2": 791.5,
          "latitude": 47.6458,
          "longitude": 6.9417,
          "distance_km": 6.28
        }
      ],
      "zonage_abc": "C",
      "reclassement_abc": "Non",
      "codes_postaux": [
        {
          "code_postal": "90140",
          "libelle_acheminement": "AUTRECHENE"
        }
      ],
      "logement": {
        "logements_total": 120,
        "residences_principales": 108,
        "logements_vacants": 9,
        "residences_secondaires": 3,
        "maisons": 115,
        "appartements": 4,
        "proprietaires": 101,
        "locataires": 5,
        "hlm": 0,
        "construits_avant_1919": 15,
        "construits_1919_1945": 4,
        "construits_1946_1970": 5,
        "construits_1971_1990": 22,
        "construits_1991_2005": 36,
        "construits_2006_2019": 14,
        "chauffage_electrique": 30,
        "chauffage_fioul": 25,
        "chauffage_gaz_ville": 0,
        "chauffage_gaz_bouteille": 0,
        "chauffage_autre": 51,
        "menages": 108,
        "logements_avant_1990": 46
      },
      "artisans": {
        "monte_escalier": 0,
        "chauffage_pac_clim": 0,
        "isolation": 1,
        "menuiserie": 1,
        "fenetres_velux": 1,
        "couverture_toiture": 0,
        "facade_peinture": 0,
        "portes_volets": 1,
        "piscine": 1,
        "vmc_ventilation": 0,
        "assainissement": 0
      },
      "revenus": {
        "revenu_median": 27860.0,
        "part_menages_imposes": null,
        "taux_pauvrete": null
      },
      "aides_etat": {
        "zone_climatique": "H1",
        "qpv": false,
        "action_coeur_de_ville": false,
        "petites_villes_de_demain": false
      }
    },
    {
      "code_insee": "90005",
      "nom": "Auxelles-Bas",
      "nom_a": null,
      "nom_de": null,
      "slug": "auxelles-bas",
      "code_postal": "90200",
      "population": 417,
      "superficie_km2": 931.09,
      "latitude": 47.7274,
      "longitude": 6.7846,
      "villes_proches": [
        {
          "code_insee": "90057",
          "nom": "Lachapelle-sous-Chaux",
          "slug": "lachapelle-sous-chaux",
          "code_postal": "90300",
          "population": 745,
          "superficie_km2": 1095.38,
          "latitude": 47.706,
          "longitude": 6.7995,
          "distance_km": 2.63
        },
        {
          "code_insee": "90006",
          "nom": "Auxelles-Haut",
          "slug": "auxelles-haut",
          "code_postal": "90200",
          "population": 287,
          "superficie_km2": 648.4,
          "latitude": 47.7529,
          "longitude": 6.7813,
          "distance_km": 2.85
        },
        {
          "code_insee": "90052",
          "nom": "Giromagny",
          "slug": "giromagny",
          "code_postal": "90200",
          "population": 2907,
          "superficie_km2": 572.27,
          "latitude": 47.7425,
          "longitude": 6.8198,
          "distance_km": 3.12
        },
        {
          "code_insee": "70413",
          "nom": "Plancher-Bas",
          "slug": "plancher-bas",
          "code_postal": "70290",
          "population": 1846,
          "superficie_km2": 2913.45,
          "latitude": 47.7226,
          "longitude": 6.7297,
          "distance_km": 4.14
        },
        {
          "code_insee": "90023",
          "nom": "Chaux",
          "slug": "chaux",
          "code_postal": "90330",
          "population": 1184,
          "superficie_km2": 943.63,
          "latitude": 47.7141,
          "longitude": 6.8386,
          "distance_km": 4.3
        },
        {
          "code_insee": "70215",
          "nom": "Errevet",
          "slug": "errevet",
          "code_postal": "70400",
          "population": 271,
          "superficie_km2": 331.74,
          "latitude": 47.6889,
          "longitude": 6.7675,
          "distance_km": 4.47
        },
        {
          "code_insee": "90093",
          "nom": "Sermamagny",
          "slug": "sermamagny",
          "code_postal": "90300",
          "population": 929,
          "superficie_km2": 801.9,
          "latitude": 47.6867,
          "longitude": 6.8304,
          "distance_km": 5.68
        },
        {
          "code_insee": "90088",
          "nom": "Rougegoutte",
          "slug": "rougegoutte",
          "code_postal": "90200",
          "population": 987,
          "superficie_km2": 838.98,
          "latitude": 47.7335,
          "longitude": 6.861,
          "distance_km": 5.75
        },
        {
          "code_insee": "90102",
          "nom": "Vescemont",
          "slug": "vescemont",
          "code_postal": "90200",
          "population": 717,
          "superficie_km2": 747.03,
          "latitude": 47.7539,
          "longitude": 6.8621,
          "distance_km": 6.5
        },
        {
          "code_insee": "90042",
          "nom": "Évette-Salbert",
          "slug": "evette-salbert",
          "code_postal": "90350",
          "population": 2029,
          "superficie_km2": 916.55,
          "latitude": 47.6693,
          "longitude": 6.8034,
          "distance_km": 6.61
        },
        {
          "code_insee": "70414",
          "nom": "Plancher-les-Mines",
          "slug": "plancher-les-mines",
          "code_postal": "70290",
          "population": 839,
          "superficie_km2": 2562.07,
          "latitude": 47.7884,
          "longitude": 6.7759,
          "distance_km": 6.81
        },
        {
          "code_insee": "90065",
          "nom": "Lepuix",
          "slug": "lepuix",
          "code_postal": "90200",
          "population": 1115,
          "superficie_km2": 2840.05,
          "latitude": 47.7858,
          "longitude": 6.82,
          "distance_km": 7.01
        },
        {
          "code_insee": "90054",
          "nom": "Grosmagny",
          "slug": "grosmagny",
          "code_postal": "90200",
          "population": 569,
          "superficie_km2": 889.23,
          "latitude": 47.7226,
          "longitude": 6.8787,
          "distance_km": 7.06
        },
        {
          "code_insee": "70061",
          "nom": "Belfahy",
          "slug": "belfahy",
          "code_postal": "70290",
          "population": 83,
          "superficie_km2": 314.05,
          "latitude": 47.7866,
          "longitude": 6.7316,
          "distance_km": 7.68
        },
        {
          "code_insee": "90099",
          "nom": "Valdoie",
          "slug": "valdoie",
          "code_postal": "90300",
          "population": 5175,
          "superficie_km2": 461.8,
          "latitude": 47.6727,
          "longitude": 6.8476,
          "distance_km": 7.7
        },
        {
          "code_insee": "70248",
          "nom": "Frahier-et-Chatebier",
          "slug": "frahier-et-chatebier",
          "code_postal": "70400",
          "population": 1378,
          "superficie_km2": 1743.28,
          "latitude": 47.6555,
          "longitude": 6.7509,
          "distance_km": 8.38
        },
        {
          "code_insee": "90029",
          "nom": "Cravanche",
          "slug": "cravanche",
          "code_postal": "90300",
          "population": 1942,
          "superficie_km2": 118.9,
          "latitude": 47.653,
          "longitude": 6.8238,
          "distance_km": 8.78
        },
        {
          "code_insee": "70205",
          "nom": "Échavanne",
          "slug": "echavanne",
          "code_postal": "70400",
          "population": 199,
          "superficie_km2": 325.71,
          "latitude": 47.657,
          "longitude": 6.7236,
          "distance_km": 9.06
        },
        {
          "code_insee": "70117",
          "nom": "Châlonvillars",
          "slug": "chalonvillars",
          "code_postal": "70400",
          "population": 1264,
          "superficie_km2": 761.52,
          "latitude": 47.6378,
          "longitude": 6.7766,
          "distance_km": 9.98
        },
        {
          "code_insee": "90039",
          "nom": "Essert",
          "slug": "essert",
          "code_postal": "90850",
          "population": 3417,
          "superficie_km2": 712.29,
          "latitude": 47.6382,
          "longitude": 6.8127,
          "distance_km": 10.14
        }
      ],
      "zonage_abc": "C",
      "reclassement_abc": "Non",
      "codes_postaux": [
        {
          "code_postal": "90200",
          "libelle_acheminement": "AUXELLES BAS"
        }
      ],
      "logement": {
        "logements_total": 238,
        "residences_principales": 196,
        "logements_vacants": 25,
        "residences_secondaires": 17,
        "maisons": 216,
        "appartements": 17,
        "proprietaires": 179,
        "locataires": 16,
        "hlm": 7,
        "construits_avant_1919": 51,
        "construits_1919_1945": 16,
        "construits_1946_1970": 13,
        "construits_1971_1990": 59,
        "construits_1991_2005": 30,
        "construits_2006_2019": 27,
        "chauffage_electrique": 18,
        "chauffage_fioul": 18,
        "chauffage_gaz_ville": 79,
        "chauffage_gaz_bouteille": 0,
        "chauffage_autre": 81,
        "menages": 196,
        "logements_avant_1990": 139
      },
      "artisans": {
        "monte_escalier": 0,
        "chauffage_pac_clim": 0,
        "isolation": 0,
        "menuiserie": 0,
        "fenetres_velux": 0,
        "couverture_toiture": 1,
        "facade_peinture": 0,
        "portes_volets": 0,
        "piscine": 1,
        "vmc_ventilation": 0,
        "assainissement": 0
      },
      "revenus": {
        "revenu_median": 23790.0,
        "part_menages_imposes": null,
        "taux_pauvrete": null
      },
      "aides_etat": {
        "zone_climatique": "H1",
        "qpv": false,
        "action_coeur_de_ville": false,
        "petites_villes_de_demain": false
      }
    },
    {
      "code_insee": "90006",
      "nom": "Auxelles-Haut",
      "nom_a": null,
      "nom_de": null,
      "slug": "auxelles-haut",
      "code_postal": "90200",
      "population": 287,
      "superficie_km2": 648.4,
      "latitude": 47.7529,
      "longitude": 6.7813,
      "villes_proches": [
        {
          "code_insee": "90005",
          "nom": "Auxelles-Bas",
          "slug": "auxelles-bas",
          "code_postal": "90200",
          "population": 417,
          "superficie_km2": 931.09,
          "latitude": 47.7274,
          "longitude": 6.7846,
          "distance_km": 2.85
        },
        {
          "code_insee": "90052",
          "nom": "Giromagny",
          "slug": "giromagny",
          "code_postal": "90200",
          "population": 2907,
          "superficie_km2": 572.27,
          "latitude": 47.7425,
          "longitude": 6.8198,
          "distance_km": 3.1
        },
        {
          "code_insee": "70414",
          "nom": "Plancher-les-Mines",
          "slug": "plancher-les-mines",
          "code_postal": "70290",
          "population": 839,
          "superficie_km2": 2562.07,
          "latitude": 47.7884,
          "longitude": 6.7759,
          "distance_km": 3.97
        },
        {
          "code_insee": "90065",
          "nom": "Lepuix",
          "slug": "lepuix",
          "code_postal": "90200",
          "population": 1115,
          "superficie_km2": 2840.05,
          "latitude": 47.7858,
          "longitude": 6.82,
          "distance_km": 4.66
        },
        {
          "code_insee": "70413",
          "nom": "Plancher-Bas",
          "slug": "plancher-bas",
          "code_postal": "70290",
          "population": 1846,
          "superficie_km2": 2913.45,
          "latitude": 47.7226,
          "longitude": 6.7297,
          "distance_km": 5.12
        },
        {
          "code_insee": "70061",
          "nom": "Belfahy",
          "slug": "belfahy",
          "code_postal": "70290",
          "population": 83,
          "superficie_km2": 314.05,
          "latitude": 47.7866,
          "longitude": 6.7316,
          "distance_km": 5.28
        },
        {
          "code_insee": "90057",
          "nom": "Lachapelle-sous-Chaux",
          "slug": "lachapelle-sous-chaux",
          "code_postal": "90300",
          "population": 745,
          "superficie_km2": 1095.38,
          "latitude": 47.706,
          "longitude": 6.7995,
          "distance_km": 5.39
        },
        {
          "code_insee": "90102",
          "nom": "Vescemont",
          "slug": "vescemont",
          "code_postal": "90200",
          "population": 717,
          "superficie_km2": 747.03,
          "latitude": 47.7539,
          "longitude": 6.8621,
          "distance_km": 6.04
        },
        {
          "code_insee": "90023",
          "nom": "Chaux",
          "slug": "chaux",
          "code_postal": "90330",
          "population": 1184,
          "superficie_km2": 943.63,
          "latitude": 47.7141,
          "longitude": 6.8386,
          "distance_km": 6.08
        },
        {
          "code_insee": "90088",
          "nom": "Rougegoutte",
          "slug": "rougegoutte",
          "code_postal": "90200",
          "population": 987,
          "superficie_km2": 838.98,
          "latitude": 47.7335,
          "longitude": 6.861,
          "distance_km": 6.34
        },
        {
          "code_insee": "70215",
          "nom": "Errevet",
          "slug": "errevet",
          "code_postal": "70400",
          "population": 271,
          "superficie_km2": 331.74,
          "latitude": 47.6889,
          "longitude": 6.7675,
          "distance_km": 7.19
        },
        {
          "code_insee": "90085",
          "nom": "Riervescemont",
          "slug": "riervescemont",
          "code_postal": "90200",
          "population": 83,
          "superficie_km2": 853.9,
          "latitude": 47.7697,
          "longitude": 6.8805,
          "distance_km": 7.65
        },
        {
          "code_insee": "90054",
          "nom": "Grosmagny",
          "slug": "grosmagny",
          "code_postal": "90200",
          "population": 569,
          "superficie_km2": 889.23,
          "latitude": 47.7226,
          "longitude": 6.8787,
          "distance_km": 8.03
        },
        {
          "code_insee": "70256",
          "nom": "Fresse",
          "slug": "fresse",
          "code_postal": "70270",
          "population": 687,
          "superficie_km2": 2777.29,
          "latitude": 47.7615,
          "longitude": 6.6731,
          "distance_km": 8.14
        },
        {
          "code_insee": "90093",
          "nom": "Sermamagny",
          "slug": "sermamagny",
          "code_postal": "90300",
          "population": 929,
          "superficie_km2": 801.9,
          "latitude": 47.6867,
          "longitude": 6.8304,
          "distance_km": 8.23
        },
        {
          "code_insee": "70489",
          "nom": "Servance-Miellin",
          "slug": "servance-miellin",
          "code_postal": "70440",
          "population": 759,
          "superficie_km2": 5305.47,
          "latitude": 47.8226,
          "longitude": 6.7107,
          "distance_km": 9.37
        },
        {
          "code_insee": "90042",
          "nom": "Évette-Salbert",
          "slug": "evette-salbert",
          "code_postal": "90350",
          "population": 2029,
          "superficie_km2": 916.55,
          "latitude": 47.6693,
          "longitude": 6.8034,
          "distance_km": 9.44
        },
        {
          "code_insee": "70283",
          "nom": "Haut-du-Them-Château-Lambert",
          "slug": "haut-du-them-chateau-lambert",
          "code_postal": "70440",
          "population": 449,
          "superficie_km2": 2527.39,
          "latitude": 47.8398,
          "longitude": 6.7443,
          "distance_km": 10.05
        },
        {
          "code_insee": "90099",
          "nom": "Valdoie",
          "slug": "valdoie",
          "code_postal": "90300",
          "population": 5175,
          "superficie_km2": 461.8,
          "latitude": 47.6727,
          "longitude": 6.8476,
          "distance_km": 10.2
        },
        {
          "code_insee": "70248",
          "nom": "Frahier-et-Chatebier",
          "slug": "frahier-et-chatebier",
          "code_postal": "70400",
          "population": 1378,
          "superficie_km2": 1743.28,
          "latitude": 47.6555,
          "longitude": 6.7509,
          "distance_km": 11.07
        }
      ],
      "zonage_abc": "C",
      "reclassement_abc": "Non",
      "codes_postaux": [
        {
          "code_postal": "90200",
          "libelle_acheminement": "AUXELLES HAUT"
        }
      ],
      "logement": {
        "logements_total": 178,
        "residences_principales": 138,
        "logements_vacants": 18,
        "residences_secondaires": 22,
        "maisons": 167,
        "appartements": 10,
        "proprietaires": 119,
        "locataires": 17,
        "hlm": 0,
        "construits_avant_1919": 70,
        "construits_1919_1945": 9,
        "construits_1946_1970": 10,
        "construits_1971_1990": 26,
        "construits_1991_2005": 14,
        "construits_2006_2019": 8,
        "chauffage_electrique": 17,
        "chauffage_fioul": 24,
        "chauffage_gaz_ville": 0,
        "chauffage_gaz_bouteille": 4,
        "chauffage_autre": 92,
        "menages": 138,
        "logements_avant_1990": 115
      },
      "artisans": {
        "monte_escalier": 0,
        "chauffage_pac_clim": 0,
        "isolation": 1,
        "menuiserie": 4,
        "fenetres_velux": 4,
        "couverture_toiture": 1,
        "facade_peinture": 0,
        "portes_volets": 4,
        "piscine": 0,
        "vmc_ventilation": 0,
        "assainissement": 0
      },
      "revenus": {
        "revenu_median": 22600.0,
        "part_menages_imposes": null,
        "taux_pauvrete": null
      },
      "aides_etat": {
        "zone_climatique": "H1",
        "qpv": false,
        "action_coeur_de_ville": false,
        "petites_villes_de_demain": false
      }
    },
    {
      "code_insee": "90007",
      "nom": "Banvillars",
      "nom_a": null,
      "nom_de": null,
      "slug": "banvillars",
      "code_postal": "90800",
      "population": 289,
      "superficie_km2": 463.14,
      "latitude": 47.5881,
      "longitude": 6.8127,
      "villes_proches": [
        {
          "code_insee": "70096",
          "nom": "Brevilliers",
          "slug": "brevilliers",
          "code_postal": "70400",
          "population": 626,
          "superficie_km2": 648.73,
          "latitude": 47.5794,
          "longitude": 6.7997,
          "distance_km": 1.37
        },
        {
          "code_insee": "90035",
          "nom": "Dorans",
          "slug": "dorans",
          "code_postal": "90400",
          "population": 824,
          "superficie_km2": 381.64,
          "latitude": 47.5865,
          "longitude": 6.8398,
          "distance_km": 2.04
        },
        {
          "code_insee": "90004",
          "nom": "Argiésans",
          "slug": "argiesans",
          "code_postal": "90800",
          "population": 607,
          "superficie_km2": 279.85,
          "latitude": 47.6072,
          "longitude": 6.8207,
          "distance_km": 2.21
        },
        {
          "code_insee": "90011",
          "nom": "Bermont",
          "slug": "bermont",
          "code_postal": "90400",
          "population": 358,
          "superficie_km2": 284.07,
          "latitude": 47.5757,
          "longitude": 6.8416,
          "distance_km": 2.57
        },
        {
          "code_insee": "90098",
          "nom": "Urcerey",
          "slug": "urcerey",
          "code_postal": "90800",
          "population": 257,
          "superficie_km2": 336.7,
          "latitude": 47.6118,
          "longitude": 6.8026,
          "distance_km": 2.74
        },
        {
          "code_insee": "90015",
          "nom": "Botans",
          "slug": "botans",
          "code_postal": "90400",
          "population": 249,
          "superficie_km2": 229.06,
          "latitude": 47.5955,
          "longitude": 6.8502,
          "distance_km": 2.93
        },
        {
          "code_insee": "90022",
          "nom": "Châtenois-les-Forges",
          "slug": "chatenois-les-forges",
          "code_postal": "90700",
          "population": 2608,
          "superficie_km2": 873.06,
          "latitude": 47.5602,
          "longitude": 6.834,
          "distance_km": 3.49
        },
        {
          "code_insee": "90020",
          "nom": "Buc",
          "slug": "buc",
          "code_postal": "90800",
          "population": 244,
          "superficie_km2": 245.64,
          "latitude": 47.616,
          "longitude": 6.7886,
          "distance_km": 3.59
        },
        {
          "code_insee": "90008",
          "nom": "Bavilliers",
          "slug": "bavilliers",
          "code_postal": "90800",
          "population": 4678,
          "superficie_km2": 475.7,
          "latitude": 47.6214,
          "longitude": 6.8275,
          "distance_km": 3.87
        },
        {
          "code_insee": "70206",
          "nom": "Échenans-sous-Mont-Vaudois",
          "slug": "echenans-sous-mont-vaudois",
          "code_postal": "70400",
          "population": 567,
          "superficie_km2": 547.13,
          "latitude": 47.6067,
          "longitude": 6.7691,
          "distance_km": 3.87
        },
        {
          "code_insee": "90001",
          "nom": "Andelnans",
          "slug": "andelnans",
          "code_postal": "90400",
          "population": 1093,
          "superficie_km2": 419.32,
          "latitude": 47.6017,
          "longitude": 6.8628,
          "distance_km": 4.05
        },
        {
          "code_insee": "90094",
          "nom": "Sevenans",
          "slug": "sevenans",
          "code_postal": "90400",
          "population": 688,
          "superficie_km2": 204.84,
          "latitude": 47.5898,
          "longitude": 6.8718,
          "distance_km": 4.44
        },
        {
          "code_insee": "70330",
          "nom": "Mandrevillars",
          "slug": "mandrevillars",
          "code_postal": "70400",
          "population": 344,
          "superficie_km2": 294.55,
          "latitude": 47.6172,
          "longitude": 6.7715,
          "distance_km": 4.47
        },
        {
          "code_insee": "70285",
          "nom": "Héricourt",
          "slug": "hericourt",
          "code_postal": "70400",
          "population": 10621,
          "superficie_km2": 2103.81,
          "latitude": 47.5666,
          "longitude": 6.7594,
          "distance_km": 4.66
        },
        {
          "code_insee": "90097",
          "nom": "Trévenans",
          "slug": "trevenans",
          "code_postal": "90400",
          "population": 1310,
          "superficie_km2": 592.23,
          "latitude": 47.5663,
          "longitude": 6.8696,
          "distance_km": 4.91
        },
        {
          "code_insee": "90032",
          "nom": "Danjoutin",
          "slug": "danjoutin",
          "code_postal": "90400",
          "population": 3519,
          "superficie_km2": 561.82,
          "latitude": 47.6187,
          "longitude": 6.8647,
          "distance_km": 5.17
        },
        {
          "code_insee": "25057",
          "nom": "Bethoncourt",
          "slug": "bethoncourt",
          "code_postal": "25200",
          "population": 5308,
          "superficie_km2": 659.95,
          "latitude": 47.5418,
          "longitude": 6.7988,
          "distance_km": 5.25
        },
        {
          "code_insee": "90039",
          "nom": "Essert",
          "slug": "essert",
          "code_postal": "90850",
          "population": 3417,
          "superficie_km2": 712.29,
          "latitude": 47.6382,
          "longitude": 6.8127,
          "distance_km": 5.57
        },
        {
          "code_insee": "25284",
          "nom": "Grand-Charmont",
          "slug": "grand-charmont",
          "code_postal": "25200",
          "population": 5873,
          "superficie_km2": 450.4,
          "latitude": 47.5332,
          "longitude": 6.823,
          "distance_km": 6.15
        },
        {
          "code_insee": "25428",
          "nom": "Nommay",
          "slug": "nommay",
          "code_postal": "25600",
          "population": 1596,
          "superficie_km2": 325.16,
          "latitude": 47.537,
          "longitude": 6.8454,
          "distance_km": 6.19
        }
      ],
      "zonage_abc": "C",
      "reclassement_abc": "Non",
      "codes_postaux": [
        {
          "code_postal": "90800",
          "libelle_acheminement": "BANVILLARS"
        }
      ],
      "logement": {
        "logements_total": 127,
        "residences_principales": 123,
        "logements_vacants": 4,
        "residences_secondaires": 0,
        "maisons": 123,
        "appartements": 4,
        "proprietaires": 113,
        "locataires": 9,
        "hlm": 0,
        "construits_avant_1919": 24,
        "construits_1919_1945": 2,
        "construits_1946_1970": 19,
        "construits_1971_1990": 30,
        "construits_1991_2005": 27,
        "construits_2006_2019": 15,
        "chauffage_electrique": 30,
        "chauffage_fioul": 51,
        "chauffage_gaz_ville": 0,
        "chauffage_gaz_bouteille": 2,
        "chauffage_autre": 39,
        "menages": 123,
        "logements_avant_1990": 75
      },
      "artisans": {
        "monte_escalier": 0,
        "chauffage_pac_clim": 0,
        "isolation": 2,
        "menuiserie": 0,
        "fenetres_velux": 0,
        "couverture_toiture": 2,
        "facade_peinture": 0,
        "portes_volets": 0,
        "piscine": 0,
        "vmc_ventilation": 0,
        "assainissement": 1
      },
      "revenus": {
        "revenu_median": 27470.0,
        "part_menages_imposes": null,
        "taux_pauvrete": null
      },
      "aides_etat": {
        "zone_climatique": "H1",
        "qpv": false,
        "action_coeur_de_ville": false,
        "petites_villes_de_demain": false
      }
    },
    {
      "code_insee": "90008",
      "nom": "Bavilliers",
      "nom_a": null,
      "nom_de": null,
      "slug": "bavilliers",
      "code_postal": "90800",
      "population": 4595,
      "superficie_km2": 5.0,
      "latitude": 47.6199989,
      "longitude": 6.8309999,
      "villes_proches": [
        {
          "code_insee": "90039",
          "nom": "Essert",
          "slug": "essert",
          "code_postal": "90850",
          "population": 3348,
          "superficie_km2": 7.0,
          "latitude": 47.637001,
          "longitude": 6.8119998,
          "distance_km": 2.37
        },
        {
          "code_insee": "90032",
          "nom": "Danjoutin",
          "slug": "danjoutin",
          "code_postal": "90400",
          "population": 3541,
          "superficie_km2": 6.0,
          "latitude": 47.618,
          "longitude": 6.8660002,
          "distance_km": 2.63
        },
        {
          "code_insee": "90010",
          "nom": "Belfort",
          "slug": "belfort",
          "code_postal": "90000",
          "population": 45155,
          "superficie_km2": 17.0,
          "latitude": 47.6469994,
          "longitude": 6.8449998,
          "distance_km": 3.18
        },
        {
          "code_insee": "90001",
          "nom": "Andelnans",
          "slug": "andelnans",
          "code_postal": "90400",
          "population": 1153,
          "superficie_km2": 4.0,
          "latitude": 47.6030006,
          "longitude": 6.8660002,
          "distance_km": 3.23
        },
        {
          "code_insee": "90029",
          "nom": "Cravanche",
          "slug": "cravanche",
          "code_postal": "90300",
          "population": 1928,
          "superficie_km2": 1.0,
          "latitude": 47.6520004,
          "longitude": 6.8239999,
          "distance_km": 3.6
        },
        {
          "code_insee": "70117",
          "nom": "Châlonvillars",
          "slug": "chalonvillars",
          "code_postal": "70400",
          "population": 1242,
          "superficie_km2": 8.0,
          "latitude": 47.6380005,
          "longitude": 6.777,
          "distance_km": 4.51
        },
        {
          "code_insee": "90076",
          "nom": "Pérouse",
          "slug": "perouse",
          "code_postal": "90160",
          "population": 1199,
          "superficie_km2": 5.0,
          "latitude": 47.6360016,
          "longitude": 6.8940001,
          "distance_km": 5.05
        },
        {
          "code_insee": "90075",
          "nom": "Offemont",
          "slug": "offemont",
          "code_postal": "90300",
          "population": 4109,
          "superficie_km2": 6.0,
          "latitude": 47.6629982,
          "longitude": 6.875,
          "distance_km": 5.81
        },
        {
          "code_insee": "90099",
          "nom": "Valdoie",
          "slug": "valdoie",
          "code_postal": "90300",
          "population": 5236,
          "superficie_km2": 5.0,
          "latitude": 47.6710014,
          "longitude": 6.849,
          "distance_km": 5.83
        },
        {
          "code_insee": "90042",
          "nom": "Évette-Salbert",
          "slug": "evette-salbert",
          "code_postal": "90350",
          "population": 2026,
          "superficie_km2": 9.0,
          "latitude": 47.6730003,
          "longitude": 6.796,
          "distance_km": 6.45
        },
        {
          "code_insee": "90097",
          "nom": "Trévenans",
          "slug": "trevenans",
          "code_postal": "90400",
          "population": 1286,
          "superficie_km2": 6.0,
          "latitude": 47.5670013,
          "longitude": 6.869,
          "distance_km": 6.55
        },
        {
          "code_insee": "90068",
          "nom": "Meroux-Moval",
          "slug": "meroux-moval",
          "code_postal": "90400",
          "population": 1405,
          "superficie_km2": 9.0,
          "latitude": 47.5919991,
          "longitude": 6.9099998,
          "distance_km": 6.69
        },
        {
          "code_insee": "90104",
          "nom": "Vézelois",
          "slug": "vezelois",
          "code_postal": "90400",
          "population": 1003,
          "superficie_km2": 9.0,
          "latitude": 47.6090012,
          "longitude": 6.9190001,
          "distance_km": 6.71
        },
        {
          "code_insee": "90022",
          "nom": "Châtenois-les-Forges",
          "slug": "chatenois-les-forges",
          "code_postal": "90700",
          "population": 2616,
          "superficie_km2": 9.0,
          "latitude": 47.5589981,
          "longitude": 6.8340001,
          "distance_km": 6.79
        },
        {
          "code_insee": "70248",
          "nom": "Frahier-et-Chatebier",
          "slug": "frahier-et-chatebier",
          "code_postal": "70400",
          "population": 1377,
          "superficie_km2": 17.0,
          "latitude": 47.6590004,
          "longitude": 6.7509999,
          "distance_km": 7.4
        },
        {
          "code_insee": "70285",
          "nom": "Héricourt",
          "slug": "hericourt",
          "code_postal": "70400",
          "population": 10478,
          "superficie_km2": 18.0,
          "latitude": 47.5699997,
          "longitude": 6.7649999,
          "distance_km": 7.44
        },
        {
          "code_insee": "90026",
          "nom": "Chèvremont",
          "slug": "chevremont",
          "code_postal": "90340",
          "population": 1569,
          "superficie_km2": 9.0,
          "latitude": 47.6279984,
          "longitude": 6.9299998,
          "distance_km": 7.47
        },
        {
          "code_insee": "90017",
          "nom": "Bourogne",
          "slug": "bourogne",
          "code_postal": "90140",
          "population": 1792,
          "superficie_km2": 14.0,
          "latitude": 47.5639992,
          "longitude": 6.9060001,
          "distance_km": 8.39
        },
        {
          "code_insee": "90012",
          "nom": "Bessoncourt",
          "slug": "bessoncourt",
          "code_postal": "90160",
          "population": 1297,
          "superficie_km2": 8.0,
          "latitude": 47.6450005,
          "longitude": 6.9429998,
          "distance_km": 8.84
        },
        {
          "code_insee": "90087",
          "nom": "Roppe",
          "slug": "roppe",
          "code_postal": "90380",
          "population": 1043,
          "superficie_km2": 8.0,
          "latitude": 47.6790009,
          "longitude": 6.9099998,
          "distance_km": 8.84
        }
      ],
      "zonage_abc": "B2",
      "reclassement_abc": "Non",
      "codes_postaux": [
        {
          "code_postal": "90800",
          "libelle_acheminement": "BAVILLIERS"
        }
      ],
      "logement": {
        "logements_total": 2070,
        "residences_principales": 1874,
        "logements_vacants": 177,
        "residences_secondaires": 18,
        "maisons": 1093,
        "appartements": 970,
        "proprietaires": 1082,
        "locataires": 763,
        "hlm": 395,
        "construits_avant_1919": 92,
        "construits_1919_1945": 128,
        "construits_1946_1970": 382,
        "construits_1971_1990": 685,
        "construits_1991_2005": 335,
        "construits_2006_2019": 189,
        "chauffage_electrique": 277,
        "chauffage_fioul": 137,
        "chauffage_gaz_ville": 1291,
        "chauffage_gaz_bouteille": 4,
        "chauffage_autre": 163,
        "menages": 1874,
        "logements_avant_1990": 1287
      },
      "artisans": {
        "monte_escalier": 1,
        "chauffage_pac_clim": 5,
        "isolation": 11,
        "menuiserie": 6,
        "fenetres_velux": 6,
        "couverture_toiture": 4,
        "facade_peinture": 8,
        "portes_volets": 6,
        "piscine": 0,
        "vmc_ventilation": 3,
        "assainissement": 2
      },
      "revenus": {
        "revenu_median": 22290.0,
        "part_menages_imposes": 54.0,
        "taux_pauvrete": 16.0
      },
      "aides_etat": {
        "zone_climatique": "H1",
        "qpv": false,
        "action_coeur_de_ville": false,
        "petites_villes_de_demain": false
      }
    },
    {
      "code_insee": "90009",
      "nom": "Beaucourt",
      "nom_a": null,
      "nom_de": null,
      "slug": "beaucourt",
      "code_postal": "90500",
      "population": 5005,
      "superficie_km2": 5.0,
      "latitude": 47.4869995,
      "longitude": 6.9250002,
      "villes_proches": [
        {
          "code_insee": "25196",
          "nom": "Dasle",
          "slug": "dasle",
          "code_postal": "25230",
          "population": 1379,
          "superficie_km2": 6.0,
          "latitude": 47.4819984,
          "longitude": 6.8969998,
          "distance_km": 2.18
        },
        {
          "code_insee": "25190",
          "nom": "Dampierre-les-Bois",
          "slug": "dampierre-les-bois",
          "code_postal": "25490",
          "population": 1577,
          "superficie_km2": 5.0,
          "latitude": 47.5079994,
          "longitude": 6.9159999,
          "distance_km": 2.43
        },
        {
          "code_insee": "25237",
          "nom": "Fesches-le-Châtel",
          "slug": "fesches-le-chatel",
          "code_postal": "25490",
          "population": 2164,
          "superficie_km2": 3.0,
          "latitude": 47.5200005,
          "longitude": 6.901,
          "distance_km": 4.09
        },
        {
          "code_insee": "25228",
          "nom": "Étupes",
          "slug": "etupes",
          "code_postal": "25460",
          "population": 3715,
          "superficie_km2": 10.0,
          "latitude": 47.5060005,
          "longitude": 6.8740001,
          "distance_km": 4.38
        },
        {
          "code_insee": "90069",
          "nom": "Méziré",
          "slug": "mezire",
          "code_postal": "90120",
          "population": 1281,
          "superficie_km2": 4.0,
          "latitude": 47.5309982,
          "longitude": 6.9229999,
          "distance_km": 4.89
        },
        {
          "code_insee": "25031",
          "nom": "Audincourt",
          "slug": "audincourt",
          "code_postal": "25400",
          "population": 13944,
          "superficie_km2": 9.0,
          "latitude": 47.480999,
          "longitude": 6.855,
          "distance_km": 5.3
        },
        {
          "code_insee": "25555",
          "nom": "Taillecourt",
          "slug": "taillecourt",
          "code_postal": "25400",
          "population": 1121,
          "superficie_km2": 2.0,
          "latitude": 47.4949989,
          "longitude": 6.8540001,
          "distance_km": 5.41
        },
        {
          "code_insee": "25539",
          "nom": "Seloncourt",
          "slug": "seloncourt",
          "code_postal": "25230",
          "population": 5784,
          "superficie_km2": 8.0,
          "latitude": 47.4570007,
          "longitude": 6.8639998,
          "distance_km": 5.67
        },
        {
          "code_insee": "90033",
          "nom": "Delle",
          "slug": "delle",
          "code_postal": "90100",
          "population": 5680,
          "superficie_km2": 9.0,
          "latitude": 47.5089989,
          "longitude": 6.9959998,
          "distance_km": 5.87
        },
        {
          "code_insee": "90072",
          "nom": "Morvillars",
          "slug": "morvillars",
          "code_postal": "90120",
          "population": 1083,
          "superficie_km2": 6.0,
          "latitude": 47.5429993,
          "longitude": 6.9380002,
          "distance_km": 6.3
        },
        {
          "code_insee": "25304",
          "nom": "Hérimoncourt",
          "slug": "herimoncourt",
          "code_postal": "25310",
          "population": 3575,
          "superficie_km2": 7.0,
          "latitude": 47.4360008,
          "longitude": 6.8850002,
          "distance_km": 6.42
        },
        {
          "code_insee": "90053",
          "nom": "Grandvillars",
          "slug": "grandvillars",
          "code_postal": "90600",
          "population": 2978,
          "superficie_km2": 15.0,
          "latitude": 47.5379982,
          "longitude": 6.9699998,
          "distance_km": 6.6
        },
        {
          "code_insee": "25004",
          "nom": "Abbévillers",
          "slug": "abbevillers",
          "code_postal": "25310",
          "population": 1090,
          "superficie_km2": 11.0,
          "latitude": 47.4269981,
          "longitude": 6.9219999,
          "distance_km": 6.68
        },
        {
          "code_insee": "25230",
          "nom": "Exincourt",
          "slug": "exincourt",
          "code_postal": "25400",
          "population": 3245,
          "superficie_km2": 4.0,
          "latitude": 47.5009995,
          "longitude": 6.835,
          "distance_km": 6.94
        },
        {
          "code_insee": "25614",
          "nom": "Vieux-Charmont",
          "slug": "vieux-charmont",
          "code_postal": "25600",
          "population": 2873,
          "superficie_km2": 3.0,
          "latitude": 47.5239983,
          "longitude": 6.8439999,
          "distance_km": 7.34
        },
        {
          "code_insee": "25547",
          "nom": "Sochaux",
          "slug": "sochaux",
          "code_postal": "25600",
          "population": 3795,
          "superficie_km2": 2.0,
          "latitude": 47.5149994,
          "longitude": 6.8299999,
          "distance_km": 7.79
        },
        {
          "code_insee": "25580",
          "nom": "Valentigney",
          "slug": "valentigney",
          "code_postal": "25700",
          "population": 10765,
          "superficie_km2": 10.0,
          "latitude": 47.4650002,
          "longitude": 6.8260002,
          "distance_km": 7.83
        },
        {
          "code_insee": "90056",
          "nom": "Joncherey",
          "slug": "joncherey",
          "code_postal": "90100",
          "population": 1427,
          "superficie_km2": 5.0,
          "latitude": 47.533001,
          "longitude": 7.0110002,
          "distance_km": 8.24
        },
        {
          "code_insee": "25428",
          "nom": "Nommay",
          "slug": "nommay",
          "code_postal": "25600",
          "population": 1606,
          "superficie_km2": 3.0,
          "latitude": 47.5400009,
          "longitude": 6.8470001,
          "distance_km": 8.31
        },
        {
          "code_insee": "90017",
          "nom": "Bourogne",
          "slug": "bourogne",
          "code_postal": "90140",
          "population": 1792,
          "superficie_km2": 14.0,
          "latitude": 47.5639992,
          "longitude": 6.9060001,
          "distance_km": 8.68
        }
      ],
      "zonage_abc": "B2",
      "reclassement_abc": "Reclassement",
      "codes_postaux": [
        {
          "code_postal": "90500",
          "libelle_acheminement": "BEAUCOURT"
        }
      ],
      "logement": {
        "logements_total": 2574,
        "residences_principales": 2231,
        "logements_vacants": 308,
        "residences_secondaires": 34,
        "maisons": 1339,
        "appartements": 1196,
        "proprietaires": 1276,
        "locataires": 916,
        "hlm": 379,
        "construits_avant_1919": 360,
        "construits_1919_1945": 269,
        "construits_1946_1970": 485,
        "construits_1971_1990": 579,
        "construits_1991_2005": 215,
        "construits_2006_2019": 272,
        "chauffage_electrique": 523,
        "chauffage_fioul": 364,
        "chauffage_gaz_ville": 995,
        "chauffage_gaz_bouteille": 10,
        "chauffage_autre": 337,
        "menages": 2231,
        "logements_avant_1990": 1693
      },
      "artisans": {
        "monte_escalier": 0,
        "chauffage_pac_clim": 10,
        "isolation": 4,
        "menuiserie": 4,
        "fenetres_velux": 4,
        "couverture_toiture": 0,
        "facade_peinture": 2,
        "portes_volets": 4,
        "piscine": 0,
        "vmc_ventilation": 6,
        "assainissement": 5
      },
      "revenus": {
        "revenu_median": 21880.0,
        "part_menages_imposes": 49.0,
        "taux_pauvrete": 14.0
      },
      "aides_etat": {
        "zone_climatique": "H1",
        "qpv": false,
        "action_coeur_de_ville": false,
        "petites_villes_de_demain": true
      }
    },
    {
      "code_insee": "90010",
      "nom": "Belfort",
      "nom_a": null,
      "nom_de": null,
      "slug": "belfort",
      "code_postal": "90000",
      "population": 45155,
      "superficie_km2": 17.0,
      "latitude": 47.6469994,
      "longitude": 6.8449998,
      "villes_proches": [
        {
          "code_insee": "90029",
          "nom": "Cravanche",
          "slug": "cravanche",
          "code_postal": "90300",
          "population": 1928,
          "superficie_km2": 1.0,
          "latitude": 47.6520004,
          "longitude": 6.8239999,
          "distance_km": 1.67
        },
        {
          "code_insee": "90099",
          "nom": "Valdoie",
          "slug": "valdoie",
          "code_postal": "90300",
          "population": 5236,
          "superficie_km2": 5.0,
          "latitude": 47.6710014,
          "longitude": 6.849,
          "distance_km": 2.69
        },
        {
          "code_insee": "90039",
          "nom": "Essert",
          "slug": "essert",
          "code_postal": "90850",
          "population": 3348,
          "superficie_km2": 7.0,
          "latitude": 47.637001,
          "longitude": 6.8119998,
          "distance_km": 2.71
        },
        {
          "code_insee": "90075",
          "nom": "Offemont",
          "slug": "offemont",
          "code_postal": "90300",
          "population": 4109,
          "superficie_km2": 6.0,
          "latitude": 47.6629982,
          "longitude": 6.875,
          "distance_km": 2.87
        },
        {
          "code_insee": "90008",
          "nom": "Bavilliers",
          "slug": "bavilliers",
          "code_postal": "90800",
          "population": 4595,
          "superficie_km2": 5.0,
          "latitude": 47.6199989,
          "longitude": 6.8309999,
          "distance_km": 3.18
        },
        {
          "code_insee": "90032",
          "nom": "Danjoutin",
          "slug": "danjoutin",
          "code_postal": "90400",
          "population": 3541,
          "superficie_km2": 6.0,
          "latitude": 47.618,
          "longitude": 6.8660002,
          "distance_km": 3.59
        },
        {
          "code_insee": "90076",
          "nom": "Pérouse",
          "slug": "perouse",
          "code_postal": "90160",
          "population": 1199,
          "superficie_km2": 5.0,
          "latitude": 47.6360016,
          "longitude": 6.8940001,
          "distance_km": 3.87
        },
        {
          "code_insee": "90042",
          "nom": "Évette-Salbert",
          "slug": "evette-salbert",
          "code_postal": "90350",
          "population": 2026,
          "superficie_km2": 9.0,
          "latitude": 47.6730003,
          "longitude": 6.796,
          "distance_km": 4.67
        },
        {
          "code_insee": "90001",
          "nom": "Andelnans",
          "slug": "andelnans",
          "code_postal": "90400",
          "population": 1153,
          "superficie_km2": 4.0,
          "latitude": 47.6030006,
          "longitude": 6.8660002,
          "distance_km": 5.14
        },
        {
          "code_insee": "70117",
          "nom": "Châlonvillars",
          "slug": "chalonvillars",
          "code_postal": "70400",
          "population": 1242,
          "superficie_km2": 8.0,
          "latitude": 47.6380005,
          "longitude": 6.777,
          "distance_km": 5.19
        },
        {
          "code_insee": "90087",
          "nom": "Roppe",
          "slug": "roppe",
          "code_postal": "90380",
          "population": 1043,
          "superficie_km2": 8.0,
          "latitude": 47.6790009,
          "longitude": 6.9099998,
          "distance_km": 6.03
        },
        {
          "code_insee": "90026",
          "nom": "Chèvremont",
          "slug": "chevremont",
          "code_postal": "90340",
          "population": 1569,
          "superficie_km2": 9.0,
          "latitude": 47.6279984,
          "longitude": 6.9299998,
          "distance_km": 6.71
        },
        {
          "code_insee": "90104",
          "nom": "Vézelois",
          "slug": "vezelois",
          "code_postal": "90400",
          "population": 1003,
          "superficie_km2": 9.0,
          "latitude": 47.6090012,
          "longitude": 6.9190001,
          "distance_km": 6.97
        },
        {
          "code_insee": "70248",
          "nom": "Frahier-et-Chatebier",
          "slug": "frahier-et-chatebier",
          "code_postal": "70400",
          "population": 1377,
          "superficie_km2": 17.0,
          "latitude": 47.6590004,
          "longitude": 6.7509999,
          "distance_km": 7.17
        },
        {
          "code_insee": "90023",
          "nom": "Chaux",
          "slug": "chaux",
          "code_postal": "90330",
          "population": 1179,
          "superficie_km2": 9.0,
          "latitude": 47.7120018,
          "longitude": 6.8379998,
          "distance_km": 7.25
        },
        {
          "code_insee": "90012",
          "nom": "Bessoncourt",
          "slug": "bessoncourt",
          "code_postal": "90160",
          "population": 1297,
          "superficie_km2": 8.0,
          "latitude": 47.6450005,
          "longitude": 6.9429998,
          "distance_km": 7.34
        },
        {
          "code_insee": "90068",
          "nom": "Meroux-Moval",
          "slug": "meroux-moval",
          "code_postal": "90400",
          "population": 1405,
          "superficie_km2": 9.0,
          "latitude": 47.5919991,
          "longitude": 6.9099998,
          "distance_km": 7.82
        },
        {
          "code_insee": "90097",
          "nom": "Trévenans",
          "slug": "trevenans",
          "code_postal": "90400",
          "population": 1286,
          "superficie_km2": 6.0,
          "latitude": 47.5670013,
          "longitude": 6.869,
          "distance_km": 9.08
        },
        {
          "code_insee": "90022",
          "nom": "Châtenois-les-Forges",
          "slug": "chatenois-les-forges",
          "code_postal": "90700",
          "population": 2616,
          "superficie_km2": 9.0,
          "latitude": 47.5589981,
          "longitude": 6.8340001,
          "distance_km": 9.82
        },
        {
          "code_insee": "90041",
          "nom": "Étueffont",
          "slug": "etueffont",
          "code_postal": "90170",
          "population": 1394,
          "superficie_km2": 13.0,
          "latitude": 47.7260017,
          "longitude": 6.915,
          "distance_km": 10.23
        }
      ],
      "zonage_abc": "B2",
      "reclassement_abc": "Non",
      "codes_postaux": [
        {
          "code_postal": "90000",
          "libelle_acheminement": "BELFORT"
        }
      ],
      "logement": {
        "logements_total": 27561,
        "residences_principales": 23385,
        "logements_vacants": 3635,
        "residences_secondaires": 540,
        "maisons": 3374,
        "appartements": 23853,
        "proprietaires": 7488,
        "locataires": 15385,
        "hlm": 7210,
        "construits_avant_1919": 1812,
        "construits_1919_1945": 3234,
        "construits_1946_1970": 7949,
        "construits_1971_1990": 6079,
        "construits_1991_2005": 2722,
        "construits_2006_2019": 1504,
        "chauffage_electrique": 3128,
        "chauffage_fioul": 1156,
        "chauffage_gaz_ville": 18472,
        "chauffage_gaz_bouteille": 66,
        "chauffage_autre": 561,
        "menages": 23385,
        "logements_avant_1990": 19074
      },
      "artisans": {
        "monte_escalier": 2,
        "chauffage_pac_clim": 37,
        "isolation": 103,
        "menuiserie": 32,
        "fenetres_velux": 32,
        "couverture_toiture": 13,
        "facade_peinture": 86,
        "portes_volets": 32,
        "piscine": 6,
        "vmc_ventilation": 24,
        "assainissement": 16
      },
      "revenus": {
        "revenu_median": 18750.0,
        "part_menages_imposes": 42.0,
        "taux_pauvrete": 25.0
      },
      "aides_etat": {
        "zone_climatique": "H1",
        "qpv": true,
        "action_coeur_de_ville": true,
        "petites_villes_de_demain": false
      }
    },
    {
      "code_insee": "90011",
      "nom": "Bermont",
      "nom_a": null,
      "nom_de": null,
      "slug": "bermont",
      "code_postal": "90400",
      "population": 358,
      "superficie_km2": 284.07,
      "latitude": 47.5757,
      "longitude": 6.8416,
      "villes_proches": [
        {
          "code_insee": "90035",
          "nom": "Dorans",
          "slug": "dorans",
          "code_postal": "90400",
          "population": 824,
          "superficie_km2": 381.64,
          "latitude": 47.5865,
          "longitude": 6.8398,
          "distance_km": 1.21
        },
        {
          "code_insee": "90022",
          "nom": "Châtenois-les-Forges",
          "slug": "chatenois-les-forges",
          "code_postal": "90700",
          "population": 2608,
          "superficie_km2": 873.06,
          "latitude": 47.5602,
          "longitude": 6.834,
          "distance_km": 1.82
        },
        {
          "code_insee": "90015",
          "nom": "Botans",
          "slug": "botans",
          "code_postal": "90400",
          "population": 249,
          "superficie_km2": 229.06,
          "latitude": 47.5955,
          "longitude": 6.8502,
          "distance_km": 2.29
        },
        {
          "code_insee": "90097",
          "nom": "Trévenans",
          "slug": "trevenans",
          "code_postal": "90400",
          "population": 1310,
          "superficie_km2": 592.23,
          "latitude": 47.5663,
          "longitude": 6.8696,
          "distance_km": 2.35
        },
        {
          "code_insee": "90007",
          "nom": "Banvillars",
          "slug": "banvillars",
          "code_postal": "90800",
          "population": 289,
          "superficie_km2": 463.14,
          "latitude": 47.5881,
          "longitude": 6.8127,
          "distance_km": 2.57
        },
        {
          "code_insee": "90094",
          "nom": "Sevenans",
          "slug": "sevenans",
          "code_postal": "90400",
          "population": 688,
          "superficie_km2": 204.84,
          "latitude": 47.5898,
          "longitude": 6.8718,
          "distance_km": 2.75
        },
        {
          "code_insee": "70096",
          "nom": "Brevilliers",
          "slug": "brevilliers",
          "code_postal": "70400",
          "population": 626,
          "superficie_km2": 648.73,
          "latitude": 47.5794,
          "longitude": 6.7997,
          "distance_km": 3.17
        },
        {
          "code_insee": "90001",
          "nom": "Andelnans",
          "slug": "andelnans",
          "code_postal": "90400",
          "population": 1093,
          "superficie_km2": 419.32,
          "latitude": 47.6017,
          "longitude": 6.8628,
          "distance_km": 3.3
        },
        {
          "code_insee": "90004",
          "nom": "Argiésans",
          "slug": "argiesans",
          "code_postal": "90800",
          "population": 607,
          "superficie_km2": 279.85,
          "latitude": 47.6072,
          "longitude": 6.8207,
          "distance_km": 3.84
        },
        {
          "code_insee": "25188",
          "nom": "Dambenois",
          "slug": "dambenois",
          "code_postal": "25600",
          "population": 733,
          "superficie_km2": 328.37,
          "latitude": 47.5447,
          "longitude": 6.8735,
          "distance_km": 4.2
        },
        {
          "code_insee": "25428",
          "nom": "Nommay",
          "slug": "nommay",
          "code_postal": "25600",
          "population": 1596,
          "superficie_km2": 325.16,
          "latitude": 47.537,
          "longitude": 6.8454,
          "distance_km": 4.31
        },
        {
          "code_insee": "25284",
          "nom": "Grand-Charmont",
          "slug": "grand-charmont",
          "code_postal": "25200",
          "population": 5873,
          "superficie_km2": 450.4,
          "latitude": 47.5332,
          "longitude": 6.823,
          "distance_km": 4.93
        },
        {
          "code_insee": "25057",
          "nom": "Bethoncourt",
          "slug": "bethoncourt",
          "code_postal": "25200",
          "population": 5308,
          "superficie_km2": 659.95,
          "latitude": 47.5418,
          "longitude": 6.7988,
          "distance_km": 4.95
        },
        {
          "code_insee": "90098",
          "nom": "Urcerey",
          "slug": "urcerey",
          "code_postal": "90800",
          "population": 257,
          "superficie_km2": 336.7,
          "latitude": 47.6118,
          "longitude": 6.8026,
          "distance_km": 4.97
        },
        {
          "code_insee": "90017",
          "nom": "Bourogne",
          "slug": "bourogne",
          "code_postal": "90140",
          "population": 1741,
          "superficie_km2": 1357.4,
          "latitude": 47.5623,
          "longitude": 6.9063,
          "distance_km": 5.08
        },
        {
          "code_insee": "90032",
          "nom": "Danjoutin",
          "slug": "danjoutin",
          "code_postal": "90400",
          "population": 3519,
          "superficie_km2": 561.82,
          "latitude": 47.6187,
          "longitude": 6.8647,
          "distance_km": 5.09
        },
        {
          "code_insee": "90008",
          "nom": "Bavilliers",
          "slug": "bavilliers",
          "code_postal": "90800",
          "population": 4678,
          "superficie_km2": 475.7,
          "latitude": 47.6214,
          "longitude": 6.8275,
          "distance_km": 5.19
        },
        {
          "code_insee": "25097",
          "nom": "Brognard",
          "slug": "brognard",
          "code_postal": "25600",
          "population": 471,
          "superficie_km2": 290.11,
          "latitude": 47.5279,
          "longitude": 6.8653,
          "distance_km": 5.6
        },
        {
          "code_insee": "25614",
          "nom": "Vieux-Charmont",
          "slug": "vieux-charmont",
          "code_postal": "25600",
          "population": 2786,
          "superficie_km2": 253.53,
          "latitude": 47.525,
          "longitude": 6.8431,
          "distance_km": 5.64
        },
        {
          "code_insee": "25547",
          "nom": "Sochaux",
          "slug": "sochaux",
          "code_postal": "25600",
          "population": 3721,
          "superficie_km2": 217.05,
          "latitude": 47.5146,
          "longitude": 6.8305,
          "distance_km": 6.84
        }
      ],
      "zonage_abc": "B2",
      "reclassement_abc": "Non",
      "codes_postaux": [
        {
          "code_postal": "90400",
          "libelle_acheminement": "BERMONT"
        }
      ],
      "logement": {
        "logements_total": 170,
        "residences_principales": 156,
        "logements_vacants": 13,
        "residences_secondaires": 1,
        "maisons": 135,
        "appartements": 33,
        "proprietaires": 115,
        "locataires": 39,
        "hlm": 11,
        "construits_avant_1919": 19,
        "construits_1919_1945": 2,
        "construits_1946_1970": 12,
        "construits_1971_1990": 49,
        "construits_1991_2005": 26,
        "construits_2006_2019": 45,
        "chauffage_electrique": 70,
        "chauffage_fioul": 46,
        "chauffage_gaz_ville": 3,
        "chauffage_gaz_bouteille": 2,
        "chauffage_autre": 33,
        "menages": 156,
        "logements_avant_1990": 82
      },
      "artisans": {
        "monte_escalier": 0,
        "chauffage_pac_clim": 0,
        "isolation": 1,
        "menuiserie": 0,
        "fenetres_velux": 0,
        "couverture_toiture": 0,
        "facade_peinture": 0,
        "portes_volets": 0,
        "piscine": 1,
        "vmc_ventilation": 0,
        "assainissement": 0
      },
      "revenus": {
        "revenu_median": 28420.0,
        "part_menages_imposes": null,
        "taux_pauvrete": null
      },
      "aides_etat": {
        "zone_climatique": "H1",
        "qpv": false,
        "action_coeur_de_ville": false,
        "petites_villes_de_demain": false
      }
    },
    {
      "code_insee": "90012",
      "nom": "Bessoncourt",
      "nom_a": null,
      "nom_de": null,
      "slug": "bessoncourt",
      "code_postal": "90160",
      "population": 1297,
      "superficie_km2": 8.0,
      "latitude": 47.6450005,
      "longitude": 6.9429998,
      "villes_proches": [
        {
          "code_insee": "90026",
          "nom": "Chèvremont",
          "slug": "chevremont",
          "code_postal": "90340",
          "population": 1569,
          "superficie_km2": 9.0,
          "latitude": 47.6279984,
          "longitude": 6.9299998,
          "distance_km": 2.13
        },
        {
          "code_insee": "90076",
          "nom": "Pérouse",
          "slug": "perouse",
          "code_postal": "90160",
          "population": 1199,
          "superficie_km2": 5.0,
          "latitude": 47.6360016,
          "longitude": 6.8940001,
          "distance_km": 3.81
        },
        {
          "code_insee": "90104",
          "nom": "Vézelois",
          "slug": "vezelois",
          "code_postal": "90400",
          "population": 1003,
          "superficie_km2": 9.0,
          "latitude": 47.6090012,
          "longitude": 6.9190001,
          "distance_km": 4.39
        },
        {
          "code_insee": "90087",
          "nom": "Roppe",
          "slug": "roppe",
          "code_postal": "90380",
          "population": 1043,
          "superficie_km2": 8.0,
          "latitude": 47.6790009,
          "longitude": 6.9099998,
          "distance_km": 4.52
        },
        {
          "code_insee": "90075",
          "nom": "Offemont",
          "slug": "offemont",
          "code_postal": "90300",
          "population": 4109,
          "superficie_km2": 6.0,
          "latitude": 47.6629982,
          "longitude": 6.875,
          "distance_km": 5.47
        },
        {
          "code_insee": "90071",
          "nom": "Montreux-Château",
          "slug": "montreux-chateau",
          "code_postal": "90130",
          "population": 1174,
          "superficie_km2": 5.0,
          "latitude": 47.6080017,
          "longitude": 6.994,
          "distance_km": 5.62
        },