{
  "departement": {
    "code": "92",
    "nom": "Hauts-de-Seine",
    "slug": "hauts-de-seine",
    "population_totale": 1636336
  },
  "region": {
    "id": 11,
    "code": "10",
    "nom": "Île-de-France",
    "slug": "ile-de-france"
  },
  "voisins": [
    {
      "dep_code": "75",
      "dep_nom": "Paris",
      "dep_slug": "paris"
    },
    {
      "dep_code": "77",
      "dep_nom": "Seine-et-Marne",
      "dep_slug": "seine-et-marne"
    },
    {
      "dep_code": "78",
      "dep_nom": "Yvelines",
      "dep_slug": "yvelines"
    },
    {
      "dep_code": "91",
      "dep_nom": "Essonne",
      "dep_slug": "essonne"
    }
  ],
  "communes_count": 36,
  "communes": [
    {
      "code_insee": "92002",
      "nom": "Antony",
      "nom_a": null,
      "nom_de": null,
      "slug": "antony",
      "code_postal": "92160",
      "population": 63232,
      "superficie_km2": 10.0,
      "latitude": 48.75,
      "longitude": 2.299,
      "villes_proches": [
        {
          "code_insee": "94034",
          "nom": "Fresnes",
          "slug": "fresnes",
          "code_postal": "94260",
          "population": 28780,
          "superficie_km2": 4.0,
          "latitude": 48.757,
          "longitude": 2.326,
          "distance_km": 2.13
        },
        {
          "code_insee": "91377",
          "nom": "Massy",
          "slug": "massy",
          "code_postal": "91300",
          "population": 50962,
          "superficie_km2": 9.0,
          "latitude": 48.7280006,
          "longitude": 2.2750001,
          "distance_km": 3.01
        },
        {
          "code_insee": "92071",
          "nom": "Sceaux",
          "slug": "sceaux",
          "code_postal": "92330",
          "population": 20488,
          "superficie_km2": 4.0,
          "latitude": 48.7770004,
          "longitude": 2.2950001,
          "distance_km": 3.02
        },
        {
          "code_insee": "91689",
          "nom": "Wissous",
          "slug": "wissous",
          "code_postal": "91320",
          "population": 6991,
          "superficie_km2": 9.0,
          "latitude": 48.7299995,
          "longitude": 2.329,
          "distance_km": 3.13
        },
        {
          "code_insee": "92019",
          "nom": "Châtenay-Malabry",
          "slug": "chatenay-malabry",
          "code_postal": "92290",
          "population": 34898,
          "superficie_km2": 6.0,
          "latitude": 48.7680016,
          "longitude": 2.263,
          "distance_km": 3.31
        },
        {
          "code_insee": "91645",
          "nom": "Verrières-le-Buisson",
          "slug": "verrieres-le-buisson",
          "code_postal": "91370",
          "population": 14597,
          "superficie_km2": 10.0,
          "latitude": 48.75,
          "longitude": 2.2520001,
          "distance_km": 3.45
        },
        {
          "code_insee": "92014",
          "nom": "Bourg-la-Reine",
          "slug": "bourg-la-reine",
          "code_postal": "92340",
          "population": 20810,
          "superficie_km2": 2.0,
          "latitude": 48.7799988,
          "longitude": 2.316,
          "distance_km": 3.56
        },
        {
          "code_insee": "94065",
          "nom": "Rungis",
          "slug": "rungis",
          "code_postal": "94150",
          "population": 5647,
          "superficie_km2": 4.0,
          "latitude": 48.75,
          "longitude": 2.3529999,
          "distance_km": 3.96
        },
        {
          "code_insee": "94038",
          "nom": "L'Haÿ-les-Roses",
          "slug": "l-hay-les-roses",
          "code_postal": "94240",
          "population": 31392,
          "superficie_km2": 4.0,
          "latitude": 48.776001,
          "longitude": 2.3380001,
          "distance_km": 4.07
        },
        {
          "code_insee": "92060",
          "nom": "Le Plessis-Robinson",
          "slug": "le-plessis-robinson",
          "code_postal": "92350",
          "population": 29228,
          "superficie_km2": 3.0,
          "latitude": 48.7799988,
          "longitude": 2.2609999,
          "distance_km": 4.35
        },
        {
          "code_insee": "94021",
          "nom": "Chevilly-Larue",
          "slug": "chevilly-larue",
          "code_postal": "94550",
          "population": 20326,
          "superficie_km2": 4.0,
          "latitude": 48.7669983,
          "longitude": 2.3529999,
          "distance_km": 4.39
        },
        {
          "code_insee": "92032",
          "nom": "Fontenay-aux-Roses",
          "slug": "fontenay-aux-roses",
          "code_postal": "92260",
          "population": 24772,
          "superficie_km2": 3.0,
          "latitude": 48.7900009,
          "longitude": 2.2869999,
          "distance_km": 4.53
        },
        {
          "code_insee": "91161",
          "nom": "Chilly-Mazarin",
          "slug": "chilly-mazarin",
          "code_postal": "91380",
          "population": 19938,
          "superficie_km2": 6.0,
          "latitude": 48.7080002,
          "longitude": 2.3110001,
          "distance_km": 4.75
        },
        {
          "code_insee": "91136",
          "nom": "Champlan",
          "slug": "champlan",
          "code_postal": "91160",
          "population": 2597,
          "superficie_km2": 4.0,
          "latitude": 48.7080002,
          "longitude": 2.2780001,
          "distance_km": 4.92
        },
        {
          "code_insee": "94016",
          "nom": "Cachan",
          "slug": "cachan",
          "code_postal": "94230",
          "population": 30592,
          "superficie_km2": 3.0,
          "latitude": 48.7919998,
          "longitude": 2.332,
          "distance_km": 5.26
        },
        {
          "code_insee": "91479",
          "nom": "Paray-Vieille-Poste",
          "slug": "paray-vieille-poste",
          "code_postal": "91550",
          "population": 7868,
          "superficie_km2": 6.0,
          "latitude": 48.723999,
          "longitude": 2.3599999,
          "distance_km": 5.33
        },
        {
          "code_insee": "92007",
          "nom": "Bagneux",
          "slug": "bagneux",
          "code_postal": "92220",
          "population": 43699,
          "superficie_km2": 4.0,
          "latitude": 48.7980003,
          "longitude": 2.3099999,
          "distance_km": 5.4
        },
        {
          "code_insee": "91312",
          "nom": "Igny",
          "slug": "igny",
          "code_postal": "91430",
          "population": 10213,
          "superficie_km2": 4.0,
          "latitude": 48.7360001,
          "longitude": 2.224,
          "distance_km": 5.72
        },
        {
          "code_insee": "91432",
          "nom": "Morangis",
          "slug": "morangis",
          "code_postal": "91420",
          "population": 13211,
          "superficie_km2": 5.0,
          "latitude": 48.7029991,
          "longitude": 2.336,
          "distance_km": 5.89
        },
        {
          "code_insee": "92020",
          "nom": "Châtillon",
          "slug": "chatillon",
          "code_postal": "92320",
          "population": 36777,
          "superficie_km2": 3.0,
          "latitude": 48.8030014,
          "longitude": 2.2880001,
          "distance_km": 5.95
        }
      ],
      "zonage_abc": "Abis",
      "reclassement_abc": "Non",
      "codes_postaux": [
        {
          "code_postal": "92160",
          "libelle_acheminement": "ANTONY"
        }
      ],
      "logement": {
        "logements_total": 30549,
        "residences_principales": 27821,
        "logements_vacants": 2121,
        "residences_secondaires": 606,
        "maisons": 9201,
        "appartements": 21025,
        "proprietaires": 15887,
        "locataires": 11325,
        "hlm": 4819,
        "construits_avant_1919": 462,
        "construits_1919_1945": 2232,
        "construits_1946_1970": 8732,
        "construits_1971_1990": 7402,
        "construits_1991_2005": 4365,
        "construits_2006_2019": 4351,
        "chauffage_electrique": 9565,
        "chauffage_fioul": 966,
        "chauffage_gaz_ville": 16735,
        "chauffage_gaz_bouteille": 88,
        "chauffage_autre": 464,
        "menages": 27821,
        "logements_avant_1990": 18828
      },
      "artisans": {
        "monte_escalier": 7,
        "chauffage_pac_clim": 65,
        "isolation": 26,
        "menuiserie": 49,
        "fenetres_velux": 49,
        "couverture_toiture": 18,
        "facade_peinture": 68,
        "portes_volets": 49,
        "piscine": 14,
        "vmc_ventilation": 21,
        "assainissement": 47
      },
      "revenus": {
        "revenu_median": 30990.0,
        "part_menages_imposes": 74.0,
        "taux_pauvrete": 8.0
      },
      "aides_etat": {
        "zone_climatique": "H1",
        "qpv": true,
        "action_coeur_de_ville": false,
        "petites_villes_de_demain": false
      }
    },
    {
      "code_insee": "92004",
      "nom": "Asnières-sur-Seine",
      "nom_a": null,
      "nom_de": null,
      "slug": "asnieres-sur-seine",
      "code_postal": "92600",
      "population": 89662,
      "superficie_km2": 5.0,
      "latitude": 48.9150009,
      "longitude": 2.2880001,
      "villes_proches": [
        {
          "code_insee": "92009",
          "nom": "Bois-Colombes",
          "slug": "bois-colombes",
          "code_postal": "92270",
          "population": 29765,
          "superficie_km2": 2.0,
          "latitude": 48.9150009,
          "longitude": 2.267,
          "distance_km": 1.53
        },
        {
          "code_insee": "92024",
          "nom": "Clichy",
          "slug": "clichy",
          "code_postal": "92110",
          "population": 64849,
          "superficie_km2": 3.0,
          "latitude": 48.9039993,
          "longitude": 2.306,
          "distance_km": 1.8
        },
        {
          "code_insee": "92036",
          "nom": "Gennevilliers",
          "slug": "gennevilliers",
          "code_postal": "92230",
          "population": 49410,
          "superficie_km2": 12.0,
          "latitude": 48.9339981,
          "longitude": 2.2939999,
          "distance_km": 2.16
        },
        {
          "code_insee": "92044",
          "nom": "Levallois-Perret",
          "slug": "levallois-perret",
          "code_postal": "92300",
          "population": 68009,
          "superficie_km2": 2.0,
          "latitude": 48.8950005,
          "longitude": 2.2869999,
          "distance_km": 2.23
        },
        {
          "code_insee": "92026",
          "nom": "Courbevoie",
          "slug": "courbevoie",
          "code_postal": "92400",
          "population": 81516,
          "superficie_km2": 4.0,
          "latitude": 48.8979988,
          "longitude": 2.256,
          "distance_km": 3.01
        },
        {
          "code_insee": "92025",
          "nom": "Colombes",
          "slug": "colombes",
          "code_postal": "92700",
          "population": 88870,
          "superficie_km2": 8.0,
          "latitude": 48.9220009,
          "longitude": 2.247,
          "distance_km": 3.1
        },
        {
          "code_insee": "92035",
          "nom": "La Garenne-Colombes",
          "slug": "la-garenne-colombes",
          "code_postal": "92250",
          "population": 29932,
          "superficie_km2": 2.0,
          "latitude": 48.9070015,
          "longitude": 2.2449999,
          "distance_km": 3.27
        },
        {
          "code_insee": "93070",
          "nom": "Saint-Ouen-sur-Seine",
          "slug": "saint-ouen-sur-seine",
          "code_postal": "93400",
          "population": 53207,
          "superficie_km2": 4.0,
          "latitude": 48.9099999,
          "longitude": 2.3329999,
          "distance_km": 3.34
        },
        {
          "code_insee": "92078",
          "nom": "Villeneuve-la-Garenne",
          "slug": "villeneuve-la-garenne",
          "code_postal": "92390",
          "population": 25371,
          "superficie_km2": 3.0,
          "latitude": 48.9360008,
          "longitude": 2.3239999,
          "distance_km": 3.52
        },
        {
          "code_insee": "92051",
          "nom": "Neuilly-sur-Seine",
          "slug": "neuilly-sur-seine",
          "code_postal": "92200",
          "population": 59267,
          "superficie_km2": 4.0,
          "latitude": 48.8849983,
          "longitude": 2.266,
          "distance_km": 3.7
        },
        {
          "code_insee": "93039",
          "nom": "L'Île-Saint-Denis",
          "slug": "l-ile-saint-denis",
          "code_postal": "93450",
          "population": 8664,
          "superficie_km2": 2.0,
          "latitude": 48.9399986,
          "longitude": 2.326,
          "distance_km": 3.93
        },
        {
          "code_insee": "93031",
          "nom": "Épinay-sur-Seine",
          "slug": "epinay-sur-seine",
          "code_postal": "93800",
          "population": 53489,
          "superficie_km2": 5.0,
          "latitude": 48.9550018,
          "longitude": 2.3139999,
          "distance_km": 4.84
        },
        {
          "code_insee": "92062",
          "nom": "Puteaux",
          "slug": "puteaux",
          "code_postal": "92800",
          "population": 43672,
          "superficie_km2": 3.0,
          "latitude": 48.8839989,
          "longitude": 2.2379999,
          "distance_km": 5.02
        },
        {
          "code_insee": "95018",
          "nom": "Argenteuil",
          "slug": "argenteuil",
          "code_postal": "95100",
          "population": 107221,
          "superficie_km2": 17.0,
          "latitude": 48.9510002,
          "longitude": 2.2409999,
          "distance_km": 5.27
        },
        {
          "code_insee": "93066",
          "nom": "Saint-Denis",
          "slug": "saint-denis",
          "code_postal": "93210",
          "population": 113942,
          "superficie_km2": 12.0,
          "latitude": 48.9300003,
          "longitude": 2.359,
          "distance_km": 5.45
        },
        {
          "code_insee": "95063",
          "nom": "Bezons",
          "slug": "bezons",
          "code_postal": "95870",
          "population": 32017,
          "superficie_km2": 4.0,
          "latitude": 48.9259987,
          "longitude": 2.211,
          "distance_km": 5.76
        },
        {
          "code_insee": "95555",
          "nom": "Saint-Gratien",
          "slug": "saint-gratien",
          "code_postal": "95210",
          "population": 20866,
          "superficie_km2": 3.0,
          "latitude": 48.9690018,
          "longitude": 2.2850001,
          "distance_km": 6.01
        },
        {
          "code_insee": "95210",
          "nom": "Enghien-les-Bains",
          "slug": "enghien-les-bains",
          "code_postal": "95880",
          "population": 11440,
          "superficie_km2": 2.0,
          "latitude": 48.9700012,
          "longitude": 2.3050001,
          "distance_km": 6.24
        },
        {
          "code_insee": "93079",
          "nom": "Villetaneuse",
          "slug": "villetaneuse",
          "code_postal": "93430",
          "population": 12663,
          "superficie_km2": 2.0,
          "latitude": 48.9570007,
          "longitude": 2.345,
          "distance_km": 6.26
        },
        {
          "code_insee": "92050",
          "nom": "Nanterre",
          "slug": "nanterre",
          "code_postal": "92000",
          "population": 97351,
          "superficie_km2": 12.0,
          "latitude": 48.8959999,
          "longitude": 2.207,
          "distance_km": 6.29
        }
      ],
      "zonage_abc": "Abis",
      "reclassement_abc": "Non",
      "codes_postaux": [
        {
          "code_postal": "92600",
          "libelle_acheminement": "ASNIERES SUR SEINE"
        }
      ],
      "logement": {
        "logements_total": 46364,
        "residences_principales": 40602,
        "logements_vacants": 4038,
        "residences_secondaires": 1723,
        "maisons": 3508,
        "appartements": 42501,
        "proprietaires": 16917,
        "locataires": 22956,
        "hlm": 7668,
        "construits_avant_1919": 3490,
        "construits_1919_1945": 7985,
        "construits_1946_1970": 9402,
        "construits_1971_1990": 8757,
        "construits_1991_2005": 5679,
        "construits_2006_2019": 4658,
        "chauffage_electrique": 15120,
        "chauffage_fioul": 1911,
        "chauffage_gaz_ville": 23174,
        "chauffage_gaz_bouteille": 153,
        "chauffage_autre": 243,
        "menages": 40602,
        "logements_avant_1990": 29634
      },
      "artisans": {
        "monte_escalier": 8,
        "chauffage_pac_clim": 139,
        "isolation": 59,
        "menuiserie": 90,
        "fenetres_velux": 90,
        "couverture_toiture": 19,
        "facade_peinture": 226,
        "portes_volets": 90,
        "piscine": 4,
        "vmc_ventilation": 47,
        "assainissement": 96
      },
      "revenus": {
        "revenu_median": 27310.0,
        "part_menages_imposes": 68.0,
        "taux_pauvrete": 15.0
      },
      "aides_etat": {
        "zone_climatique": "H1",
        "qpv": true,
        "action_coeur_de_ville": false,
        "petites_villes_de_demain": false
      }
    },
    {
      "code_insee": "92007",
      "nom": "Bagneux",
      "nom_a": null,
      "nom_de": null,
      "slug": "bagneux",
      "code_postal": "92220",
      "population": 43699,
      "superficie_km2": 4.0,
      "latitude": 48.7980003,
      "longitude": 2.3099999,
      "villes_proches": [
        {
          "code_insee": "92020",
          "nom": "Châtillon",
          "slug": "chatillon",
          "code_postal": "92320",
          "population": 36777,
          "superficie_km2": 3.0,
          "latitude": 48.8030014,
          "longitude": 2.2880001,
          "distance_km": 1.7
        },
        {
          "code_insee": "94016",
          "nom": "Cachan",
          "slug": "cachan",
          "code_postal": "94230",
          "population": 30592,
          "superficie_km2": 3.0,
          "latitude": 48.7919998,
          "longitude": 2.332,
          "distance_km": 1.74
        },
        {
          "code_insee": "92032",
          "nom": "Fontenay-aux-Roses",
          "slug": "fontenay-aux-roses",
          "code_postal": "92260",
          "population": 24772,
          "superficie_km2": 3.0,
          "latitude": 48.7900009,
          "longitude": 2.2869999,
          "distance_km": 1.91
        },
        {
          "code_insee": "92049",
          "nom": "Montrouge",
          "slug": "montrouge",
          "code_postal": "92120",
          "population": 47657,
          "superficie_km2": 2.0,
          "latitude": 48.8149986,
          "longitude": 2.316,
          "distance_km": 1.94
        },
        {
          "code_insee": "94003",
          "nom": "Arcueil",
          "slug": "arcueil",
          "code_postal": "94110",
          "population": 21557,
          "superficie_km2": 2.0,
          "latitude": 48.8059998,
          "longitude": 2.3340001,
          "distance_km": 1.97
        },
        {
          "code_insee": "92014",
          "nom": "Bourg-la-Reine",
          "slug": "bourg-la-reine",
          "code_postal": "92340",
          "population": 20810,
          "superficie_km2": 2.0,
          "latitude": 48.7799988,
          "longitude": 2.316,
          "distance_km": 2.05
        },
        {
          "code_insee": "92046",
          "nom": "Malakoff",
          "slug": "malakoff",
          "code_postal": "92240",
          "population": 30292,
          "superficie_km2": 2.0,
          "latitude": 48.8170013,
          "longitude": 2.2969999,
          "distance_km": 2.32
        },
        {
          "code_insee": "92071",
          "nom": "Sceaux",
          "slug": "sceaux",
          "code_postal": "92330",
          "population": 20488,
          "superficie_km2": 4.0,
          "latitude": 48.7770004,
          "longitude": 2.2950001,
          "distance_km": 2.58
        },
        {
          "code_insee": "94037",
          "nom": "Gentilly",
          "slug": "gentilly",
          "code_postal": "94250",
          "population": 19048,
          "superficie_km2": 1.0,
          "latitude": 48.8129997,
          "longitude": 2.3440001,
          "distance_km": 3
        },
        {
          "code_insee": "92075",
          "nom": "Vanves",
          "slug": "vanves",
          "code_postal": "92170",
          "population": 28014,
          "superficie_km2": 2.0,
          "latitude": 48.8219986,
          "longitude": 2.2869999,
          "distance_km": 3.16
        },
        {
          "code_insee": "94038",
          "nom": "L'Haÿ-les-Roses",
          "slug": "l-hay-les-roses",
          "code_postal": "94240",
          "population": 31392,
          "superficie_km2": 4.0,
          "latitude": 48.776001,
          "longitude": 2.3380001,
          "distance_km": 3.19
        },
        {
          "code_insee": "94043",
          "nom": "Le Kremlin-Bicêtre",
          "slug": "le-kremlin-bicetre",
          "code_postal": "94270",
          "population": 24380,
          "superficie_km2": 2.0,
          "latitude": 48.8089981,
          "longitude": 2.3570001,
          "distance_km": 3.65
        },
        {
          "code_insee": "94076",
          "nom": "Villejuif",
          "slug": "villejuif",
          "code_postal": "94800",
          "population": 57753,
          "superficie_km2": 5.0,
          "latitude": 48.7929993,
          "longitude": 2.3599999,
          "distance_km": 3.7
        },
        {
          "code_insee": "92023",
          "nom": "Clamart",
          "slug": "clamart",
          "code_postal": "92140",
          "population": 54491,
          "superficie_km2": 9.0,
          "latitude": 48.7960014,
          "longitude": 2.2550001,
          "distance_km": 4.03
        },
        {
          "code_insee": "92060",
          "nom": "Le Plessis-Robinson",
          "slug": "le-plessis-robinson",
          "code_postal": "92350",
          "population": 29228,
          "superficie_km2": 3.0,
          "latitude": 48.7799988,
          "longitude": 2.2609999,
          "distance_km": 4.11
        },
        {
          "code_insee": "92040",
          "nom": "Issy-les-Moulineaux",
          "slug": "issy-les-moulineaux",
          "code_postal": "92130",
          "population": 68580,
          "superficie_km2": 4.0,
          "latitude": 48.8240013,
          "longitude": 2.2639999,
          "distance_km": 4.44
        },
        {
          "code_insee": "94021",
          "nom": "Chevilly-Larue",
          "slug": "chevilly-larue",
          "code_postal": "94550",
          "population": 20326,
          "superficie_km2": 4.0,
          "latitude": 48.7669983,
          "longitude": 2.3529999,
          "distance_km": 4.67
        },
        {
          "code_insee": "94034",
          "nom": "Fresnes",
          "slug": "fresnes",
          "code_postal": "94260",
          "population": 28780,
          "superficie_km2": 4.0,
          "latitude": 48.757,
          "longitude": 2.326,
          "distance_km": 4.71
        },
        {
          "code_insee": "92019",
          "nom": "Châtenay-Malabry",
          "slug": "chatenay-malabry",
          "code_postal": "92290",
          "population": 34898,
          "superficie_km2": 6.0,
          "latitude": 48.7680016,
          "longitude": 2.263,
          "distance_km": 4.79
        },
        {
          "code_insee": "92002",
          "nom": "Antony",
          "slug": "antony",
          "code_postal": "92160",
          "population": 63232,
          "superficie_km2": 10.0,
          "latitude": 48.75,
          "longitude": 2.299,
          "distance_km": 5.4
        }
      ],
      "zonage_abc": "Abis",
      "reclassement_abc": "Non",
      "codes_postaux": [
        {
          "code_postal": "92220",
          "libelle_acheminement": "BAGNEUX"
        }
      ],
      "logement": {
        "logements_total": 19434,
        "residences_principales": 18156,
        "logements_vacants": 981,
        "residences_secondaires": 296,
        "maisons": 1809,
        "appartements": 17412,
        "proprietaires": 4162,
        "locataires": 13703,
        "hlm": 10165,
        "construits_avant_1919": 203,
        "construits_1919_1945": 1288,
        "construits_1946_1970": 7521,
        "construits_1971_1990": 4910,
        "construits_1991_2005": 1576,
        "construits_2006_2019": 2064,
        "chauffage_electrique": 4193,
        "chauffage_fioul": 523,
        "chauffage_gaz_ville": 11426,
        "chauffage_gaz_bouteille": 206,
        "chauffage_autre": 1807,
        "menages": 18156,
        "logements_avant_1990": 13922
      },
      "artisans": {
        "monte_escalier": 8,
        "chauffage_pac_clim": 63,
        "isolation": 13,
        "menuiserie": 40,
        "fenetres_velux": 40,
        "couverture_toiture": 4,
        "facade_peinture": 67,
        "portes_volets": 40,
        "piscine": 3,
        "vmc_ventilation": 24,
        "assainissement": 42
      },
      "revenus": {
        "revenu_median": 20490.0,
        "part_menages_imposes": 55.0,
        "taux_pauvrete": 19.0
      },
      "aides_etat": {
        "zone_climatique": "H1",
        "qpv": true,
        "action_coeur_de_ville": false,
        "petites_villes_de_demain": false
      }
    },
    {
      "code_insee": "92009",
      "nom": "Bois-Colombes",
      "nom_a": null,
      "nom_de": null,
      "slug": "bois-colombes",
      "code_postal": "92270",
      "population": 29765,
      "superficie_km2": 2.0,
      "latitude": 48.9150009,
      "longitude": 2.267,
      "villes_proches": [
        {
          "code_insee": "92004",
          "nom": "Asnières-sur-Seine",
          "slug": "asnieres-sur-seine",
          "code_postal": "92600",
          "population": 89662,
          "superficie_km2": 5.0,
          "latitude": 48.9150009,
          "longitude": 2.2880001,
          "distance_km": 1.53
        },
        {
          "code_insee": "92025",
          "nom": "Colombes",
          "slug": "colombes",
          "code_postal": "92700",
          "population": 88870,
          "superficie_km2": 8.0,
          "latitude": 48.9220009,
          "longitude": 2.247,
          "distance_km": 1.66
        },
        {
          "code_insee": "92035",
          "nom": "La Garenne-Colombes",
          "slug": "la-garenne-colombes",
          "code_postal": "92250",
          "population": 29932,
          "superficie_km2": 2.0,
          "latitude": 48.9070015,
          "longitude": 2.2449999,
          "distance_km": 1.84
        },
        {
          "code_insee": "92026",
          "nom": "Courbevoie",
          "slug": "courbevoie",
          "code_postal": "92400",
          "population": 81516,
          "superficie_km2": 4.0,
          "latitude": 48.8979988,
          "longitude": 2.256,
          "distance_km": 2.05
        },
        {
          "code_insee": "92044",
          "nom": "Levallois-Perret",
          "slug": "levallois-perret",
          "code_postal": "92300",
          "population": 68009,
          "superficie_km2": 2.0,
          "latitude": 48.8950005,
          "longitude": 2.2869999,
          "distance_km": 2.66
        },
        {
          "code_insee": "92036",
          "nom": "Gennevilliers",
          "slug": "gennevilliers",
          "code_postal": "92230",
          "population": 49410,
          "superficie_km2": 12.0,
          "latitude": 48.9339981,
          "longitude": 2.2939999,
          "distance_km": 2.89
        },
        {
          "code_insee": "92024",
          "nom": "Clichy",
          "slug": "clichy",
          "code_postal": "92110",
          "population": 64849,
          "superficie_km2": 3.0,
          "latitude": 48.9039993,
          "longitude": 2.306,
          "distance_km": 3.1
        },
        {
          "code_insee": "92051",
          "nom": "Neuilly-sur-Seine",
          "slug": "neuilly-sur-seine",
          "code_postal": "92200",
          "population": 59267,
          "superficie_km2": 4.0,
          "latitude": 48.8849983,
          "longitude": 2.266,
          "distance_km": 3.34
        },
        {
          "code_insee": "92062",
          "nom": "Puteaux",
          "slug": "puteaux",
          "code_postal": "92800",
          "population": 43672,
          "superficie_km2": 3.0,
          "latitude": 48.8839989,
          "longitude": 2.2379999,
          "distance_km": 4.05
        },
        {
          "code_insee": "95063",
          "nom": "Bezons",
          "slug": "bezons",
          "code_postal": "95870",
          "population": 32017,
          "superficie_km2": 4.0,
          "latitude": 48.9259987,
          "longitude": 2.211,
          "distance_km": 4.27
        },
        {
          "code_insee": "95018",
          "nom": "Argenteuil",
          "slug": "argenteuil",
          "code_postal": "95100",
          "population": 107221,
          "superficie_km2": 17.0,
          "latitude": 48.9510002,
          "longitude": 2.2409999,
          "distance_km": 4.43
        },
        {
          "code_insee": "92078",
          "nom": "Villeneuve-la-Garenne",
          "slug": "villeneuve-la-garenne",
          "code_postal": "92390",
          "population": 25371,
          "superficie_km2": 3.0,
          "latitude": 48.9360008,
          "longitude": 2.3239999,
          "distance_km": 4.77
        },
        {
          "code_insee": "93070",
          "nom": "Saint-Ouen-sur-Seine",
          "slug": "saint-ouen-sur-seine",
          "code_postal": "93400",
          "population": 53207,
          "superficie_km2": 4.0,
          "latitude": 48.9099999,
          "longitude": 2.3329999,
          "distance_km": 4.86
        },
        {
          "code_insee": "92050",
          "nom": "Nanterre",
          "slug": "nanterre",
          "code_postal": "92000",
          "population": 97351,
          "superficie_km2": 12.0,
          "latitude": 48.8959999,
          "longitude": 2.207,
          "distance_km": 4.87
        },
        {
          "code_insee": "93039",
          "nom": "L'Île-Saint-Denis",
          "slug": "l-ile-saint-denis",
          "code_postal": "93450",
          "population": 8664,
          "superficie_km2": 2.0,
          "latitude": 48.9399986,
          "longitude": 2.326,
          "distance_km": 5.13
        },
        {
          "code_insee": "93031",
          "nom": "Épinay-sur-Seine",
          "slug": "epinay-sur-seine",
          "code_postal": "93800",
          "population": 53489,
          "superficie_km2": 5.0,
          "latitude": 48.9550018,
          "longitude": 2.3139999,
          "distance_km": 5.62
        },
        {
          "code_insee": "78311",
          "nom": "Houilles",
          "slug": "houilles",
          "code_postal": "78800",
          "population": 33449,
          "superficie_km2": 4.0,
          "latitude": 48.9269981,
          "longitude": 2.188,
          "distance_km": 5.92
        },
        {
          "code_insee": "92073",
          "nom": "Suresnes",
          "slug": "suresnes",
          "code_postal": "92150",
          "population": 49104,
          "superficie_km2": 4.0,
          "latitude": 48.8699989,
          "longitude": 2.22,
          "distance_km": 6.07
        },
        {
          "code_insee": "95555",
          "nom": "Saint-Gratien",
          "slug": "saint-gratien",
          "code_postal": "95210",
          "population": 20866,
          "superficie_km2": 3.0,
          "latitude": 48.9690018,
          "longitude": 2.2850001,
          "distance_km": 6.15
        },
        {
          "code_insee": "95582",
          "nom": "Sannois",
          "slug": "sannois",
          "code_postal": "95110",
          "population": 26768,
          "superficie_km2": 5.0,
          "latitude": 48.9720001,
          "longitude": 2.253,
          "distance_km": 6.42
        }
      ],
      "zonage_abc": "Abis",
      "reclassement_abc": "Non",
      "codes_postaux": [
        {
          "code_postal": "92270",
          "libelle_acheminement": "BOIS COLOMBES"
        }
      ],
      "logement": {
        "logements_total": 15018,
        "residences_principales": 13584,
        "logements_vacants": 1028,
        "residences_secondaires": 405,
        "maisons": 2707,
        "appartements": 12232,
        "proprietaires": 6939,
        "locataires": 6364,
        "hlm": 2153,
        "construits_avant_1919": 1531,
        "construits_1919_1945": 3521,
        "construits_1946_1970": 3040,
        "construits_1971_1990": 2426,
        "construits_1991_2005": 1196,
        "construits_2006_2019": 1748,
        "chauffage_electrique": 4123,
        "chauffage_fioul": 844,
        "chauffage_gaz_ville": 8472,
        "chauffage_gaz_bouteille": 55,
        "chauffage_autre": 88,
        "menages": 13584,
        "logements_avant_1990": 10518
      },
      "artisans": {
        "monte_escalier": 1,
        "chauffage_pac_clim": 33,
        "isolation": 8,
        "menuiserie": 28,
        "fenetres_velux": 28,
        "couverture_toiture": 4,
        "facade_peinture": 47,
        "portes_volets": 28,
        "piscine": 1,
        "vmc_ventilation": 9,
        "assainissement": 26
      },
      "revenus": {
        "revenu_median": 31490.0,
        "part_menages_imposes": 73.0,
        "taux_pauvrete": 9.0
      },
      "aides_etat": {
        "zone_climatique": "H1",
        "qpv": false,
        "action_coeur_de_ville": false,
        "petites_villes_de_demain": false
      }
    },
    {
      "code_insee": "92012",
      "nom": "Boulogne-Billancourt",
      "nom_a": null,
      "nom_de": null,
      "slug": "boulogne-billancourt",
      "code_postal": "92100",
      "population": 119808,
      "superficie_km2": 6.0,
      "latitude": 48.8370018,
      "longitude": 2.2390001,
      "villes_proches": [
        {
          "code_insee": "92064",
          "nom": "Saint-Cloud",
          "slug": "saint-cloud",
          "code_postal": "92210",
          "population": 29727,
          "superficie_km2": 8.0,
          "latitude": 48.8429985,
          "longitude": 2.2090001,
          "distance_km": 2.29
        },
        {
          "code_insee": "92040",
          "nom": "Issy-les-Moulineaux",
          "slug": "issy-les-moulineaux",
          "code_postal": "92130",
          "population": 68580,
          "superficie_km2": 4.0,
          "latitude": 48.8240013,
          "longitude": 2.2639999,
          "distance_km": 2.33
        },
        {
          "code_insee": "92072",
          "nom": "Sèvres",
          "slug": "sevres",
          "code_postal": "92310",
          "population": 22618,
          "superficie_km2": 4.0,
          "latitude": 48.8219986,
          "longitude": 2.21,
          "distance_km": 2.7
        },
        {
          "code_insee": "92048",
          "nom": "Meudon",
          "slug": "meudon",
          "code_postal": "92190",
          "population": 46342,
          "superficie_km2": 10.0,
          "latitude": 48.8040009,
          "longitude": 2.227,
          "distance_km": 3.77
        },
        {
          "code_insee": "92075",
          "nom": "Vanves",
          "slug": "vanves",
          "code_postal": "92170",
          "population": 28014,
          "superficie_km2": 2.0,
          "latitude": 48.8219986,
          "longitude": 2.2869999,
          "distance_km": 3.89
        },
        {
          "code_insee": "92033",
          "nom": "Garches",
          "slug": "garches",
          "code_postal": "92380",
          "population": 17898,
          "superficie_km2": 3.0,
          "latitude": 48.8450012,
          "longitude": 2.187,
          "distance_km": 3.91
        },
        {
          "code_insee": "92073",
          "nom": "Suresnes",
          "slug": "suresnes",
          "code_postal": "92150",
          "population": 49104,
          "superficie_km2": 4.0,
          "latitude": 48.8699989,
          "longitude": 2.22,
          "distance_km": 3.92
        },
        {
          "code_insee": "92023",
          "nom": "Clamart",
          "slug": "clamart",
          "code_postal": "92140",
          "population": 54491,
          "superficie_km2": 9.0,
          "latitude": 48.7960014,
          "longitude": 2.2550001,
          "distance_km": 4.71
        },
        {
          "code_insee": "92022",
          "nom": "Chaville",
          "slug": "chaville",
          "code_postal": "92370",
          "population": 19991,
          "superficie_km2": 4.0,
          "latitude": 48.8079987,
          "longitude": 2.1919999,
          "distance_km": 4.72
        },
        {
          "code_insee": "92077",
          "nom": "Ville-d'Avray",
          "slug": "ville-d-avray",
          "code_postal": "92410",
          "population": 10694,
          "superficie_km2": 4.0,
          "latitude": 48.8219986,
          "longitude": 2.178,
          "distance_km": 4.77
        },
        {
          "code_insee": "92046",
          "nom": "Malakoff",
          "slug": "malakoff",
          "code_postal": "92240",
          "population": 30292,
          "superficie_km2": 2.0,
          "latitude": 48.8170013,
          "longitude": 2.2969999,
          "distance_km": 4.79
        },
        {
          "code_insee": "92020",
          "nom": "Châtillon",
          "slug": "chatillon",
          "code_postal": "92320",
          "population": 36777,
          "superficie_km2": 3.0,
          "latitude": 48.8030014,
          "longitude": 2.2880001,
          "distance_km": 5.21
        },
        {
          "code_insee": "92062",
          "nom": "Puteaux",
          "slug": "puteaux",
          "code_postal": "92800",
          "population": 43672,
          "superficie_km2": 3.0,
          "latitude": 48.8839989,
          "longitude": 2.2379999,
          "distance_km": 5.23
        },
        {
          "code_insee": "92047",
          "nom": "Marnes-la-Coquette",
          "slug": "marnes-la-coquette",
          "code_postal": "92430",
          "population": 1745,
          "superficie_km2": 3.0,
          "latitude": 48.8300018,
          "longitude": 2.1659999,
          "distance_km": 5.4
        },
        {
          "code_insee": "92051",
          "nom": "Neuilly-sur-Seine",
          "slug": "neuilly-sur-seine",
          "code_postal": "92200",
          "population": 59267,
          "superficie_km2": 4.0,
          "latitude": 48.8849983,
          "longitude": 2.266,
          "distance_km": 5.69
        },
        {
          "code_insee": "92063",
          "nom": "Rueil-Malmaison",
          "slug": "rueil-malmaison",
          "code_postal": "92500",
          "population": 78186,
          "superficie_km2": 15.0,
          "latitude": 48.8689995,
          "longitude": 2.177,
          "distance_km": 5.77
        },
        {
          "code_insee": "92076",
          "nom": "Vaucresson",
          "slug": "vaucresson",
          "code_postal": "92420",
          "population": 8566,
          "superficie_km2": 3.0,
          "latitude": 48.8409996,
          "longitude": 2.1600001,
          "distance_km": 5.8
        },
        {
          "code_insee": "92049",
          "nom": "Montrouge",
          "slug": "montrouge",
          "code_postal": "92120",
          "population": 47657,
          "superficie_km2": 2.0,
          "latitude": 48.8149986,
          "longitude": 2.316,
          "distance_km": 6.14
        },
        {
          "code_insee": "78686",
          "nom": "Viroflay",
          "slug": "viroflay",
          "code_postal": "78220",
          "population": 16960,
          "superficie_km2": 3.0,
          "latitude": 48.8019981,
          "longitude": 2.1719999,
          "distance_km": 6.26
        },
        {
          "code_insee": "92032",
          "nom": "Fontenay-aux-Roses",
          "slug": "fontenay-aux-roses",
          "code_postal": "92260",
          "population": 24772,
          "superficie_km2": 3.0,
          "latitude": 48.7900009,
          "longitude": 2.2869999,
          "distance_km": 6.3
        }
      ],
      "zonage_abc": "Abis",
      "reclassement_abc": "Non",
      "codes_postaux": [
        {
          "code_postal": "92100",
          "libelle_acheminement": "BOULOGNE BILLANCOURT"
        }
      ],
      "logement": {
        "logements_total": 68115,
        "residences_principales": 59649,
        "logements_vacants": 4545,
        "residences_secondaires": 3921,
        "maisons": 1487,
        "appartements": 65825,
        "proprietaires": 26155,
        "locataires": 31384,
        "hlm": 8074,
        "construits_avant_1919": 3417,
        "construits_1919_1945": 8341,
        "construits_1946_1970": 16586,
        "construits_1971_1990": 15396,
        "construits_1991_2005": 8872,
        "construits_2006_2019": 6888,
        "chauffage_electrique": 20140,
        "chauffage_fioul": 3842,
        "chauffage_gaz_ville": 34975,
        "chauffage_gaz_bouteille": 258,
        "chauffage_autre": 432,
        "menages": 59649,
        "logements_avant_1990": 43740
      },
      "artisans": {
        "monte_escalier": 9,
        "chauffage_pac_clim": 156,
        "isolation": 71,
        "menuiserie": 121,
        "fenetres_velux": 121,
        "couverture_toiture": 40,
        "facade_peinture": 169,
        "portes_volets": 121,
        "piscine": 24,
        "vmc_ventilation": 59,
        "assainissement": 103
      },
      "revenus": {
        "revenu_median": 34090.0,
        "part_menages_imposes": 75.0,
        "taux_pauvrete": 9.0
      },
      "aides_etat": {
        "zone_climatique": "H1",
        "qpv": false,
        "action_coeur_de_ville": false,
        "petites_villes_de_demain": false
      }
    },
    {
      "code_insee": "92014",
      "nom": "Bourg-la-Reine",
      "nom_a": null,
      "nom_de": null,
      "slug": "bourg-la-reine",
      "code_postal": "92340",
      "population": 20810,
      "superficie_km2": 2.0,
      "latitude": 48.7799988,
      "longitude": 2.316,
      "villes_proches": [
        {
          "code_insee": "92071",
          "nom": "Sceaux",
          "slug": "sceaux",
          "code_postal": "92330",
          "population": 20488,
          "superficie_km2": 4.0,
          "latitude": 48.7770004,
          "longitude": 2.2950001,
          "distance_km": 1.57
        },
        {
          "code_insee": "94038",
          "nom": "L'Haÿ-les-Roses",
          "slug": "l-hay-les-roses",
          "code_postal": "94240",
          "population": 31392,
          "superficie_km2": 4.0,
          "latitude": 48.776001,
          "longitude": 2.3380001,
          "distance_km": 1.67
        },
        {
          "code_insee": "94016",
          "nom": "Cachan",
          "slug": "cachan",
          "code_postal": "94230",
          "population": 30592,
          "superficie_km2": 3.0,
          "latitude": 48.7919998,
          "longitude": 2.332,
          "distance_km": 1.78
        },
        {
          "code_insee": "92007",
          "nom": "Bagneux",
          "slug": "bagneux",
          "code_postal": "92220",
          "population": 43699,
          "superficie_km2": 4.0,
          "latitude": 48.7980003,
          "longitude": 2.3099999,
          "distance_km": 2.05
        },
        {
          "code_insee": "92032",
          "nom": "Fontenay-aux-Roses",
          "slug": "fontenay-aux-roses",
          "code_postal": "92260",
          "population": 24772,
          "superficie_km2": 3.0,
          "latitude": 48.7900009,
          "longitude": 2.2869999,
          "distance_km": 2.4
        },
        {
          "code_insee": "94034",
          "nom": "Fresnes",
          "slug": "fresnes",
          "code_postal": "94260",
          "population": 28780,
          "superficie_km2": 4.0,
          "latitude": 48.757,
          "longitude": 2.326,
          "distance_km": 2.66
        },
        {
          "code_insee": "94021",
          "nom": "Chevilly-Larue",
          "slug": "chevilly-larue",
          "code_postal": "94550",
          "population": 20326,
          "superficie_km2": 4.0,
          "latitude": 48.7669983,
          "longitude": 2.3529999,
          "distance_km": 3.07
        },
        {
          "code_insee": "94003",
          "nom": "Arcueil",
          "slug": "arcueil",
          "code_postal": "94110",
          "population": 21557,
          "superficie_km2": 2.0,
          "latitude": 48.8059998,
          "longitude": 2.3340001,
          "distance_km": 3.18
        },
        {
          "code_insee": "92020",
          "nom": "Châtillon",
          "slug": "chatillon",
          "code_postal": "92320",
          "population": 36777,
          "superficie_km2": 3.0,
          "latitude": 48.8030014,
          "longitude": 2.2880001,
          "distance_km": 3.28
        },
        {
          "code_insee": "94076",
          "nom": "Villejuif",
          "slug": "villejuif",
          "code_postal": "94800",
          "population": 57753,
          "superficie_km2": 5.0,
          "latitude": 48.7929993,
          "longitude": 2.3599999,
          "distance_km": 3.53
        },
        {
          "code_insee": "92002",
          "nom": "Antony",
          "slug": "antony",
          "code_postal": "92160",
          "population": 63232,
          "superficie_km2": 10.0,
          "latitude": 48.75,
          "longitude": 2.299,
          "distance_km": 3.56
        },
        {
          "code_insee": "92049",
          "nom": "Montrouge",
          "slug": "montrouge",
          "code_postal": "92120",
          "population": 47657,
          "superficie_km2": 2.0,
          "latitude": 48.8149986,
          "longitude": 2.316,
          "distance_km": 3.89
        },
        {
          "code_insee": "92060",
          "nom": "Le Plessis-Robinson",
          "slug": "le-plessis-robinson",
          "code_postal": "92350",
          "population": 29228,
          "superficie_km2": 3.0,
          "latitude": 48.7799988,
          "longitude": 2.2609999,
          "distance_km": 4.03
        },
        {
          "code_insee": "92019",
          "nom": "Châtenay-Malabry",
          "slug": "chatenay-malabry",
          "code_postal": "92290",
          "population": 34898,
          "superficie_km2": 6.0,
          "latitude": 48.7680016,
          "longitude": 2.263,
          "distance_km": 4.11
        },
        {
          "code_insee": "94037",
          "nom": "Gentilly",
          "slug": "gentilly",
          "code_postal": "94250",
          "population": 19048,
          "superficie_km2": 1.0,
          "latitude": 48.8129997,
          "longitude": 2.3440001,
          "distance_km": 4.2
        },
        {
          "code_insee": "94065",
          "nom": "Rungis",
          "slug": "rungis",
          "code_postal": "94150",
          "population": 5647,
          "superficie_km2": 4.0,
          "latitude": 48.75,
          "longitude": 2.3529999,
          "distance_km": 4.3
        },
        {
          "code_insee": "92046",
          "nom": "Malakoff",
          "slug": "malakoff",
          "code_postal": "92240",
          "population": 30292,
          "superficie_km2": 2.0,
          "latitude": 48.8170013,
          "longitude": 2.2969999,
          "distance_km": 4.34
        },
        {
          "code_insee": "94043",
          "nom": "Le Kremlin-Bicêtre",
          "slug": "le-kremlin-bicetre",
          "code_postal": "94270",
          "population": 24380,
          "superficie_km2": 2.0,
          "latitude": 48.8089981,
          "longitude": 2.3570001,
          "distance_km": 4.41
        },
        {
          "code_insee": "92023",
          "nom": "Clamart",
          "slug": "clamart",
          "code_postal": "92140",
          "population": 54491,
          "superficie_km2": 9.0,
          "latitude": 48.7960014,
          "longitude": 2.2550001,
          "distance_km": 4.81
        },
        {
          "code_insee": "92075",
          "nom": "Vanves",
          "slug": "vanves",
          "code_postal": "92170",
          "population": 28014,
          "superficie_km2": 2.0,
          "latitude": 48.8219986,
          "longitude": 2.2869999,
          "distance_km": 5.13
        }
      ],
      "zonage_abc": "Abis",
      "reclassement_abc": "Non",
      "codes_postaux": [
        {
          "code_postal": "92340",
          "libelle_acheminement": "BOURG LA REINE"
        }
      ],
      "logement": {
        "logements_total": 10280,
        "residences_principales": 9349,
        "logements_vacants": 799,
        "residences_secondaires": 130,
        "maisons": 1949,
        "appartements": 8278,
        "proprietaires": 5163,
        "locataires": 4004,
        "hlm": 1254,
        "construits_avant_1919": 500,
        "construits_1919_1945": 1173,
        "construits_1946_1970": 3314,
        "construits_1971_1990": 2363,
        "construits_1991_2005": 1002,
        "construits_2006_2019": 858,
        "chauffage_electrique": 2898,
        "chauffage_fioul": 574,
        "chauffage_gaz_ville": 5741,
        "chauffage_gaz_bouteille": 74,
        "chauffage_autre": 59,
        "menages": 9349,
        "logements_avant_1990": 7350
      },
      "artisans": {
        "monte_escalier": 0,
        "chauffage_pac_clim": 25,
        "isolation": 16,
        "menuiserie": 16,
        "fenetres_velux": 16,
        "couverture_toiture": 10,
        "facade_peinture": 19,
        "portes_volets": 16,
        "piscine": 0,
        "vmc_ventilation": 3,
        "assainissement": 23
      },
      "revenus": {
        "revenu_median": 32800.0,
        "part_menages_imposes": 75.0,
        "taux_pauvrete": 8.0
      },
      "aides_etat": {
        "zone_climatique": "H1",
        "qpv": false,
        "action_coeur_de_ville": false,
        "petites_villes_de_demain": false
      }
    },
    {
      "code_insee": "92022",
      "nom": "Chaville",
      "nom_a": null,
      "nom_de": null,
      "slug": "chaville",
      "code_postal": "92370",
      "population": 19991,
      "superficie_km2": 4.0,
      "latitude": 48.8079987,
      "longitude": 2.1919999,
      "villes_proches": [
        {
          "code_insee": "78686",
          "nom": "Viroflay",
          "slug": "viroflay",
          "code_postal": "78220",
          "population": 16960,
          "superficie_km2": 3.0,
          "latitude": 48.8019981,
          "longitude": 2.1719999,
          "distance_km": 1.61
        },
        {
          "code_insee": "92077",
          "nom": "Ville-d'Avray",
          "slug": "ville-d-avray",
          "code_postal": "92410",
          "population": 10694,
          "superficie_km2": 4.0,
          "latitude": 48.8219986,
          "longitude": 2.178,
          "distance_km": 1.86
        },
        {
          "code_insee": "92072",
          "nom": "Sèvres",
          "slug": "sevres",
          "code_postal": "92310",
          "population": 22618,
          "superficie_km2": 4.0,
          "latitude": 48.8219986,
          "longitude": 2.21,
          "distance_km": 2.04
        },
        {
          "code_insee": "92048",
          "nom": "Meudon",
          "slug": "meudon",
          "code_postal": "92190",
          "population": 46342,
          "superficie_km2": 10.0,
          "latitude": 48.8040009,
          "longitude": 2.227,
          "distance_km": 2.6
        },
        {
          "code_insee": "78640",
          "nom": "Vélizy-Villacoublay",
          "slug": "velizy-villacoublay",
          "code_postal": "78140",
          "population": 22713,
          "superficie_km2": 9.0,
          "latitude": 48.7840004,
          "longitude": 2.197,
          "distance_km": 2.69
        },
        {
          "code_insee": "92047",
          "nom": "Marnes-la-Coquette",
          "slug": "marnes-la-coquette",
          "code_postal": "92430",
          "population": 1745,
          "superficie_km2": 3.0,
          "latitude": 48.8300018,
          "longitude": 2.1659999,
          "distance_km": 3.1
        },
        {
          "code_insee": "92064",
          "nom": "Saint-Cloud",
          "slug": "saint-cloud",
          "code_postal": "92210",
          "population": 29727,
          "superficie_km2": 8.0,
          "latitude": 48.8429985,
          "longitude": 2.2090001,
          "distance_km": 4.09
        },
        {
          "code_insee": "92033",
          "nom": "Garches",
          "slug": "garches",
          "code_postal": "92380",
          "population": 17898,
          "superficie_km2": 3.0,
          "latitude": 48.8450012,
          "longitude": 2.187,
          "distance_km": 4.13
        },
        {
          "code_insee": "92076",
          "nom": "Vaucresson",
          "slug": "vaucresson",
          "code_postal": "92420",
          "population": 8566,
          "superficie_km2": 3.0,
          "latitude": 48.8409996,
          "longitude": 2.1600001,
          "distance_km": 4.35
        },
        {
          "code_insee": "92012",
          "nom": "Boulogne-Billancourt",
          "slug": "boulogne-billancourt",
          "code_postal": "92100",
          "population": 119808,
          "superficie_km2": 6.0,
          "latitude": 48.8370018,
          "longitude": 2.2390001,
          "distance_km": 4.72
        },
        {
          "code_insee": "92023",
          "nom": "Clamart",
          "slug": "clamart",
          "code_postal": "92140",
          "population": 54491,
          "superficie_km2": 9.0,
          "latitude": 48.7960014,
          "longitude": 2.2550001,
          "distance_km": 4.8
        },
        {
          "code_insee": "78158",
          "nom": "Le Chesnay-Rocquencourt",
          "slug": "le-chesnay-rocquencourt",
          "code_postal": "78150",
          "population": 30924,
          "superficie_km2": 4.0,
          "latitude": 48.8269997,
          "longitude": 2.1300001,
          "distance_km": 5.01
        },
        {
          "code_insee": "78322",
          "nom": "Jouy-en-Josas",
          "slug": "jouy-en-josas",
          "code_postal": "78350",
          "population": 7928,
          "superficie_km2": 10.0,
          "latitude": 48.7659988,
          "longitude": 2.1630001,
          "distance_km": 5.13
        },
        {
          "code_insee": "78646",
          "nom": "Versailles",
          "slug": "versailles",
          "code_postal": "78000",
          "population": 83587,
          "superficie_km2": 26.0,
          "latitude": 48.8030014,
          "longitude": 2.118,
          "distance_km": 5.45
        },
        {
          "code_insee": "92040",
          "nom": "Issy-les-Moulineaux",
          "slug": "issy-les-moulineaux",
          "code_postal": "92130",
          "population": 68580,
          "superficie_km2": 4.0,
          "latitude": 48.8240013,
          "longitude": 2.2639999,
          "distance_km": 5.56
        },
        {
          "code_insee": "91064",
          "nom": "Bièvres",
          "slug": "bievres",
          "code_postal": "91570",
          "population": 4748,
          "superficie_km2": 10.0,
          "latitude": 48.757,
          "longitude": 2.207,
          "distance_km": 5.78
        },
        {
          "code_insee": "92060",
          "nom": "Le Plessis-Robinson",
          "slug": "le-plessis-robinson",
          "code_postal": "92350",
          "population": 29228,
          "superficie_km2": 3.0,
          "latitude": 48.7799988,
          "longitude": 2.2609999,
          "distance_km": 5.94
        },
        {
          "code_insee": "78126",
          "nom": "La Celle-Saint-Cloud",
          "slug": "la-celle-saint-cloud",
          "code_postal": "78170",
          "population": 20476,
          "superficie_km2": 6.0,
          "latitude": 48.8470001,
          "longitude": 2.135,
          "distance_km": 6.02
        },
        {
          "code_insee": "78117",
          "nom": "Buc",
          "slug": "buc",
          "code_postal": "78530",
          "population": 5920,
          "superficie_km2": 8.0,
          "latitude": 48.7719994,
          "longitude": 2.1240001,
          "distance_km": 6.39
        },
        {
          "code_insee": "78343",
          "nom": "Les Loges-en-Josas",
          "slug": "les-loges-en-josas",
          "code_postal": "78350",
          "population": 1646,
          "superficie_km2": 2.0,
          "latitude": 48.762001,
          "longitude": 2.1389999,
          "distance_km": 6.42
        }
      ],
      "zonage_abc": "Abis",
      "reclassement_abc": "Non",
      "codes_postaux": [
        {
          "code_postal": "92370",
          "libelle_acheminement": "CHAVILLE"
        }
      ],
      "logement": {
        "logements_total": 10406,
        "residences_principales": 9516,
        "logements_vacants": 635,
        "residences_secondaires": 254,
        "maisons": 2209,
        "appartements": 7918,
        "proprietaires": 4879,
        "locataires": 4443,
        "hlm": 1799,
        "construits_avant_1919": 457,
        "construits_1919_1945": 1457,
        "construits_1946_1970": 2884,
        "construits_1971_1990": 2323,
        "construits_1991_2005": 1121,
        "construits_2006_2019": 1202,
        "chauffage_electrique": 2709,
        "chauffage_fioul": 450,
        "chauffage_gaz_ville": 6222,
        "chauffage_gaz_bouteille": 49,
        "chauffage_autre": 84,
        "menages": 9516,
        "logements_avant_1990": 7121
      },
      "artisans": {
        "monte_escalier": 1,
        "chauffage_pac_clim": 27,
        "isolation": 19,
        "menuiserie": 18,
        "fenetres_velux": 18,
        "couverture_toiture": 12,
        "facade_peinture": 20,
        "portes_volets": 18,
        "piscine": 1,
        "vmc_ventilation": 9,
        "assainissement": 19
      },
      "revenus": {
        "revenu_median": 31640.0,
        "part_menages_imposes": 74.0,
        "taux_pauvrete": 8.0
      },
      "aides_etat": {
        "zone_climatique": "H1",
        "qpv": false,
        "action_coeur_de_ville": false,
        "petites_villes_de_demain": false
      }
    },
    {
      "code_insee": "92019",
      "nom": "Châtenay-Malabry",
      "nom_a": null,
      "nom_de": null,
      "slug": "chatenay-malabry",
      "code_postal": "92290",
      "population": 34898,
      "superficie_km2": 6.0,
      "latitude": 48.7680016,
      "longitude": 2.263,
      "villes_proches": [
        {
          "code_insee": "92060",
          "nom": "Le Plessis-Robinson",
          "slug": "le-plessis-robinson",
          "code_postal": "92350",
          "population": 29228,
          "superficie_km2": 3.0,
          "latitude": 48.7799988,
          "longitude": 2.2609999,
          "distance_km": 1.34
        },
        {
          "code_insee": "91645",
          "nom": "Verrières-le-Buisson",
          "slug": "verrieres-le-buisson",
          "code_postal": "91370",
          "population": 14597,
          "superficie_km2": 10.0,
          "latitude": 48.75,
          "longitude": 2.2520001,
          "distance_km": 2.16
        },
        {
          "code_insee": "92071",
          "nom": "Sceaux",
          "slug": "sceaux",
          "code_postal": "92330",
          "population": 20488,
          "superficie_km2": 4.0,
          "latitude": 48.7770004,
          "longitude": 2.2950001,
          "distance_km": 2.55
        },
        {
          "code_insee": "92032",
          "nom": "Fontenay-aux-Roses",
          "slug": "fontenay-aux-roses",
          "code_postal": "92260",
          "population": 24772,
          "superficie_km2": 3.0,
          "latitude": 48.7900009,
          "longitude": 2.2869999,
          "distance_km": 3.01
        },
        {
          "code_insee": "92023",
          "nom": "Clamart",
          "slug": "clamart",
          "code_postal": "92140",
          "population": 54491,
          "superficie_km2": 9.0,
          "latitude": 48.7960014,
          "longitude": 2.2550001,
          "distance_km": 3.17
        },
        {
          "code_insee": "92002",
          "nom": "Antony",
          "slug": "antony",
          "code_postal": "92160",
          "population": 63232,
          "superficie_km2": 10.0,
          "latitude": 48.75,
          "longitude": 2.299,
          "distance_km": 3.31
        },
        {
          "code_insee": "92014",
          "nom": "Bourg-la-Reine",
          "slug": "bourg-la-reine",
          "code_postal": "92340",
          "population": 20810,
          "superficie_km2": 2.0,
          "latitude": 48.7799988,
          "longitude": 2.316,
          "distance_km": 4.11
        },
        {
          "code_insee": "91064",
          "nom": "Bièvres",
          "slug": "bievres",
          "code_postal": "91570",
          "population": 4748,
          "superficie_km2": 10.0,
          "latitude": 48.757,
          "longitude": 2.207,
          "distance_km": 4.28
        },
        {
          "code_insee": "92020",
          "nom": "Châtillon",
          "slug": "chatillon",
          "code_postal": "92320",
          "population": 36777,
          "superficie_km2": 3.0,
          "latitude": 48.8030014,
          "longitude": 2.2880001,
          "distance_km": 4.3
        },
        {
          "code_insee": "91377",
          "nom": "Massy",
          "slug": "massy",
          "code_postal": "91300",
          "population": 50962,
          "superficie_km2": 9.0,
          "latitude": 48.7280006,
          "longitude": 2.2750001,
          "distance_km": 4.53
        },
        {
          "code_insee": "91312",
          "nom": "Igny",
          "slug": "igny",
          "code_postal": "91430",
          "population": 10213,
          "superficie_km2": 4.0,
          "latitude": 48.7360001,
          "longitude": 2.224,
          "distance_km": 4.56
        },
        {
          "code_insee": "94034",
          "nom": "Fresnes",
          "slug": "fresnes",
          "code_postal": "94260",
          "population": 28780,
          "superficie_km2": 4.0,
          "latitude": 48.757,
          "longitude": 2.326,
          "distance_km": 4.78
        },
        {
          "code_insee": "92007",
          "nom": "Bagneux",
          "slug": "bagneux",
          "code_postal": "92220",
          "population": 43699,
          "superficie_km2": 4.0,
          "latitude": 48.7980003,
          "longitude": 2.3099999,
          "distance_km": 4.79
        },
        {
          "code_insee": "92048",
          "nom": "Meudon",
          "slug": "meudon",
          "code_postal": "92190",
          "population": 46342,
          "superficie_km2": 10.0,
          "latitude": 48.8040009,
          "longitude": 2.227,
          "distance_km": 4.79
        },
        {
          "code_insee": "78640",
          "nom": "Vélizy-Villacoublay",
          "slug": "velizy-villacoublay",
          "code_postal": "78140",
          "population": 22713,
          "superficie_km2": 9.0,
          "latitude": 48.7840004,
          "longitude": 2.197,
          "distance_km": 5.15
        },
        {
          "code_insee": "94038",
          "nom": "L'Haÿ-les-Roses",
          "slug": "l-hay-les-roses",
          "code_postal": "94240",
          "population": 31392,
          "superficie_km2": 4.0,
          "latitude": 48.776001,
          "longitude": 2.3380001,
          "distance_km": 5.57
        },
        {
          "code_insee": "94016",
          "nom": "Cachan",
          "slug": "cachan",
          "code_postal": "94230",
          "population": 30592,
          "superficie_km2": 3.0,
          "latitude": 48.7919998,
          "longitude": 2.332,
          "distance_km": 5.72
        },
        {
          "code_insee": "92046",
          "nom": "Malakoff",
          "slug": "malakoff",
          "code_postal": "92240",
          "population": 30292,
          "superficie_km2": 2.0,
          "latitude": 48.8170013,
          "longitude": 2.2969999,
          "distance_km": 5.99
        },
        {
          "code_insee": "92040",
          "nom": "Issy-les-Moulineaux",
          "slug": "issy-les-moulineaux",
          "code_postal": "92130",
          "population": 68580,
          "superficie_km2": 4.0,
          "latitude": 48.8240013,
          "longitude": 2.2639999,
          "distance_km": 6.23
        },
        {
          "code_insee": "91635",
          "nom": "Vauhallan",
          "slug": "vauhallan",
          "code_postal": "91430",
          "population": 2066,
          "superficie_km2": 3.0,
          "latitude": 48.730999,
          "longitude": 2.1989999,
          "distance_km": 6.24
        }
      ],
      "zonage_abc": "Abis",
      "reclassement_abc": "Non",
      "codes_postaux": [
        {
          "code_postal": "92290",
          "libelle_acheminement": "CHATENAY MALABRY"
        }
      ],
      "logement": {
        "logements_total": 16371,
        "residences_principales": 15104,
        "logements_vacants": 1036,
        "residences_secondaires": 231,
        "maisons": 1777,
        "appartements": 14463,
        "proprietaires": 6612,
        "locataires": 8196,
        "hlm": 5066,
        "construits_avant_1919": 223,
        "construits_1919_1945": 1409,
        "construits_1946_1970": 4787,
        "construits_1971_1990": 3877,
        "construits_1991_2005": 1688,
        "construits_2006_2019": 2869,
        "chauffage_electrique": 3601,
        "chauffage_fioul": 488,
        "chauffage_gaz_ville": 10654,
        "chauffage_gaz_bouteille": 61,
        "chauffage_autre": 298,
        "menages": 15104,
        "logements_avant_1990": 10296
      },
      "artisans": {
        "monte_escalier": 3,
        "chauffage_pac_clim": 38,
        "isolation": 10,
        "menuiserie": 23,
        "fenetres_velux": 23,
        "couverture_toiture": 2,
        "facade_peinture": 31,
        "portes_volets": 23,
        "piscine": 1,
        "vmc_ventilation": 9,
        "assainissement": 31
      },
      "revenus": {
        "revenu_median": 26050.0,
        "part_menages_imposes": 67.0,
        "taux_pauvrete": 11.0
      },
      "aides_etat": {
        "zone_climatique": "H1",
        "qpv": true,
        "action_coeur_de_ville": false,
        "petites_villes_de_demain": false
      }
    },
    {
      "code_insee": "92020",
      "nom": "Châtillon",
      "nom_a": null,
      "nom_de": null,
      "slug": "chatillon",
      "code_postal": "92320",
      "population": 36777,
      "superficie_km2": 3.0,
      "latitude": 48.8030014,
      "longitude": 2.2880001,
      "villes_proches": [
        {
          "code_insee": "92032",
          "nom": "Fontenay-aux-Roses",
          "slug": "fontenay-aux-roses",
          "code_postal": "92260",
          "population": 24772,
          "superficie_km2": 3.0,
          "latitude": 48.7900009,
          "longitude": 2.2869999,
          "distance_km": 1.45
        },
        {
          "code_insee": "92046",
          "nom": "Malakoff",
          "slug": "malakoff",
          "code_postal": "92240",
          "population": 30292,
          "superficie_km2": 2.0,
          "latitude": 48.8170013,
          "longitude": 2.2969999,
          "distance_km": 1.69
        },
        {
          "code_insee": "92007",
          "nom": "Bagneux",
          "slug": "bagneux",
          "code_postal": "92220",
          "population": 43699,
          "superficie_km2": 4.0,
          "latitude": 48.7980003,
          "longitude": 2.3099999,
          "distance_km": 1.7
        },
        {
          "code_insee": "92075",
          "nom": "Vanves",
          "slug": "vanves",
          "code_postal": "92170",
          "population": 28014,
          "superficie_km2": 2.0,
          "latitude": 48.8219986,
          "longitude": 2.2869999,
          "distance_km": 2.11
        },
        {
          "code_insee": "92049",
          "nom": "Montrouge",
          "slug": "montrouge",
          "code_postal": "92120",
          "population": 47657,
          "superficie_km2": 2.0,
          "latitude": 48.8149986,
          "longitude": 2.316,
          "distance_km": 2.45
        },
        {
          "code_insee": "92023",
          "nom": "Clamart",
          "slug": "clamart",
          "code_postal": "92140",
          "population": 54491,
          "superficie_km2": 9.0,
          "latitude": 48.7960014,
          "longitude": 2.2550001,
          "distance_km": 2.54
        },
        {
          "code_insee": "92040",
          "nom": "Issy-les-Moulineaux",
          "slug": "issy-les-moulineaux",
          "code_postal": "92130",
          "population": 68580,
          "superficie_km2": 4.0,
          "latitude": 48.8240013,
          "longitude": 2.2639999,
          "distance_km": 2.92
        },
        {
          "code_insee": "92071",
          "nom": "Sceaux",
          "slug": "sceaux",
          "code_postal": "92330",
          "population": 20488,
          "superficie_km2": 4.0,
          "latitude": 48.7770004,
          "longitude": 2.2950001,
          "distance_km": 2.94
        },
        {
          "code_insee": "92060",
          "nom": "Le Plessis-Robinson",
          "slug": "le-plessis-robinson",
          "code_postal": "92350",
          "population": 29228,
          "superficie_km2": 3.0,
          "latitude": 48.7799988,
          "longitude": 2.2609999,
          "distance_km": 3.23
        },
        {
          "code_insee": "92014",
          "nom": "Bourg-la-Reine",
          "slug": "bourg-la-reine",
          "code_postal": "92340",
          "population": 20810,
          "superficie_km2": 2.0,
          "latitude": 48.7799988,
          "longitude": 2.316,
          "distance_km": 3.28
        },
        {
          "code_insee": "94003",
          "nom": "Arcueil",
          "slug": "arcueil",
          "code_postal": "94110",
          "population": 21557,
          "superficie_km2": 2.0,
          "latitude": 48.8059998,
          "longitude": 2.3340001,
          "distance_km": 3.39
        },
        {
          "code_insee": "94016",
          "nom": "Cachan",
          "slug": "cachan",
          "code_postal": "94230",
          "population": 30592,
          "superficie_km2": 3.0,
          "latitude": 48.7919998,
          "longitude": 2.332,
          "distance_km": 3.45
        },
        {
          "code_insee": "94037",
          "nom": "Gentilly",
          "slug": "gentilly",
          "code_postal": "94250",
          "population": 19048,
          "superficie_km2": 1.0,
          "latitude": 48.8129997,
          "longitude": 2.3440001,
          "distance_km": 4.25
        },
        {
          "code_insee": "92019",
          "nom": "Châtenay-Malabry",
          "slug": "chatenay-malabry",
          "code_postal": "92290",
          "population": 34898,
          "superficie_km2": 6.0,
          "latitude": 48.7680016,
          "longitude": 2.263,
          "distance_km": 4.3
        },
        {
          "code_insee": "92048",
          "nom": "Meudon",
          "slug": "meudon",
          "code_postal": "92190",
          "population": 46342,
          "superficie_km2": 10.0,
          "latitude": 48.8040009,
          "longitude": 2.227,
          "distance_km": 4.47
        },
        {
          "code_insee": "94038",
          "nom": "L'Haÿ-les-Roses",
          "slug": "l-hay-les-roses",
          "code_postal": "94240",
          "population": 31392,
          "superficie_km2": 4.0,
          "latitude": 48.776001,
          "longitude": 2.3380001,
          "distance_km": 4.74
        },
        {
          "code_insee": "94043",
          "nom": "Le Kremlin-Bicêtre",
          "slug": "le-kremlin-bicetre",
          "code_postal": "94270",
          "population": 24380,
          "superficie_km2": 2.0,
          "latitude": 48.8089981,
          "longitude": 2.3570001,
          "distance_km": 5.1
        },
        {
          "code_insee": "92012",
          "nom": "Boulogne-Billancourt",
          "slug": "boulogne-billancourt",
          "code_postal": "92100",
          "population": 119808,
          "superficie_km2": 6.0,
          "latitude": 48.8370018,
          "longitude": 2.2390001,
          "distance_km": 5.21
        },
        {
          "code_insee": "94076",
          "nom": "Villejuif",
          "slug": "villejuif",
          "code_postal": "94800",
          "population": 57753,
          "superficie_km2": 5.0,
          "latitude": 48.7929993,
          "longitude": 2.3599999,
          "distance_km": 5.39
        },
        {
          "code_insee": "94034",
          "nom": "Fresnes",
          "slug": "fresnes",
          "code_postal": "94260",
          "population": 28780,
          "superficie_km2": 4.0,
          "latitude": 48.757,
          "longitude": 2.326,
          "distance_km": 5.82
        }
      ],
      "zonage_abc": "Abis",
      "reclassement_abc": "Non",
      "codes_postaux": [
        {
          "code_postal": "92320",
          "libelle_acheminement": "CHATILLON"
        }
      ],
      "logement": {
        "logements_total": 18689,
        "residences_principales": 17149,
        "logements_vacants": 981,
        "residences_secondaires": 558,
        "maisons": 2351,
        "appartements": 15903,
        "proprietaires": 8507,
        "locataires": 8314,
        "hlm": 2830,
        "construits_avant_1919": 286,
        "construits_1919_1945": 1247,
        "construits_1946_1970": 4513,
        "construits_1971_1990": 3339,
        "construits_1991_2005": 5088,
        "construits_2006_2019": 2466,
        "chauffage_electrique": 6805,
        "chauffage_fioul": 642,
        "chauffage_gaz_ville": 9404,
        "chauffage_gaz_bouteille": 69,
        "chauffage_autre": 226,
        "menages": 17149,
        "logements_avant_1990": 9385
      },
      "artisans": {
        "monte_escalier": 0,
        "chauffage_pac_clim": 36,
        "isolation": 11,
        "menuiserie": 23,
        "fenetres_velux": 23,
        "couverture_toiture": 5,
        "facade_peinture": 44,
        "portes_volets": 23,
        "piscine": 7,
        "vmc_ventilation": 13,
        "assainissement": 29
      },
      "revenus": {
        "revenu_median": 29730.0,
        "part_menages_imposes": 74.0,
        "taux_pauvrete": 9.0
      },
      "aides_etat": {
        "zone_climatique": "H1",
        "qpv": false,
        "action_coeur_de_ville": false,
        "petites_villes_de_demain": false
      }
    },
    {
      "code_insee": "92023",
      "nom": "Clamart",
      "nom_a": null,
      "nom_de": null,
      "slug": "clamart",
      "code_postal": "92140",
      "population": 54491,
      "superficie_km2": 9.0,
      "latitude": 48.7960014,
      "longitude": 2.2550001,
      "villes_proches": [
        {
          "code_insee": "92060",
          "nom": "Le Plessis-Robinson",
          "slug": "le-plessis-robinson",
          "code_postal": "92350",
          "population": 29228,
          "superficie_km2": 3.0,
          "latitude": 48.7799988,
          "longitude": 2.2609999,
          "distance_km": 1.83
        },
        {
          "code_insee": "92048",
          "nom": "Meudon",
          "slug": "meudon",
          "code_postal": "92190",
          "population": 46342,
          "superficie_km2": 10.0,
          "latitude": 48.8040009,
          "longitude": 2.227,
          "distance_km": 2.24
        },
        {
          "code_insee": "92032",
          "nom": "Fontenay-aux-Roses",
          "slug": "fontenay-aux-roses",
          "code_postal": "92260",
          "population": 24772,
          "superficie_km2": 3.0,
          "latitude": 48.7900009,
          "longitude": 2.2869999,
          "distance_km": 2.44
        },
        {
          "code_insee": "92020",
          "nom": "Châtillon",
          "slug": "chatillon",
          "code_postal": "92320",
          "population": 36777,
          "superficie_km2": 3.0,
          "latitude": 48.8030014,
          "longitude": 2.2880001,
          "distance_km": 2.54
        },
        {
          "code_insee": "92019",
          "nom": "Châtenay-Malabry",
          "slug": "chatenay-malabry",
          "code_postal": "92290",
          "population": 34898,
          "superficie_km2": 6.0,
          "latitude": 48.7680016,
          "longitude": 2.263,
          "distance_km": 3.17
        },
        {
          "code_insee": "92040",
          "nom": "Issy-les-Moulineaux",
          "slug": "issy-les-moulineaux",
          "code_postal": "92130",
          "population": 68580,
          "superficie_km2": 4.0,
          "latitude": 48.8240013,
          "longitude": 2.2639999,
          "distance_km": 3.18
        },
        {
          "code_insee": "92071",
          "nom": "Sceaux",
          "slug": "sceaux",
          "code_postal": "92330",
          "population": 20488,
          "superficie_km2": 4.0,
          "latitude": 48.7770004,
          "longitude": 2.2950001,
          "distance_km": 3.61
        },
        {
          "code_insee": "92075",
          "nom": "Vanves",
          "slug": "vanves",
          "code_postal": "92170",
          "population": 28014,
          "superficie_km2": 2.0,
          "latitude": 48.8219986,
          "longitude": 2.2869999,
          "distance_km": 3.72
        },
        {
          "code_insee": "92046",
          "nom": "Malakoff",
          "slug": "malakoff",
          "code_postal": "92240",
          "population": 30292,
          "superficie_km2": 2.0,
          "latitude": 48.8170013,
          "longitude": 2.2969999,
          "distance_km": 3.86
        },
        {
          "code_insee": "92007",
          "nom": "Bagneux",
          "slug": "bagneux",
          "code_postal": "92220",
          "population": 43699,
          "superficie_km2": 4.0,
          "latitude": 48.7980003,
          "longitude": 2.3099999,
          "distance_km": 4.03
        },
        {
          "code_insee": "92072",
          "nom": "Sèvres",
          "slug": "sevres",
          "code_postal": "92310",
          "population": 22618,
          "superficie_km2": 4.0,
          "latitude": 48.8219986,
          "longitude": 2.21,
          "distance_km": 4.38
        },
        {
          "code_insee": "78640",
          "nom": "Vélizy-Villacoublay",
          "slug": "velizy-villacoublay",
          "code_postal": "78140",
          "population": 22713,
          "superficie_km2": 9.0,
          "latitude": 48.7840004,
          "longitude": 2.197,
          "distance_km": 4.45
        },
        {
          "code_insee": "92012",
          "nom": "Boulogne-Billancourt",
          "slug": "boulogne-billancourt",
          "code_postal": "92100",
          "population": 119808,
          "superficie_km2": 6.0,
          "latitude": 48.8370018,
          "longitude": 2.2390001,
          "distance_km": 4.71
        },
        {
          "code_insee": "92022",
          "nom": "Chaville",
          "slug": "chaville",
          "code_postal": "92370",
          "population": 19991,
          "superficie_km2": 4.0,
          "latitude": 48.8079987,
          "longitude": 2.1919999,
          "distance_km": 4.8
        },
        {
          "code_insee": "92014",
          "nom": "Bourg-la-Reine",
          "slug": "bourg-la-reine",
          "code_postal": "92340",
          "population": 20810,
          "superficie_km2": 2.0,
          "latitude": 48.7799988,
          "longitude": 2.316,
          "distance_km": 4.81
        },
        {
          "code_insee": "92049",
          "nom": "Montrouge",
          "slug": "montrouge",
          "code_postal": "92120",
          "population": 47657,
          "superficie_km2": 2.0,
          "latitude": 48.8149986,
          "longitude": 2.316,
          "distance_km": 4.94
        },
        {
          "code_insee": "91645",
          "nom": "Verrières-le-Buisson",
          "slug": "verrieres-le-buisson",
          "code_postal": "91370",
          "population": 14597,
          "superficie_km2": 10.0,
          "latitude": 48.75,
          "longitude": 2.2520001,
          "distance_km": 5.12
        },
        {
          "code_insee": "91064",
          "nom": "Bièvres",
          "slug": "bievres",
          "code_postal": "91570",
          "population": 4748,
          "superficie_km2": 10.0,
          "latitude": 48.757,
          "longitude": 2.207,
          "distance_km": 5.58
        },
        {
          "code_insee": "94016",
          "nom": "Cachan",
          "slug": "cachan",
          "code_postal": "94230",
          "population": 30592,
          "superficie_km2": 3.0,
          "latitude": 48.7919998,
          "longitude": 2.332,
          "distance_km": 5.66
        },
        {
          "code_insee": "94003",
          "nom": "Arcueil",
          "slug": "arcueil",
          "code_postal": "94110",
          "population": 21557,
          "superficie_km2": 2.0,
          "latitude": 48.8059998,
          "longitude": 2.3340001,
          "distance_km": 5.89
        }
      ],
      "zonage_abc": "Abis",
      "reclassement_abc": "Non",
      "codes_postaux": [
        {
          "code_postal": "92140",
          "libelle_acheminement": "CLAMART"
        }
      ],
      "logement": {
        "logements_total": 27181,
        "residences_principales": 24803,
        "logements_vacants": 1614,
        "residences_secondaires": 763,
        "maisons": 6999,
        "appartements": 19895,
        "proprietaires": 12329,
        "locataires": 11962,
        "hlm": 6194,
        "construits_avant_1919": 1399,
        "construits_1919_1945": 3305,
        "construits_1946_1970": 8410,
        "construits_1971_1990": 4645,
        "construits_1991_2005": 3043,
        "construits_2006_2019": 2509,
        "chauffage_electrique": 6101,
        "chauffage_fioul": 1839,
        "chauffage_gaz_ville": 16288,
        "chauffage_gaz_bouteille": 234,
        "chauffage_autre": 338,
        "menages": 24803,
        "logements_avant_1990": 17759
      },
      "artisans": {
        "monte_escalier": 5,
        "chauffage_pac_clim": 86,
        "isolation": 44,
        "menuiserie": 62,
        "fenetres_velux": 62,
        "couverture_toiture": 23,
        "facade_peinture": 80,
        "portes_volets": 62,
        "piscine": 4,
        "vmc_ventilation": 26,
        "assainissement": 63
      },
      "revenus": {
        "revenu_median": 28720.0,
        "part_menages_imposes": 69.0,
        "taux_pauvrete": 10.0
      },
      "aides_etat": {
        "zone_climatique": "H1",
        "qpv": false,
        "action_coeur_de_ville": false,
        "petites_villes_de_demain": false
      }
    },
    {
      "code_insee": "92024",
      "nom": "Clichy",
      "nom_a": null,
      "nom_de": null,
      "slug": "clichy",
      "code_postal": "92110",
      "population": 64849,
      "superficie_km2": 3.0,
      "latitude": 48.9039993,
      "longitude": 2.306,
      "villes_proches": [
        {
          "code_insee": "92044",
          "nom": "Levallois-Perret",
          "slug": "levallois-perret",
          "code_postal": "92300",
          "population": 68009,
          "superficie_km2": 2.0,
          "latitude": 48.8950005,
          "longitude": 2.2869999,
          "distance_km": 1.71
        },
        {
          "code_insee": "92004",
          "nom": "Asnières-sur-Seine",
          "slug": "asnieres-sur-seine",
          "code_postal": "92600",
          "population": 89662,
          "superficie_km2": 5.0,
          "latitude": 48.9150009,
          "longitude": 2.2880001,
          "distance_km": 1.8
        },
        {
          "code_insee": "93070",
          "nom": "Saint-Ouen-sur-Seine",
          "slug": "saint-ouen-sur-seine",
          "code_postal": "93400",
          "population": 53207,
          "superficie_km2": 4.0,
          "latitude": 48.9099999,
          "longitude": 2.3329999,
          "distance_km": 2.08
        },
        {
          "code_insee": "92009",
          "nom": "Bois-Colombes",
          "slug": "bois-colombes",
          "code_postal": "92270",
          "population": 29765,
          "superficie_km2": 2.0,
          "latitude": 48.9150009,
          "longitude": 2.267,
          "distance_km": 3.1
        },
        {
          "code_insee": "92036",
          "nom": "Gennevilliers",
          "slug": "gennevilliers",
          "code_postal": "92230",
          "population": 49410,
          "superficie_km2": 12.0,
          "latitude": 48.9339981,
          "longitude": 2.2939999,
          "distance_km": 3.45
        },
        {
          "code_insee": "92051",
          "nom": "Neuilly-sur-Seine",
          "slug": "neuilly-sur-seine",
          "code_postal": "92200",
          "population": 59267,
          "superficie_km2": 4.0,
          "latitude": 48.8849983,
          "longitude": 2.266,
          "distance_km": 3.61
        },
        {
          "code_insee": "92026",
          "nom": "Courbevoie",
          "slug": "courbevoie",
          "code_postal": "92400",
          "population": 81516,
          "superficie_km2": 4.0,
          "latitude": 48.8979988,
          "longitude": 2.256,
          "distance_km": 3.72
        },
        {
          "code_insee": "92078",
          "nom": "Villeneuve-la-Garenne",
          "slug": "villeneuve-la-garenne",
          "code_postal": "92390",
          "population": 25371,
          "superficie_km2": 3.0,
          "latitude": 48.9360008,
          "longitude": 2.3239999,
          "distance_km": 3.79
        },
        {
          "code_insee": "93039",
          "nom": "L'Île-Saint-Denis",
          "slug": "l-ile-saint-denis",
          "code_postal": "93450",
          "population": 8664,
          "superficie_km2": 2.0,
          "latitude": 48.9399986,
          "longitude": 2.326,
          "distance_km": 4.26
        },
        {
          "code_insee": "92035",
          "nom": "La Garenne-Colombes",
          "slug": "la-garenne-colombes",
          "code_postal": "92250",
          "population": 29932,
          "superficie_km2": 2.0,
          "latitude": 48.9070015,
          "longitude": 2.2449999,
          "distance_km": 4.47
        },
        {
          "code_insee": "92025",
          "nom": "Colombes",
          "slug": "colombes",
          "code_postal": "92700",
          "population": 88870,
          "superficie_km2": 8.0,
          "latitude": 48.9220009,
          "longitude": 2.247,
          "distance_km": 4.75
        },
        {
          "code_insee": "93066",
          "nom": "Saint-Denis",
          "slug": "saint-denis",
          "code_postal": "93210",
          "population": 113942,
          "superficie_km2": 12.0,
          "latitude": 48.9300003,
          "longitude": 2.359,
          "distance_km": 4.83
        },
        {
          "code_insee": "92062",
          "nom": "Puteaux",
          "slug": "puteaux",
          "code_postal": "92800",
          "population": 43672,
          "superficie_km2": 3.0,
          "latitude": 48.8839989,
          "longitude": 2.2379999,
          "distance_km": 5.45
        },
        {
          "code_insee": "93031",
          "nom": "Épinay-sur-Seine",
          "slug": "epinay-sur-seine",
          "code_postal": "93800",
          "population": 53489,
          "superficie_km2": 5.0,
          "latitude": 48.9550018,
          "longitude": 2.3139999,
          "distance_km": 5.7
        },
        {
          "code_insee": "93001",
          "nom": "Aubervilliers",
          "slug": "aubervilliers",
          "code_postal": "93300",
          "population": 90071,
          "superficie_km2": 6.0,
          "latitude": 48.9119988,
          "longitude": 2.3840001,
          "distance_km": 5.77
        },
        {
          "code_insee": "75056",
          "nom": "Paris",
          "slug": "paris",
          "code_postal": "75000",
          "population": 2133111,
          "superficie_km2": 105.0,
          "latitude": 48.8534,
          "longitude": 2.3488,
          "distance_km": 6.44
        },
        {
          "code_insee": "93079",
          "nom": "Villetaneuse",
          "slug": "villetaneuse",
          "code_postal": "93430",
          "population": 12663,
          "superficie_km2": 2.0,
          "latitude": 48.9570007,
          "longitude": 2.345,
          "distance_km": 6.55
        },
        {
          "code_insee": "95018",
          "nom": "Argenteuil",
          "slug": "argenteuil",
          "code_postal": "95100",
          "population": 107221,
          "superficie_km2": 17.0,
          "latitude": 48.9510002,
          "longitude": 2.2409999,
          "distance_km": 7.06
        },
        {
          "code_insee": "92050",
          "nom": "Nanterre",
          "slug": "nanterre",
          "code_postal": "92000",
          "population": 97351,
          "superficie_km2": 12.0,
          "latitude": 48.8959999,
          "longitude": 2.207,
          "distance_km": 7.29
        },
        {
          "code_insee": "92073",
          "nom": "Suresnes",
          "slug": "suresnes",
          "code_postal": "92150",
          "population": 49104,
          "superficie_km2": 4.0,
          "latitude": 48.8699989,
          "longitude": 2.22,
          "distance_km": 7.34
        }
      ],
      "zonage_abc": "Abis",
      "reclassement_abc": "Non",
      "codes_postaux": [
        {
          "code_postal": "92110",
          "libelle_acheminement": "CLICHY"
        }
      ],
      "logement": {
        "logements_total": 33117,
        "residences_principales": 30543,
        "logements_vacants": 1377,
        "residences_secondaires": 1196,
        "maisons": 382,
        "appartements": 32092,
        "proprietaires": 8483,
        "locataires": 21490,
        "hlm": 9268,
        "construits_avant_1919": 2204,
        "construits_1919_1945": 5861,
        "construits_1946_1970": 6317,
        "construits_1971_1990": 7031,
        "construits_1991_2005": 5158,
        "construits_2006_2019": 3345,
        "chauffage_electrique": 10271,
        "chauffage_fioul": 594,
        "chauffage_gaz_ville": 19318,
        "chauffage_gaz_bouteille": 130,
        "chauffage_autre": 228,
        "menages": 30543,
        "logements_avant_1990": 21413
      },
      "artisans": {
        "monte_escalier": 8,
        "chauffage_pac_clim": 139,
        "isolation": 49,
        "menuiserie": 66,
        "fenetres_velux": 66,
        "couverture_toiture": 21,
        "facade_peinture": 205,
        "portes_volets": 66,
        "piscine": 8,
        "vmc_ventilation": 49,
        "assainissement": 98
      },
      "revenus": {
        "revenu_median": 21520.0,
        "part_menages_imposes": 59.0,
        "taux_pauvrete": 21.0
      },
      "aides_etat": {
        "zone_climatique": "H1",
        "qpv": false,
        "action_coeur_de_ville": false,
        "petites_villes_de_demain": false
      }
    },
    {
      "code_insee": "92025",
      "nom": "Colombes",
      "nom_a": null,
      "nom_de": null,
      "slug": "colombes",
      "code_postal": "92700",
      "population": 88870,
      "superficie_km2": 8.0,
      "latitude": 48.9220009,
      "longitude": 2.247,
      "villes_proches": [
        {
          "code_insee": "92009",
          "nom": "Bois-Colombes",
          "slug": "bois-colombes",
          "code_postal": "92270",
          "population": 29765,
          "superficie_km2": 2.0,
          "latitude": 48.9150009,
          "longitude": 2.267,
          "distance_km": 1.66
        },
        {
          "code_insee": "92035",
          "nom": "La Garenne-Colombes",
          "slug": "la-garenne-colombes",
          "code_postal": "92250",
          "population": 29932,
          "superficie_km2": 2.0,
          "latitude": 48.9070015,
          "longitude": 2.2449999,
          "distance_km": 1.67
        },
        {
          "code_insee": "95063",
          "nom": "Bezons",
          "slug": "bezons",
          "code_postal": "95870",
          "population": 32017,
          "superficie_km2": 4.0,
          "latitude": 48.9259987,
          "longitude": 2.211,
          "distance_km": 2.67
        },
        {
          "code_insee": "92026",
          "nom": "Courbevoie",
          "slug": "courbevoie",
          "code_postal": "92400",
          "population": 81516,
          "superficie_km2": 4.0,
          "latitude": 48.8979988,
          "longitude": 2.256,
          "distance_km": 2.75
        },
        {
          "code_insee": "92004",
          "nom": "Asnières-sur-Seine",
          "slug": "asnieres-sur-seine",
          "code_postal": "92600",
          "population": 89662,
          "superficie_km2": 5.0,
          "latitude": 48.9150009,
          "longitude": 2.2880001,
          "distance_km": 3.1
        },
        {
          "code_insee": "95018",
          "nom": "Argenteuil",
          "slug": "argenteuil",
          "code_postal": "95100",
          "population": 107221,
          "superficie_km2": 17.0,
          "latitude": 48.9510002,
          "longitude": 2.2409999,
          "distance_km": 3.25
        },
        {
          "code_insee": "92036",
          "nom": "Gennevilliers",
          "slug": "gennevilliers",
          "code_postal": "92230",
          "population": 49410,
          "superficie_km2": 12.0,
          "latitude": 48.9339981,
          "longitude": 2.2939999,
          "distance_km": 3.68
        },
        {
          "code_insee": "92050",
          "nom": "Nanterre",
          "slug": "nanterre",
          "code_postal": "92000",
          "population": 97351,
          "superficie_km2": 12.0,
          "latitude": 48.8959999,
          "longitude": 2.207,
          "distance_km": 4.11
        },
        {
          "code_insee": "92044",
          "nom": "Levallois-Perret",
          "slug": "levallois-perret",
          "code_postal": "92300",
          "population": 68009,
          "superficie_km2": 2.0,
          "latitude": 48.8950005,
          "longitude": 2.2869999,
          "distance_km": 4.19
        },
        {
          "code_insee": "92062",
          "nom": "Puteaux",
          "slug": "puteaux",
          "code_postal": "92800",
          "population": 43672,
          "superficie_km2": 3.0,
          "latitude": 48.8839989,
          "longitude": 2.2379999,
          "distance_km": 4.28
        },
        {
          "code_insee": "92051",
          "nom": "Neuilly-sur-Seine",
          "slug": "neuilly-sur-seine",
          "code_postal": "92200",
          "population": 59267,
          "superficie_km2": 4.0,
          "latitude": 48.8849983,
          "longitude": 2.266,
          "distance_km": 4.34
        },
        {
          "code_insee": "78311",
          "nom": "Houilles",
          "slug": "houilles",
          "code_postal": "78800",
          "population": 33449,
          "superficie_km2": 4.0,
          "latitude": 48.9269981,
          "longitude": 2.188,
          "distance_km": 4.35
        },
        {
          "code_insee": "92024",
          "nom": "Clichy",
          "slug": "clichy",
          "code_postal": "92110",
          "population": 64849,
          "superficie_km2": 3.0,
          "latitude": 48.9039993,
          "longitude": 2.306,
          "distance_km": 4.75
        },
        {
          "code_insee": "78124",
          "nom": "Carrières-sur-Seine",
          "slug": "carrieres-sur-seine",
          "code_postal": "78420",
          "population": 15038,
          "superficie_km2": 5.0,
          "latitude": 48.9119988,
          "longitude": 2.178,
          "distance_km": 5.16
        },
        {
          "code_insee": "95582",
          "nom": "Sannois",
          "slug": "sannois",
          "code_postal": "95110",
          "population": 26768,
          "superficie_km2": 5.0,
          "latitude": 48.9720001,
          "longitude": 2.253,
          "distance_km": 5.58
        },
        {
          "code_insee": "78586",
          "nom": "Sartrouville",
          "slug": "sartrouville",
          "code_postal": "78500",
          "population": 51220,
          "superficie_km2": 8.0,
          "latitude": 48.9399986,
          "longitude": 2.175,
          "distance_km": 5.63
        },
        {
          "code_insee": "92078",
          "nom": "Villeneuve-la-Garenne",
          "slug": "villeneuve-la-garenne",
          "code_postal": "92390",
          "population": 25371,
          "superficie_km2": 3.0,
          "latitude": 48.9360008,
          "longitude": 2.3239999,
          "distance_km": 5.84
        },
        {
          "code_insee": "95555",
          "nom": "Saint-Gratien",
          "slug": "saint-gratien",
          "code_postal": "95210",
          "population": 20866,
          "superficie_km2": 3.0,
          "latitude": 48.9690018,
          "longitude": 2.2850001,
          "distance_km": 5.92
        },
        {
          "code_insee": "92073",
          "nom": "Suresnes",
          "slug": "suresnes",
          "code_postal": "92150",
          "population": 49104,
          "superficie_km2": 4.0,
          "latitude": 48.8699989,
          "longitude": 2.22,
          "distance_km": 6.11
        },
        {
          "code_insee": "93039",
          "nom": "L'Île-Saint-Denis",
          "slug": "l-ile-saint-denis",
          "code_postal": "93450",
          "population": 8664,
          "superficie_km2": 2.0,
          "latitude": 48.9399986,
          "longitude": 2.326,
          "distance_km": 6.11
        }
      ],
      "zonage_abc": "Abis",
      "reclassement_abc": "Non",
      "codes_postaux": [
        {
          "code_postal": "92700",
          "libelle_acheminement": "COLOMBES"
        }
      ],
      "logement": {
        "logements_total": 40345,
        "residences_principales": 37327,
        "logements_vacants": 2348,
        "residences_secondaires": 668,
        "maisons": 9578,
        "appartements": 30035,
        "proprietaires": 16701,
        "locataires": 19928,
        "hlm": 10781,
        "construits_avant_1919": 2013,
        "construits_1919_1945": 8078,
        "construits_1946_1970": 9607,
        "construits_1971_1990": 9049,
        "construits_1991_2005": 3805,
        "construits_2006_2019": 3796,
        "chauffage_electrique": 8622,
        "chauffage_fioul": 2528,
        "chauffage_gaz_ville": 25556,
        "chauffage_gaz_bouteille": 137,
        "chauffage_autre": 482,
        "menages": 37327,
        "logements_avant_1990": 28747
      },
      "artisans": {
        "monte_escalier": 7,
        "chauffage_pac_clim": 152,
        "isolation": 83,
        "menuiserie": 79,
        "fenetres_velux": 79,
        "couverture_toiture": 48,
        "facade_peinture": 156,
        "portes_volets": 79,
        "piscine": 5,
        "vmc_ventilation": 59,
        "assainissement": 101
      },
      "revenus": {
        "revenu_median": 24070.0,
        "part_menages_imposes": 62.0,
        "taux_pauvrete": 16.0
      },
      "aides_etat": {
        "zone_climatique": "H1",
        "qpv": true,
        "action_coeur_de_ville": false,
        "petites_villes_de_demain": false
      }
    },