{
  "departement": {
    "code": "93",
    "nom": "Seine-Saint-Denis",
    "slug": "seine-saint-denis",
    "population_totale": 1670745
  },
  "region": {
    "id": 11,
    "code": "10",
    "nom": "Île-de-France",
    "slug": "ile-de-france"
  },
  "voisins": [
    {
      "dep_code": "75",
      "dep_nom": "Paris",
      "dep_slug": "paris"
    },
    {
      "dep_code": "77",
      "dep_nom": "Seine-et-Marne",
      "dep_slug": "seine-et-marne"
    },
    {
      "dep_code": "78",
      "dep_nom": "Yvelines",
      "dep_slug": "yvelines"
    },
    {
      "dep_code": "91",
      "dep_nom": "Essonne",
      "dep_slug": "essonne"
    }
  ],
  "communes_count": 40,
  "communes": [
    {
      "code_insee": "93001",
      "nom": "Aubervilliers",
      "nom_a": null,
      "nom_de": null,
      "slug": "aubervilliers",
      "code_postal": "93300",
      "population": 90071,
      "superficie_km2": 6.0,
      "latitude": 48.9119988,
      "longitude": 2.3840001,
      "villes_proches": [
        {
          "code_insee": "93055",
          "nom": "Pantin",
          "slug": "pantin",
          "code_postal": "93500",
          "population": 60800,
          "superficie_km2": 5.0,
          "latitude": 48.8979988,
          "longitude": 2.4089999,
          "distance_km": 2.4
        },
        {
          "code_insee": "93027",
          "nom": "La Courneuve",
          "slug": "la-courneuve",
          "code_postal": "93120",
          "population": 47160,
          "superficie_km2": 8.0,
          "latitude": 48.9319992,
          "longitude": 2.4000001,
          "distance_km": 2.51
        },
        {
          "code_insee": "93066",
          "nom": "Saint-Denis",
          "slug": "saint-denis",
          "code_postal": "93210",
          "population": 113942,
          "superficie_km2": 12.0,
          "latitude": 48.9300003,
          "longitude": 2.359,
          "distance_km": 2.71
        },
        {
          "code_insee": "93061",
          "nom": "Le Pré-Saint-Gervais",
          "slug": "le-pre-saint-gervais",
          "code_postal": "93310",
          "population": 16865,
          "superficie_km2": 1.0,
          "latitude": 48.8849983,
          "longitude": 2.405,
          "distance_km": 3.37
        },
        {
          "code_insee": "93070",
          "nom": "Saint-Ouen-sur-Seine",
          "slug": "saint-ouen-sur-seine",
          "code_postal": "93400",
          "population": 53207,
          "superficie_km2": 4.0,
          "latitude": 48.9099999,
          "longitude": 2.3329999,
          "distance_km": 3.73
        },
        {
          "code_insee": "93008",
          "nom": "Bobigny",
          "slug": "bobigny",
          "code_postal": "93000",
          "population": 55056,
          "superficie_km2": 7.0,
          "latitude": 48.908001,
          "longitude": 2.4389999,
          "distance_km": 4.04
        },
        {
          "code_insee": "93013",
          "nom": "Le Bourget",
          "slug": "le-bourget",
          "code_postal": "93350",
          "population": 14832,
          "superficie_km2": 2.0,
          "latitude": 48.9360008,
          "longitude": 2.428,
          "distance_km": 4.18
        },
        {
          "code_insee": "93045",
          "nom": "Les Lilas",
          "slug": "les-lilas",
          "code_postal": "93260",
          "population": 23469,
          "superficie_km2": 1.0,
          "latitude": 48.882,
          "longitude": 2.4200001,
          "distance_km": 4.25
        },
        {
          "code_insee": "93029",
          "nom": "Drancy",
          "slug": "drancy",
          "code_postal": "93700",
          "population": 71363,
          "superficie_km2": 8.0,
          "latitude": 48.9230003,
          "longitude": 2.4449999,
          "distance_km": 4.62
        },
        {
          "code_insee": "93063",
          "nom": "Romainville",
          "slug": "romainville",
          "code_postal": "93230",
          "population": 33266,
          "superficie_km2": 3.0,
          "latitude": 48.8849983,
          "longitude": 2.438,
          "distance_km": 4.96
        },
        {
          "code_insee": "93072",
          "nom": "Stains",
          "slug": "stains",
          "code_postal": "93240",
          "population": 40359,
          "superficie_km2": 5.0,
          "latitude": 48.9570007,
          "longitude": 2.385,
          "distance_km": 5
        },
        {
          "code_insee": "92078",
          "nom": "Villeneuve-la-Garenne",
          "slug": "villeneuve-la-garenne",
          "code_postal": "92390",
          "population": 25371,
          "superficie_km2": 3.0,
          "latitude": 48.9360008,
          "longitude": 2.3239999,
          "distance_km": 5.13
        },
        {
          "code_insee": "93030",
          "nom": "Dugny",
          "slug": "dugny",
          "code_postal": "93440",
          "population": 11328,
          "superficie_km2": 4.0,
          "latitude": 48.9500008,
          "longitude": 2.424,
          "distance_km": 5.14
        },
        {
          "code_insee": "93039",
          "nom": "L'Île-Saint-Denis",
          "slug": "l-ile-saint-denis",
          "code_postal": "93450",
          "population": 8664,
          "superficie_km2": 2.0,
          "latitude": 48.9399986,
          "longitude": 2.326,
          "distance_km": 5.26
        },
        {
          "code_insee": "93006",
          "nom": "Bagnolet",
          "slug": "bagnolet",
          "code_postal": "93170",
          "population": 39366,
          "superficie_km2": 3.0,
          "latitude": 48.8689995,
          "longitude": 2.4230001,
          "distance_km": 5.57
        },
        {
          "code_insee": "93059",
          "nom": "Pierrefitte-sur-Seine",
          "slug": "pierrefitte-sur-seine",
          "code_postal": "93380",
          "population": 32379,
          "superficie_km2": 3.0,
          "latitude": 48.9609985,
          "longitude": 2.3629999,
          "distance_km": 5.66
        },
        {
          "code_insee": "93079",
          "nom": "Villetaneuse",
          "slug": "villetaneuse",
          "code_postal": "93430",
          "population": 12663,
          "superficie_km2": 2.0,
          "latitude": 48.9570007,
          "longitude": 2.345,
          "distance_km": 5.76
        },
        {
          "code_insee": "92024",
          "nom": "Clichy",
          "slug": "clichy",
          "code_postal": "92110",
          "population": 64849,
          "superficie_km2": 3.0,
          "latitude": 48.9039993,
          "longitude": 2.306,
          "distance_km": 5.77
        },
        {
          "code_insee": "93053",
          "nom": "Noisy-le-Sec",
          "slug": "noisy-le-sec",
          "code_postal": "93130",
          "population": 46094,
          "superficie_km2": 5.0,
          "latitude": 48.8909988,
          "longitude": 2.4590001,
          "distance_km": 5.96
        },
        {
          "code_insee": "93007",
          "nom": "Le Blanc-Mesnil",
          "slug": "le-blanc-mesnil",
          "code_postal": "93150",
          "population": 58257,
          "superficie_km2": 8.0,
          "latitude": 48.9399986,
          "longitude": 2.461,
          "distance_km": 6.43
        }
      ],
      "zonage_abc": "Abis",
      "reclassement_abc": "Non",
      "codes_postaux": [
        {
          "code_postal": "93300",
          "libelle_acheminement": "AUBERVILLIERS"
        }
      ],
      "logement": {
        "logements_total": 37613,
        "residences_principales": 34990,
        "logements_vacants": 2224,
        "residences_secondaires": 399,
        "maisons": 2313,
        "appartements": 33838,
        "proprietaires": 7274,
        "locataires": 27179,
        "hlm": 10981,
        "construits_avant_1919": 1207,
        "construits_1919_1945": 4627,
        "construits_1946_1970": 10694,
        "construits_1971_1990": 7084,
        "construits_1991_2005": 3153,
        "construits_2006_2019": 8014,
        "chauffage_electrique": 13673,
        "chauffage_fioul": 752,
        "chauffage_gaz_ville": 20054,
        "chauffage_gaz_bouteille": 182,
        "chauffage_autre": 326,
        "menages": 34990,
        "logements_avant_1990": 23612
      },
      "artisans": {
        "monte_escalier": 13,
        "chauffage_pac_clim": 224,
        "isolation": 225,
        "menuiserie": 135,
        "fenetres_velux": 135,
        "couverture_toiture": 117,
        "facade_peinture": 451,
        "portes_volets": 135,
        "piscine": 5,
        "vmc_ventilation": 65,
        "assainissement": 167
      },
      "revenus": {
        "revenu_median": 14910.0,
        "part_menages_imposes": 35.0,
        "taux_pauvrete": 41.0
      },
      "aides_etat": {
        "zone_climatique": "H1",
        "qpv": true,
        "action_coeur_de_ville": false,
        "petites_villes_de_demain": false
      }
    },
    {
      "code_insee": "93005",
      "nom": "Aulnay-sous-Bois",
      "nom_a": null,
      "nom_de": null,
      "slug": "aulnay-sous-bois",
      "code_postal": "93600",
      "population": 86135,
      "superficie_km2": 16.0,
      "latitude": 48.9459992,
      "longitude": 2.493,
      "villes_proches": [
        {
          "code_insee": "93007",
          "nom": "Le Blanc-Mesnil",
          "slug": "le-blanc-mesnil",
          "code_postal": "93150",
          "population": 58257,
          "superficie_km2": 8.0,
          "latitude": 48.9399986,
          "longitude": 2.461,
          "distance_km": 2.43
        },
        {
          "code_insee": "93071",
          "nom": "Sevran",
          "slug": "sevran",
          "code_postal": "93270",
          "population": 51845,
          "superficie_km2": 7.0,
          "latitude": 48.9389992,
          "longitude": 2.5309999,
          "distance_km": 2.88
        },
        {
          "code_insee": "93078",
          "nom": "Villepinte",
          "slug": "villepinte",
          "code_postal": "93420",
          "population": 38725,
          "superficie_km2": 10.0,
          "latitude": 48.9589996,
          "longitude": 2.536,
          "distance_km": 3.46
        },
        {
          "code_insee": "93046",
          "nom": "Livry-Gargan",
          "slug": "livry-gargan",
          "code_postal": "93190",
          "population": 46028,
          "superficie_km2": 7.0,
          "latitude": 48.9199982,
          "longitude": 2.5350001,
          "distance_km": 4.22
        },
        {
          "code_insee": "93057",
          "nom": "Les Pavillons-sous-Bois",
          "slug": "les-pavillons-sous-bois",
          "code_postal": "93320",
          "population": 24165,
          "superficie_km2": 3.0,
          "latitude": 48.908001,
          "longitude": 2.503,
          "distance_km": 4.29
        },
        {
          "code_insee": "93029",
          "nom": "Drancy",
          "slug": "drancy",
          "code_postal": "93700",
          "population": 71363,
          "superficie_km2": 8.0,
          "latitude": 48.9230003,
          "longitude": 2.4449999,
          "distance_km": 4.34
        },
        {
          "code_insee": "95088",
          "nom": "Bonneuil-en-France",
          "slug": "bonneuil-en-france",
          "code_postal": "95500",
          "population": 1166,
          "superficie_km2": 5.0,
          "latitude": 48.9650002,
          "longitude": 2.4349999,
          "distance_km": 4.73
        },
        {
          "code_insee": "93013",
          "nom": "Le Bourget",
          "slug": "le-bourget",
          "code_postal": "93350",
          "population": 14832,
          "superficie_km2": 2.0,
          "latitude": 48.9360008,
          "longitude": 2.428,
          "distance_km": 4.88
        },
        {
          "code_insee": "93010",
          "nom": "Bondy",
          "slug": "bondy",
          "code_postal": "93140",
          "population": 52905,
          "superficie_km2": 5.0,
          "latitude": 48.9020004,
          "longitude": 2.484,
          "distance_km": 4.94
        },
        {
          "code_insee": "93030",
          "nom": "Dugny",
          "slug": "dugny",
          "code_postal": "93440",
          "population": 11328,
          "superficie_km2": 4.0,
          "latitude": 48.9500008,
          "longitude": 2.424,
          "distance_km": 5.06
        },
        {
          "code_insee": "95277",
          "nom": "Gonesse",
          "slug": "gonesse",
          "code_postal": "95500",
          "population": 25963,
          "superficie_km2": 20.0,
          "latitude": 48.9860001,
          "longitude": 2.457,
          "distance_km": 5.17
        },
        {
          "code_insee": "93014",
          "nom": "Clichy-sous-Bois",
          "slug": "clichy-sous-bois",
          "code_postal": "93390",
          "population": 29735,
          "superficie_km2": 4.0,
          "latitude": 48.908001,
          "longitude": 2.546,
          "distance_km": 5.73
        },
        {
          "code_insee": "93073",
          "nom": "Tremblay-en-France",
          "slug": "tremblay-en-france",
          "code_postal": "93290",
          "population": 37271,
          "superficie_km2": 23.0,
          "latitude": 48.9780006,
          "longitude": 2.5550001,
          "distance_km": 5.76
        },
        {
          "code_insee": "93008",
          "nom": "Bobigny",
          "slug": "bobigny",
          "code_postal": "93000",
          "population": 55056,
          "superficie_km2": 7.0,
          "latitude": 48.908001,
          "longitude": 2.4389999,
          "distance_km": 5.78
        },
        {
          "code_insee": "93062",
          "nom": "Le Raincy",
          "slug": "le-raincy",
          "code_postal": "93340",
          "population": 14877,
          "superficie_km2": 2.0,
          "latitude": 48.8969994,
          "longitude": 2.52,
          "distance_km": 5.79
        },
        {
          "code_insee": "93053",
          "nom": "Noisy-le-Sec",
          "slug": "noisy-le-sec",
          "code_postal": "93130",
          "population": 46094,
          "superficie_km2": 5.0,
          "latitude": 48.8909988,
          "longitude": 2.4590001,
          "distance_km": 6.6
        },
        {
          "code_insee": "93074",
          "nom": "Vaujours",
          "slug": "vaujours",
          "code_postal": "93410",
          "population": 7478,
          "superficie_km2": 4.0,
          "latitude": 48.9319992,
          "longitude": 2.5810001,
          "distance_km": 6.61
        },
        {
          "code_insee": "95612",
          "nom": "Le Thillay",
          "slug": "le-thillay",
          "code_postal": "95500",
          "population": 4589,
          "superficie_km2": 4.0,
          "latitude": 49.0040016,
          "longitude": 2.4690001,
          "distance_km": 6.68
        },
        {
          "code_insee": "93015",
          "nom": "Coubron",
          "slug": "coubron",
          "code_postal": "93470",
          "population": 5063,
          "superficie_km2": 4.0,
          "latitude": 48.9179993,
          "longitude": 2.576,
          "distance_km": 6.82
        },
        {
          "code_insee": "93077",
          "nom": "Villemomble",
          "slug": "villemomble",
          "code_postal": "93250",
          "population": 30332,
          "superficie_km2": 4.0,
          "latitude": 48.8849983,
          "longitude": 2.5090001,
          "distance_km": 6.88
        }
      ],
      "zonage_abc": "A",
      "reclassement_abc": "Non",
      "codes_postaux": [
        {
          "code_postal": "93600",
          "libelle_acheminement": "AULNAY SOUS BOIS"
        }
      ],
      "logement": {
        "logements_total": 32935,
        "residences_principales": 31223,
        "logements_vacants": 1396,
        "residences_secondaires": 315,
        "maisons": 13060,
        "appartements": 18890,
        "proprietaires": 14126,
        "locataires": 16610,
        "hlm": 9043,
        "construits_avant_1919": 816,
        "construits_1919_1945": 3905,
        "construits_1946_1970": 11401,
        "construits_1971_1990": 8771,
        "construits_1991_2005": 2219,
        "construits_2006_2019": 3883,
        "chauffage_electrique": 7424,
        "chauffage_fioul": 997,
        "chauffage_gaz_ville": 22077,
        "chauffage_gaz_bouteille": 121,
        "chauffage_autre": 602,
        "menages": 31223,
        "logements_avant_1990": 24893
      },
      "artisans": {
        "monte_escalier": 21,
        "chauffage_pac_clim": 267,
        "isolation": 236,
        "menuiserie": 129,
        "fenetres_velux": 129,
        "couverture_toiture": 72,
        "facade_peinture": 312,
        "portes_volets": 129,
        "piscine": 3,
        "vmc_ventilation": 101,
        "assainissement": 172
      },
      "revenus": {
        "revenu_median": 18310.0,
        "part_menages_imposes": 46.0,
        "taux_pauvrete": 28.0
      },
      "aides_etat": {
        "zone_climatique": "H1",
        "qpv": true,
        "action_coeur_de_ville": false,
        "petites_villes_de_demain": false
      }
    },
    {
      "code_insee": "93006",
      "nom": "Bagnolet",
      "nom_a": null,
      "nom_de": null,
      "slug": "bagnolet",
      "code_postal": "93170",
      "population": 39366,
      "superficie_km2": 3.0,
      "latitude": 48.8689995,
      "longitude": 2.4230001,
      "villes_proches": [
        {
          "code_insee": "93045",
          "nom": "Les Lilas",
          "slug": "les-lilas",
          "code_postal": "93260",
          "population": 23469,
          "superficie_km2": 1.0,
          "latitude": 48.882,
          "longitude": 2.4200001,
          "distance_km": 1.46
        },
        {
          "code_insee": "93048",
          "nom": "Montreuil",
          "slug": "montreuil",
          "code_postal": "93100",
          "population": 111455,
          "superficie_km2": 9.0,
          "latitude": 48.862999,
          "longitude": 2.448,
          "distance_km": 1.95
        },
        {
          "code_insee": "93063",
          "nom": "Romainville",
          "slug": "romainville",
          "code_postal": "93230",
          "population": 33266,
          "superficie_km2": 3.0,
          "latitude": 48.8849983,
          "longitude": 2.438,
          "distance_km": 2.09
        },
        {
          "code_insee": "93061",
          "nom": "Le Pré-Saint-Gervais",
          "slug": "le-pre-saint-gervais",
          "code_postal": "93310",
          "population": 16865,
          "superficie_km2": 1.0,
          "latitude": 48.8849983,
          "longitude": 2.405,
          "distance_km": 2.21
        },
        {
          "code_insee": "94080",
          "nom": "Vincennes",
          "slug": "vincennes",
          "code_postal": "94300",
          "population": 48798,
          "superficie_km2": 2.0,
          "latitude": 48.8470001,
          "longitude": 2.438,
          "distance_km": 2.68
        },
        {
          "code_insee": "94067",
          "nom": "Saint-Mandé",
          "slug": "saint-mande",
          "code_postal": "94160",
          "population": 21195,
          "superficie_km2": 1.0,
          "latitude": 48.8419991,
          "longitude": 2.4189999,
          "distance_km": 3.02
        },
        {
          "code_insee": "93055",
          "nom": "Pantin",
          "slug": "pantin",
          "code_postal": "93500",
          "population": 60800,
          "superficie_km2": 5.0,
          "latitude": 48.8979988,
          "longitude": 2.4089999,
          "distance_km": 3.38
        },
        {
          "code_insee": "93053",
          "nom": "Noisy-le-Sec",
          "slug": "noisy-le-sec",
          "code_postal": "93130",
          "population": 46094,
          "superficie_km2": 5.0,
          "latitude": 48.8909988,
          "longitude": 2.4590001,
          "distance_km": 3.59
        },
        {
          "code_insee": "94033",
          "nom": "Fontenay-sous-Bois",
          "slug": "fontenay-sous-bois",
          "code_postal": "94120",
          "population": 51812,
          "superficie_km2": 6.0,
          "latitude": 48.8510017,
          "longitude": 2.474,
          "distance_km": 4.23
        },
        {
          "code_insee": "93008",
          "nom": "Bobigny",
          "slug": "bobigny",
          "code_postal": "93000",
          "population": 55056,
          "superficie_km2": 7.0,
          "latitude": 48.908001,
          "longitude": 2.4389999,
          "distance_km": 4.49
        },
        {
          "code_insee": "93064",
          "nom": "Rosny-sous-Bois",
          "slug": "rosny-sous-bois",
          "code_postal": "93110",
          "population": 45655,
          "superficie_km2": 6.0,
          "latitude": 48.875,
          "longitude": 2.4860001,
          "distance_km": 4.66
        },
        {
          "code_insee": "94018",
          "nom": "Charenton-le-Pont",
          "slug": "charenton-le-pont",
          "code_postal": "94220",
          "population": 29445,
          "superficie_km2": 2.0,
          "latitude": 48.8230019,
          "longitude": 2.408,
          "distance_km": 5.23
        },
        {
          "code_insee": "93001",
          "nom": "Aubervilliers",
          "slug": "aubervilliers",
          "code_postal": "93300",
          "population": 90071,
          "superficie_km2": 6.0,
          "latitude": 48.9119988,
          "longitude": 2.3840001,
          "distance_km": 5.57
        },
        {
          "code_insee": "94052",
          "nom": "Nogent-sur-Marne",
          "slug": "nogent-sur-marne",
          "code_postal": "94130",
          "population": 33472,
          "superficie_km2": 3.0,
          "latitude": 48.8370018,
          "longitude": 2.4820001,
          "distance_km": 5.59
        },
        {
          "code_insee": "75056",
          "nom": "Paris",
          "slug": "paris",
          "code_postal": "75000",
          "population": 2133111,
          "superficie_km2": 105.0,
          "latitude": 48.8534,
          "longitude": 2.3488,
          "distance_km": 5.7
        },
        {
          "code_insee": "94069",
          "nom": "Saint-Maurice",
          "slug": "saint-maurice",
          "code_postal": "94410",
          "population": 14603,
          "superficie_km2": 1.0,
          "latitude": 48.8180008,
          "longitude": 2.438,
          "distance_km": 5.78
        },
        {
          "code_insee": "93010",
          "nom": "Bondy",
          "slug": "bondy",
          "code_postal": "93140",
          "population": 52905,
          "superficie_km2": 5.0,
          "latitude": 48.9020004,
          "longitude": 2.484,
          "distance_km": 5.78
        },
        {
          "code_insee": "93029",
          "nom": "Drancy",
          "slug": "drancy",
          "code_postal": "93700",
          "population": 71363,
          "superficie_km2": 8.0,
          "latitude": 48.9230003,
          "longitude": 2.4449999,
          "distance_km": 6.22
        },
        {
          "code_insee": "93049",
          "nom": "Neuilly-Plaisance",
          "slug": "neuilly-plaisance",
          "code_postal": "93360",
          "population": 21415,
          "superficie_km2": 3.0,
          "latitude": 48.8639984,
          "longitude": 2.51,
          "distance_km": 6.39
        },
        {
          "code_insee": "94042",
          "nom": "Joinville-le-Pont",
          "slug": "joinville-le-pont",
          "code_postal": "94340",
          "population": 20413,
          "superficie_km2": 2.0,
          "latitude": 48.8190002,
          "longitude": 2.47,
          "distance_km": 6.54
        }
      ],
      "zonage_abc": "Abis",
      "reclassement_abc": "Non",
      "codes_postaux": [
        {
          "code_postal": "93170",
          "libelle_acheminement": "BAGNOLET"
        }
      ],
      "logement": {
        "logements_total": 18720,
        "residences_principales": 17169,
        "logements_vacants": 1243,
        "residences_secondaires": 308,
        "maisons": 2000,
        "appartements": 16484,
        "proprietaires": 5245,
        "locataires": 11578,
        "hlm": 6875,
        "construits_avant_1919": 517,
        "construits_1919_1945": 1731,
        "construits_1946_1970": 5559,
        "construits_1971_1990": 4546,
        "construits_1991_2005": 1703,
        "construits_2006_2019": 2465,
        "chauffage_electrique": 4106,
        "chauffage_fioul": 336,
        "chauffage_gaz_ville": 12308,
        "chauffage_gaz_bouteille": 46,
        "chauffage_autre": 371,
        "menages": 17169,
        "logements_avant_1990": 12353
      },
      "artisans": {
        "monte_escalier": 8,
        "chauffage_pac_clim": 120,
        "isolation": 83,
        "menuiserie": 81,
        "fenetres_velux": 81,
        "couverture_toiture": 19,
        "facade_peinture": 171,
        "portes_volets": 81,
        "piscine": 1,
        "vmc_ventilation": 44,
        "assainissement": 80
      },
      "revenus": {
        "revenu_median": 18430.0,
        "part_menages_imposes": 48.0,
        "taux_pauvrete": 27.0
      },
      "aides_etat": {
        "zone_climatique": "H1",
        "qpv": true,
        "action_coeur_de_ville": false,
        "petites_villes_de_demain": false
      }
    },
    {
      "code_insee": "93008",
      "nom": "Bobigny",
      "nom_a": null,
      "nom_de": null,
      "slug": "bobigny",
      "code_postal": "93000",
      "population": 55056,
      "superficie_km2": 7.0,
      "latitude": 48.908001,
      "longitude": 2.4389999,
      "villes_proches": [
        {
          "code_insee": "93029",
          "nom": "Drancy",
          "slug": "drancy",
          "code_postal": "93700",
          "population": 71363,
          "superficie_km2": 8.0,
          "latitude": 48.9230003,
          "longitude": 2.4449999,
          "distance_km": 1.72
        },
        {
          "code_insee": "93053",
          "nom": "Noisy-le-Sec",
          "slug": "noisy-le-sec",
          "code_postal": "93130",
          "population": 46094,
          "superficie_km2": 5.0,
          "latitude": 48.8909988,
          "longitude": 2.4590001,
          "distance_km": 2.39
        },
        {
          "code_insee": "93055",
          "nom": "Pantin",
          "slug": "pantin",
          "code_postal": "93500",
          "population": 60800,
          "superficie_km2": 5.0,
          "latitude": 48.8979988,
          "longitude": 2.4089999,
          "distance_km": 2.46
        },
        {
          "code_insee": "93063",
          "nom": "Romainville",
          "slug": "romainville",
          "code_postal": "93230",
          "population": 33266,
          "superficie_km2": 3.0,
          "latitude": 48.8849983,
          "longitude": 2.438,
          "distance_km": 2.56
        },
        {
          "code_insee": "93045",
          "nom": "Les Lilas",
          "slug": "les-lilas",
          "code_postal": "93260",
          "population": 23469,
          "superficie_km2": 1.0,
          "latitude": 48.882,
          "longitude": 2.4200001,
          "distance_km": 3.21
        },
        {
          "code_insee": "93013",
          "nom": "Le Bourget",
          "slug": "le-bourget",
          "code_postal": "93350",
          "population": 14832,
          "superficie_km2": 2.0,
          "latitude": 48.9360008,
          "longitude": 2.428,
          "distance_km": 3.22
        },
        {
          "code_insee": "93010",
          "nom": "Bondy",
          "slug": "bondy",
          "code_postal": "93140",
          "population": 52905,
          "superficie_km2": 5.0,
          "latitude": 48.9020004,
          "longitude": 2.484,
          "distance_km": 3.36
        },
        {
          "code_insee": "93061",
          "nom": "Le Pré-Saint-Gervais",
          "slug": "le-pre-saint-gervais",
          "code_postal": "93310",
          "population": 16865,
          "superficie_km2": 1.0,
          "latitude": 48.8849983,
          "longitude": 2.405,
          "distance_km": 3.57
        },
        {
          "code_insee": "93007",
          "nom": "Le Blanc-Mesnil",
          "slug": "le-blanc-mesnil",
          "code_postal": "93150",
          "population": 58257,
          "superficie_km2": 8.0,
          "latitude": 48.9399986,
          "longitude": 2.461,
          "distance_km": 3.9
        },
        {
          "code_insee": "93027",
          "nom": "La Courneuve",
          "slug": "la-courneuve",
          "code_postal": "93120",
          "population": 47160,
          "superficie_km2": 8.0,
          "latitude": 48.9319992,
          "longitude": 2.4000001,
          "distance_km": 3.9
        },
        {
          "code_insee": "93001",
          "nom": "Aubervilliers",
          "slug": "aubervilliers",
          "code_postal": "93300",
          "population": 90071,
          "superficie_km2": 6.0,
          "latitude": 48.9119988,
          "longitude": 2.3840001,
          "distance_km": 4.04
        },
        {
          "code_insee": "93006",
          "nom": "Bagnolet",
          "slug": "bagnolet",
          "code_postal": "93170",
          "population": 39366,
          "superficie_km2": 3.0,
          "latitude": 48.8689995,
          "longitude": 2.4230001,
          "distance_km": 4.49
        },
        {
          "code_insee": "93057",
          "nom": "Les Pavillons-sous-Bois",
          "slug": "les-pavillons-sous-bois",
          "code_postal": "93320",
          "population": 24165,
          "superficie_km2": 3.0,
          "latitude": 48.908001,
          "longitude": 2.503,
          "distance_km": 4.68
        },
        {
          "code_insee": "93030",
          "nom": "Dugny",
          "slug": "dugny",
          "code_postal": "93440",
          "population": 11328,
          "superficie_km2": 4.0,
          "latitude": 48.9500008,
          "longitude": 2.424,
          "distance_km": 4.8
        },
        {
          "code_insee": "93064",
          "nom": "Rosny-sous-Bois",
          "slug": "rosny-sous-bois",
          "code_postal": "93110",
          "population": 45655,
          "superficie_km2": 6.0,
          "latitude": 48.875,
          "longitude": 2.4860001,
          "distance_km": 5.03
        },
        {
          "code_insee": "93048",
          "nom": "Montreuil",
          "slug": "montreuil",
          "code_postal": "93100",
          "population": 111455,
          "superficie_km2": 9.0,
          "latitude": 48.862999,
          "longitude": 2.448,
          "distance_km": 5.05
        },
        {
          "code_insee": "93077",
          "nom": "Villemomble",
          "slug": "villemomble",
          "code_postal": "93250",
          "population": 30332,
          "superficie_km2": 4.0,
          "latitude": 48.8849983,
          "longitude": 2.5090001,
          "distance_km": 5.72
        },
        {
          "code_insee": "93005",
          "nom": "Aulnay-sous-Bois",
          "slug": "aulnay-sous-bois",
          "code_postal": "93600",
          "population": 86135,
          "superficie_km2": 16.0,
          "latitude": 48.9459992,
          "longitude": 2.493,
          "distance_km": 5.78
        },
        {
          "code_insee": "93062",
          "nom": "Le Raincy",
          "slug": "le-raincy",
          "code_postal": "93340",
          "population": 14877,
          "superficie_km2": 2.0,
          "latitude": 48.8969994,
          "longitude": 2.52,
          "distance_km": 6.05
        },
        {
          "code_insee": "93066",
          "nom": "Saint-Denis",
          "slug": "saint-denis",
          "code_postal": "93210",
          "population": 113942,
          "superficie_km2": 12.0,
          "latitude": 48.9300003,
          "longitude": 2.359,
          "distance_km": 6.34
        }
      ],
      "zonage_abc": "A",
      "reclassement_abc": "Non",
      "codes_postaux": [
        {
          "code_postal": "93000",
          "libelle_acheminement": "BOBIGNY"
        }
      ],
      "logement": {
        "logements_total": 20824,
        "residences_principales": 19672,
        "logements_vacants": 987,
        "residences_secondaires": 163,
        "maisons": 3615,
        "appartements": 15807,
        "proprietaires": 5100,
        "locataires": 14287,
        "hlm": 9535,
        "construits_avant_1919": 239,
        "construits_1919_1945": 1217,
        "construits_1946_1970": 6349,
        "construits_1971_1990": 5141,
        "construits_1991_2005": 2598,
        "construits_2006_2019": 3693,
        "chauffage_electrique": 4690,
        "chauffage_fioul": 212,
        "chauffage_gaz_ville": 14308,
        "chauffage_gaz_bouteille": 132,
        "chauffage_autre": 328,
        "menages": 19672,
        "logements_avant_1990": 12946
      },
      "artisans": {
        "monte_escalier": 16,
        "chauffage_pac_clim": 183,
        "isolation": 151,
        "menuiserie": 119,
        "fenetres_velux": 119,
        "couverture_toiture": 23,
        "facade_peinture": 309,
        "portes_volets": 119,
        "piscine": 3,
        "vmc_ventilation": 70,
        "assainissement": 116
      },
      "revenus": {
        "revenu_median": 15910.0,
        "part_menages_imposes": 36.0,
        "taux_pauvrete": 35.0
      },
      "aides_etat": {
        "zone_climatique": "H1",
        "qpv": true,
        "action_coeur_de_ville": false,
        "petites_villes_de_demain": false
      }
    },
    {
      "code_insee": "93010",
      "nom": "Bondy",
      "nom_a": null,
      "nom_de": null,
      "slug": "bondy",
      "code_postal": "93140",
      "population": 52905,
      "superficie_km2": 5.0,
      "latitude": 48.9020004,
      "longitude": 2.484,
      "villes_proches": [
        {
          "code_insee": "93057",
          "nom": "Les Pavillons-sous-Bois",
          "slug": "les-pavillons-sous-bois",
          "code_postal": "93320",
          "population": 24165,
          "superficie_km2": 3.0,
          "latitude": 48.908001,
          "longitude": 2.503,
          "distance_km": 1.54
        },
        {
          "code_insee": "93053",
          "nom": "Noisy-le-Sec",
          "slug": "noisy-le-sec",
          "code_postal": "93130",
          "population": 46094,
          "superficie_km2": 5.0,
          "latitude": 48.8909988,
          "longitude": 2.4590001,
          "distance_km": 2.2
        },
        {
          "code_insee": "93077",
          "nom": "Villemomble",
          "slug": "villemomble",
          "code_postal": "93250",
          "population": 30332,
          "superficie_km2": 4.0,
          "latitude": 48.8849983,
          "longitude": 2.5090001,
          "distance_km": 2.63
        },
        {
          "code_insee": "93062",
          "nom": "Le Raincy",
          "slug": "le-raincy",
          "code_postal": "93340",
          "population": 14877,
          "superficie_km2": 2.0,
          "latitude": 48.8969994,
          "longitude": 2.52,
          "distance_km": 2.69
        },
        {
          "code_insee": "93064",
          "nom": "Rosny-sous-Bois",
          "slug": "rosny-sous-bois",
          "code_postal": "93110",
          "population": 45655,
          "superficie_km2": 6.0,
          "latitude": 48.875,
          "longitude": 2.4860001,
          "distance_km": 3.01
        },
        {
          "code_insee": "93008",
          "nom": "Bobigny",
          "slug": "bobigny",
          "code_postal": "93000",
          "population": 55056,
          "superficie_km2": 7.0,
          "latitude": 48.908001,
          "longitude": 2.4389999,
          "distance_km": 3.36
        },
        {
          "code_insee": "93029",
          "nom": "Drancy",
          "slug": "drancy",
          "code_postal": "93700",
          "population": 71363,
          "superficie_km2": 8.0,
          "latitude": 48.9230003,
          "longitude": 2.4449999,
          "distance_km": 3.68
        },
        {
          "code_insee": "93063",
          "nom": "Romainville",
          "slug": "romainville",
          "code_postal": "93230",
          "population": 33266,
          "superficie_km2": 3.0,
          "latitude": 48.8849983,
          "longitude": 2.438,
          "distance_km": 3.86
        },
        {
          "code_insee": "93046",
          "nom": "Livry-Gargan",
          "slug": "livry-gargan",
          "code_postal": "93190",
          "population": 46028,
          "superficie_km2": 7.0,
          "latitude": 48.9199982,
          "longitude": 2.5350001,
          "distance_km": 4.23
        },
        {
          "code_insee": "93007",
          "nom": "Le Blanc-Mesnil",
          "slug": "le-blanc-mesnil",
          "code_postal": "93150",
          "population": 58257,
          "superficie_km2": 8.0,
          "latitude": 48.9399986,
          "longitude": 2.461,
          "distance_km": 4.55
        },
        {
          "code_insee": "93014",
          "nom": "Clichy-sous-Bois",
          "slug": "clichy-sous-bois",
          "code_postal": "93390",
          "population": 29735,
          "superficie_km2": 4.0,
          "latitude": 48.908001,
          "longitude": 2.546,
          "distance_km": 4.58
        },
        {
          "code_insee": "93049",
          "nom": "Neuilly-Plaisance",
          "slug": "neuilly-plaisance",
          "code_postal": "93360",
          "population": 21415,
          "superficie_km2": 3.0,
          "latitude": 48.8639984,
          "longitude": 2.51,
          "distance_km": 4.63
        },
        {
          "code_insee": "93005",
          "nom": "Aulnay-sous-Bois",
          "slug": "aulnay-sous-bois",
          "code_postal": "93600",
          "population": 86135,
          "superficie_km2": 16.0,
          "latitude": 48.9459992,
          "longitude": 2.493,
          "distance_km": 4.94
        },
        {
          "code_insee": "93032",
          "nom": "Gagny",
          "slug": "gagny",
          "code_postal": "93220",
          "population": 40189,
          "superficie_km2": 7.0,
          "latitude": 48.882,
          "longitude": 2.5450001,
          "distance_km": 4.98
        },
        {
          "code_insee": "93048",
          "nom": "Montreuil",
          "slug": "montreuil",
          "code_postal": "93100",
          "population": 111455,
          "superficie_km2": 9.0,
          "latitude": 48.862999,
          "longitude": 2.448,
          "distance_km": 5.07
        },
        {
          "code_insee": "93045",
          "nom": "Les Lilas",
          "slug": "les-lilas",
          "code_postal": "93260",
          "population": 23469,
          "superficie_km2": 1.0,
          "latitude": 48.882,
          "longitude": 2.4200001,
          "distance_km": 5.18
        },
        {
          "code_insee": "93071",
          "nom": "Sevran",
          "slug": "sevran",
          "code_postal": "93270",
          "population": 51845,
          "superficie_km2": 7.0,
          "latitude": 48.9389992,
          "longitude": 2.5309999,
          "distance_km": 5.36
        },
        {
          "code_insee": "93055",
          "nom": "Pantin",
          "slug": "pantin",
          "code_postal": "93500",
          "population": 60800,
          "superficie_km2": 5.0,
          "latitude": 48.8979988,
          "longitude": 2.4089999,
          "distance_km": 5.5
        },
        {
          "code_insee": "93013",
          "nom": "Le Bourget",
          "slug": "le-bourget",
          "code_postal": "93350",
          "population": 14832,
          "superficie_km2": 2.0,
          "latitude": 48.9360008,
          "longitude": 2.428,
          "distance_km": 5.57
        },
        {
          "code_insee": "94033",
          "nom": "Fontenay-sous-Bois",
          "slug": "fontenay-sous-bois",
          "code_postal": "94120",
          "population": 51812,
          "superficie_km2": 6.0,
          "latitude": 48.8510017,
          "longitude": 2.474,
          "distance_km": 5.72
        }
      ],
      "zonage_abc": "A",
      "reclassement_abc": "Non",
      "codes_postaux": [
        {
          "code_postal": "93140",
          "libelle_acheminement": "BONDY"
        }
      ],
      "logement": {
        "logements_total": 22005,
        "residences_principales": 19661,
        "logements_vacants": 2166,
        "residences_secondaires": 177,
        "maisons": 5965,
        "appartements": 15626,
        "proprietaires": 7669,
        "locataires": 11713,
        "hlm": 7410,
        "construits_avant_1919": 367,
        "construits_1919_1945": 2048,
        "construits_1946_1970": 7634,
        "construits_1971_1990": 4310,
        "construits_1991_2005": 2323,
        "construits_2006_2019": 2739,
        "chauffage_electrique": 5034,
        "chauffage_fioul": 704,
        "chauffage_gaz_ville": 13560,
        "chauffage_gaz_bouteille": 59,
        "chauffage_autre": 302,
        "menages": 19661,
        "logements_avant_1990": 14359
      },
      "artisans": {
        "monte_escalier": 13,
        "chauffage_pac_clim": 135,
        "isolation": 115,
        "menuiserie": 98,
        "fenetres_velux": 98,
        "couverture_toiture": 22,
        "facade_peinture": 199,
        "portes_volets": 98,
        "piscine": 3,
        "vmc_ventilation": 51,
        "assainissement": 88
      },
      "revenus": {
        "revenu_median": 16950.0,
        "part_menages_imposes": 42.0,
        "taux_pauvrete": 32.0
      },
      "aides_etat": {
        "zone_climatique": "H1",
        "qpv": true,
        "action_coeur_de_ville": false,
        "petites_villes_de_demain": false
      }
    },
    {
      "code_insee": "93014",
      "nom": "Clichy-sous-Bois",
      "nom_a": null,
      "nom_de": null,
      "slug": "clichy-sous-bois",
      "code_postal": "93390",
      "population": 29735,
      "superficie_km2": 4.0,
      "latitude": 48.908001,
      "longitude": 2.546,
      "villes_proches": [
        {
          "code_insee": "93046",
          "nom": "Livry-Gargan",
          "slug": "livry-gargan",
          "code_postal": "93190",
          "population": 46028,
          "superficie_km2": 7.0,
          "latitude": 48.9199982,
          "longitude": 2.5350001,
          "distance_km": 1.56
        },
        {
          "code_insee": "93047",
          "nom": "Montfermeil",
          "slug": "montfermeil",
          "code_postal": "93370",
          "population": 27980,
          "superficie_km2": 5.0,
          "latitude": 48.8979988,
          "longitude": 2.5669999,
          "distance_km": 1.9
        },
        {
          "code_insee": "93062",
          "nom": "Le Raincy",
          "slug": "le-raincy",
          "code_postal": "93340",
          "population": 14877,
          "superficie_km2": 2.0,
          "latitude": 48.8969994,
          "longitude": 2.52,
          "distance_km": 2.26
        },
        {
          "code_insee": "93015",
          "nom": "Coubron",
          "slug": "coubron",
          "code_postal": "93470",
          "population": 5063,
          "superficie_km2": 4.0,
          "latitude": 48.9179993,
          "longitude": 2.576,
          "distance_km": 2.46
        },
        {
          "code_insee": "93032",
          "nom": "Gagny",
          "slug": "gagny",
          "code_postal": "93220",
          "population": 40189,
          "superficie_km2": 7.0,
          "latitude": 48.882,
          "longitude": 2.5450001,
          "distance_km": 2.89
        },
        {
          "code_insee": "93057",
          "nom": "Les Pavillons-sous-Bois",
          "slug": "les-pavillons-sous-bois",
          "code_postal": "93320",
          "population": 24165,
          "superficie_km2": 3.0,
          "latitude": 48.908001,
          "longitude": 2.503,
          "distance_km": 3.14
        },
        {
          "code_insee": "93071",
          "nom": "Sevran",
          "slug": "sevran",
          "code_postal": "93270",
          "population": 51845,
          "superficie_km2": 7.0,
          "latitude": 48.9389992,
          "longitude": 2.5309999,
          "distance_km": 3.62
        },
        {
          "code_insee": "93074",
          "nom": "Vaujours",
          "slug": "vaujours",
          "code_postal": "93410",
          "population": 7478,
          "superficie_km2": 4.0,
          "latitude": 48.9319992,
          "longitude": 2.5810001,
          "distance_km": 3.7
        },
        {
          "code_insee": "93077",
          "nom": "Villemomble",
          "slug": "villemomble",
          "code_postal": "93250",
          "population": 30332,
          "superficie_km2": 4.0,
          "latitude": 48.8849983,
          "longitude": 2.5090001,
          "distance_km": 3.72
        },
        {
          "code_insee": "77139",
          "nom": "Courtry",
          "slug": "courtry",
          "code_postal": "77181",
          "population": 6885,
          "superficie_km2": 4.0,
          "latitude": 48.9169998,
          "longitude": 2.6029999,
          "distance_km": 4.28
        },
        {
          "code_insee": "93010",
          "nom": "Bondy",
          "slug": "bondy",
          "code_postal": "93140",
          "population": 52905,
          "superficie_km2": 5.0,
          "latitude": 48.9020004,
          "longitude": 2.484,
          "distance_km": 4.58
        },
        {
          "code_insee": "77108",
          "nom": "Chelles",
          "slug": "chelles",
          "code_postal": "77500",
          "population": 54309,
          "superficie_km2": 16.0,
          "latitude": 48.8839989,
          "longitude": 2.5969999,
          "distance_km": 4.59
        },
        {
          "code_insee": "93050",
          "nom": "Neuilly-sur-Marne",
          "slug": "neuilly-sur-marne",
          "code_postal": "93330",
          "population": 37531,
          "superficie_km2": 7.0,
          "latitude": 48.8619995,
          "longitude": 2.54,
          "distance_km": 5.13
        },
        {
          "code_insee": "93049",
          "nom": "Neuilly-Plaisance",
          "slug": "neuilly-plaisance",
          "code_postal": "93360",
          "population": 21415,
          "superficie_km2": 3.0,
          "latitude": 48.8639984,
          "longitude": 2.51,
          "distance_km": 5.56
        },
        {
          "code_insee": "93033",
          "nom": "Gournay-sur-Marne",
          "slug": "gournay-sur-marne",
          "code_postal": "93460",
          "population": 6882,
          "superficie_km2": 2.0,
          "latitude": 48.8610001,
          "longitude": 2.575,
          "distance_km": 5.64
        },
        {
          "code_insee": "93064",
          "nom": "Rosny-sous-Bois",
          "slug": "rosny-sous-bois",
          "code_postal": "93110",
          "population": 45655,
          "superficie_km2": 6.0,
          "latitude": 48.875,
          "longitude": 2.4860001,
          "distance_km": 5.72
        },
        {
          "code_insee": "93078",
          "nom": "Villepinte",
          "slug": "villepinte",
          "code_postal": "93420",
          "population": 38725,
          "superficie_km2": 10.0,
          "latitude": 48.9589996,
          "longitude": 2.536,
          "distance_km": 5.72
        },
        {
          "code_insee": "93005",
          "nom": "Aulnay-sous-Bois",
          "slug": "aulnay-sous-bois",
          "code_postal": "93600",
          "population": 86135,
          "superficie_km2": 16.0,
          "latitude": 48.9459992,
          "longitude": 2.493,
          "distance_km": 5.73
        },
        {
          "code_insee": "77363",
          "nom": "Le Pin",
          "slug": "le-pin",
          "code_postal": "77181",
          "population": 1548,
          "superficie_km2": 7.0,
          "latitude": 48.9140015,
          "longitude": 2.628,
          "distance_km": 6.03
        },
        {
          "code_insee": "77514",
          "nom": "Villeparisis",
          "slug": "villeparisis",
          "code_postal": "77270",
          "population": 26822,
          "superficie_km2": 8.0,
          "latitude": 48.9420013,
          "longitude": 2.6170001,
          "distance_km": 6.42
        }
      ],
      "zonage_abc": "A",
      "reclassement_abc": "Non",
      "codes_postaux": [
        {
          "code_postal": "93390",
          "libelle_acheminement": "CLICHY SOUS BOIS"
        }
      ],
      "logement": {
        "logements_total": 9509,
        "residences_principales": 8980,
        "logements_vacants": 500,
        "residences_secondaires": 28,
        "maisons": 2121,
        "appartements": 7332,
        "proprietaires": 3037,
        "locataires": 5747,
        "hlm": 3009,
        "construits_avant_1919": 136,
        "construits_1919_1945": 447,
        "construits_1946_1970": 3416,
        "construits_1971_1990": 2838,
        "construits_1991_2005": 556,
        "construits_2006_2019": 1498,
        "chauffage_electrique": 1910,
        "chauffage_fioul": 242,
        "chauffage_gaz_ville": 6628,
        "chauffage_gaz_bouteille": 45,
        "chauffage_autre": 153,
        "menages": 8980,
        "logements_avant_1990": 6837
      },
      "artisans": {
        "monte_escalier": 6,
        "chauffage_pac_clim": 73,
        "isolation": 151,
        "menuiserie": 71,
        "fenetres_velux": 71,
        "couverture_toiture": 64,
        "facade_peinture": 142,
        "portes_volets": 71,
        "piscine": 2,
        "vmc_ventilation": 16,
        "assainissement": 58
      },
      "revenus": {
        "revenu_median": 14740.0,
        "part_menages_imposes": 33.0,
        "taux_pauvrete": 42.0
      },
      "aides_etat": {
        "zone_climatique": "H1",
        "qpv": true,
        "action_coeur_de_ville": false,
        "petites_villes_de_demain": false
      }
    },
    {
      "code_insee": "93015",
      "nom": "Coubron",
      "nom_a": null,
      "nom_de": null,
      "slug": "coubron",
      "code_postal": "93470",
      "population": 5063,
      "superficie_km2": 4.0,
      "latitude": 48.9179993,
      "longitude": 2.576,
      "villes_proches": [
        {
          "code_insee": "93074",
          "nom": "Vaujours",
          "slug": "vaujours",
          "code_postal": "93410",
          "population": 7478,
          "superficie_km2": 4.0,
          "latitude": 48.9319992,
          "longitude": 2.5810001,
          "distance_km": 1.6
        },
        {
          "code_insee": "77139",
          "nom": "Courtry",
          "slug": "courtry",
          "code_postal": "77181",
          "population": 6885,
          "superficie_km2": 4.0,
          "latitude": 48.9169998,
          "longitude": 2.6029999,
          "distance_km": 1.98
        },
        {
          "code_insee": "93047",
          "nom": "Montfermeil",
          "slug": "montfermeil",
          "code_postal": "93370",
          "population": 27980,
          "superficie_km2": 5.0,
          "latitude": 48.8979988,
          "longitude": 2.5669999,
          "distance_km": 2.32
        },
        {
          "code_insee": "93014",
          "nom": "Clichy-sous-Bois",
          "slug": "clichy-sous-bois",
          "code_postal": "93390",
          "population": 29735,
          "superficie_km2": 4.0,
          "latitude": 48.908001,
          "longitude": 2.546,
          "distance_km": 2.46
        },
        {
          "code_insee": "93046",
          "nom": "Livry-Gargan",
          "slug": "livry-gargan",
          "code_postal": "93190",
          "population": 46028,
          "superficie_km2": 7.0,
          "latitude": 48.9199982,
          "longitude": 2.5350001,
          "distance_km": 3
        },
        {
          "code_insee": "77363",
          "nom": "Le Pin",
          "slug": "le-pin",
          "code_postal": "77181",
          "population": 1548,
          "superficie_km2": 7.0,
          "latitude": 48.9140015,
          "longitude": 2.628,
          "distance_km": 3.83
        },
        {
          "code_insee": "77514",
          "nom": "Villeparisis",
          "slug": "villeparisis",
          "code_postal": "77270",
          "population": 26822,
          "superficie_km2": 8.0,
          "latitude": 48.9420013,
          "longitude": 2.6170001,
          "distance_km": 4.01
        },
        {
          "code_insee": "93071",
          "nom": "Sevran",
          "slug": "sevran",
          "code_postal": "93270",
          "population": 51845,
          "superficie_km2": 7.0,
          "latitude": 48.9389992,
          "longitude": 2.5309999,
          "distance_km": 4.03
        },
        {
          "code_insee": "77108",
          "nom": "Chelles",
          "slug": "chelles",
          "code_postal": "77500",
          "population": 54309,
          "superficie_km2": 16.0,
          "latitude": 48.8839989,
          "longitude": 2.5969999,
          "distance_km": 4.08
        },
        {
          "code_insee": "93032",
          "nom": "Gagny",
          "slug": "gagny",
          "code_postal": "93220",
          "population": 40189,
          "superficie_km2": 7.0,
          "latitude": 48.882,
          "longitude": 2.5450001,
          "distance_km": 4.6
        },
        {
          "code_insee": "93062",
          "nom": "Le Raincy",
          "slug": "le-raincy",
          "code_postal": "93340",
          "population": 14877,
          "superficie_km2": 2.0,
          "latitude": 48.8969994,
          "longitude": 2.52,
          "distance_km": 4.71
        },
        {
          "code_insee": "93078",
          "nom": "Villepinte",
          "slug": "villepinte",
          "code_postal": "93420",
          "population": 38725,
          "superficie_km2": 10.0,
          "latitude": 48.9589996,
          "longitude": 2.536,
          "distance_km": 5.41
        },
        {
          "code_insee": "93057",
          "nom": "Les Pavillons-sous-Bois",
          "slug": "les-pavillons-sous-bois",
          "code_postal": "93320",
          "population": 24165,
          "superficie_km2": 3.0,
          "latitude": 48.908001,
          "longitude": 2.503,
          "distance_km": 5.45
        },
        {
          "code_insee": "77055",
          "nom": "Brou-sur-Chantereine",
          "slug": "brou-sur-chantereine",
          "code_postal": "77177",
          "population": 4992,
          "superficie_km2": 4.0,
          "latitude": 48.8899994,
          "longitude": 2.6400001,
          "distance_km": 5.62
        },
        {
          "code_insee": "93077",
          "nom": "Villemomble",
          "slug": "villemomble",
          "code_postal": "93250",
          "population": 30332,
          "superficie_km2": 4.0,
          "latitude": 48.8849983,
          "longitude": 2.5090001,
          "distance_km": 6.12
        },
        {
          "code_insee": "77517",
          "nom": "Villevaudé",
          "slug": "villevaude",
          "code_postal": "77410",
          "population": 2132,
          "superficie_km2": 10.0,
          "latitude": 48.9119988,
          "longitude": 2.6619999,
          "distance_km": 6.32
        },
        {
          "code_insee": "93033",
          "nom": "Gournay-sur-Marne",
          "slug": "gournay-sur-marne",
          "code_postal": "93460",
          "population": 6882,
          "superficie_km2": 2.0,
          "latitude": 48.8610001,
          "longitude": 2.575,
          "distance_km": 6.34
        },
        {
          "code_insee": "93050",
          "nom": "Neuilly-sur-Marne",
          "slug": "neuilly-sur-marne",
          "code_postal": "93330",
          "population": 37531,
          "superficie_km2": 7.0,
          "latitude": 48.8619995,
          "longitude": 2.54,
          "distance_km": 6.76
        },
        {
          "code_insee": "93005",
          "nom": "Aulnay-sous-Bois",
          "slug": "aulnay-sous-bois",
          "code_postal": "93600",
          "population": 86135,
          "superficie_km2": 16.0,
          "latitude": 48.9459992,
          "longitude": 2.493,
          "distance_km": 6.82
        },
        {
          "code_insee": "93073",
          "nom": "Tremblay-en-France",
          "slug": "tremblay-en-france",
          "code_postal": "93290",
          "population": 37271,
          "superficie_km2": 23.0,
          "latitude": 48.9780006,
          "longitude": 2.5550001,
          "distance_km": 6.85
        }
      ],
      "zonage_abc": "A",
      "reclassement_abc": "Non",
      "codes_postaux": [
        {
          "code_postal": "93470",
          "libelle_acheminement": "COUBRON"
        }
      ],
      "logement": {
        "logements_total": 2116,
        "residences_principales": 1935,
        "logements_vacants": 167,
        "residences_secondaires": 13,
        "maisons": 1406,
        "appartements": 701,
        "proprietaires": 1605,
        "locataires": 297,
        "hlm": 112,
        "construits_avant_1919": 54,
        "construits_1919_1945": 72,
        "construits_1946_1970": 494,
        "construits_1971_1990": 949,
        "construits_1991_2005": 168,
        "construits_2006_2019": 189,
        "chauffage_electrique": 772,
        "chauffage_fioul": 188,
        "chauffage_gaz_ville": 896,
        "chauffage_gaz_bouteille": 8,
        "chauffage_autre": 69,
        "menages": 1935,
        "logements_avant_1990": 1569
      },
      "artisans": {
        "monte_escalier": 1,
        "chauffage_pac_clim": 14,
        "isolation": 28,
        "menuiserie": 14,
        "fenetres_velux": 14,
        "couverture_toiture": 23,
        "facade_peinture": 10,
        "portes_volets": 14,
        "piscine": 1,
        "vmc_ventilation": 7,
        "assainissement": 7
      },
      "revenus": {
        "revenu_median": 26740.0,
        "part_menages_imposes": 73.0,
        "taux_pauvrete": 6.0
      },
      "aides_etat": {
        "zone_climatique": "H1",
        "qpv": false,
        "action_coeur_de_ville": false,
        "petites_villes_de_demain": false
      }
    },
    {
      "code_insee": "93029",
      "nom": "Drancy",
      "nom_a": null,
      "nom_de": null,
      "slug": "drancy",
      "code_postal": "93700",
      "population": 71363,
      "superficie_km2": 8.0,
      "latitude": 48.9230003,
      "longitude": 2.4449999,
      "villes_proches": [
        {
          "code_insee": "93008",
          "nom": "Bobigny",
          "slug": "bobigny",
          "code_postal": "93000",
          "population": 55056,
          "superficie_km2": 7.0,
          "latitude": 48.908001,
          "longitude": 2.4389999,
          "distance_km": 1.72
        },
        {
          "code_insee": "93013",
          "nom": "Le Bourget",
          "slug": "le-bourget",
          "code_postal": "93350",
          "population": 14832,
          "superficie_km2": 2.0,
          "latitude": 48.9360008,
          "longitude": 2.428,
          "distance_km": 1.91
        },
        {
          "code_insee": "93007",
          "nom": "Le Blanc-Mesnil",
          "slug": "le-blanc-mesnil",
          "code_postal": "93150",
          "population": 58257,
          "superficie_km2": 8.0,
          "latitude": 48.9399986,
          "longitude": 2.461,
          "distance_km": 2.22
        },
        {
          "code_insee": "93030",
          "nom": "Dugny",
          "slug": "dugny",
          "code_postal": "93440",
          "population": 11328,
          "superficie_km2": 4.0,
          "latitude": 48.9500008,
          "longitude": 2.424,
          "distance_km": 3.37
        },
        {
          "code_insee": "93027",
          "nom": "La Courneuve",
          "slug": "la-courneuve",
          "code_postal": "93120",
          "population": 47160,
          "superficie_km2": 8.0,
          "latitude": 48.9319992,
          "longitude": 2.4000001,
          "distance_km": 3.44
        },
        {
          "code_insee": "93010",
          "nom": "Bondy",
          "slug": "bondy",
          "code_postal": "93140",
          "population": 52905,
          "superficie_km2": 5.0,
          "latitude": 48.9020004,
          "longitude": 2.484,
          "distance_km": 3.68
        },
        {
          "code_insee": "93053",
          "nom": "Noisy-le-Sec",
          "slug": "noisy-le-sec",
          "code_postal": "93130",
          "population": 46094,
          "superficie_km2": 5.0,
          "latitude": 48.8909988,
          "longitude": 2.4590001,
          "distance_km": 3.7
        },
        {
          "code_insee": "93055",
          "nom": "Pantin",
          "slug": "pantin",
          "code_postal": "93500",
          "population": 60800,
          "superficie_km2": 5.0,
          "latitude": 48.8979988,
          "longitude": 2.4089999,
          "distance_km": 3.83
        },
        {
          "code_insee": "93063",
          "nom": "Romainville",
          "slug": "romainville",
          "code_postal": "93230",
          "population": 33266,
          "superficie_km2": 3.0,
          "latitude": 48.8849983,
          "longitude": 2.438,
          "distance_km": 4.26
        },
        {
          "code_insee": "93005",
          "nom": "Aulnay-sous-Bois",
          "slug": "aulnay-sous-bois",
          "code_postal": "93600",
          "population": 86135,
          "superficie_km2": 16.0,
          "latitude": 48.9459992,
          "longitude": 2.493,
          "distance_km": 4.34
        },
        {
          "code_insee": "93057",
          "nom": "Les Pavillons-sous-Bois",
          "slug": "les-pavillons-sous-bois",
          "code_postal": "93320",
          "population": 24165,
          "superficie_km2": 3.0,
          "latitude": 48.908001,
          "longitude": 2.503,
          "distance_km": 4.55
        },
        {
          "code_insee": "93001",
          "nom": "Aubervilliers",
          "slug": "aubervilliers",
          "code_postal": "93300",
          "population": 90071,
          "superficie_km2": 6.0,
          "latitude": 48.9119988,
          "longitude": 2.3840001,
          "distance_km": 4.62
        },
        {
          "code_insee": "95088",
          "nom": "Bonneuil-en-France",
          "slug": "bonneuil-en-france",
          "code_postal": "95500",
          "population": 1166,
          "superficie_km2": 5.0,
          "latitude": 48.9650002,
          "longitude": 2.4349999,
          "distance_km": 4.73
        },
        {
          "code_insee": "93045",
          "nom": "Les Lilas",
          "slug": "les-lilas",
          "code_postal": "93260",
          "population": 23469,
          "superficie_km2": 1.0,
          "latitude": 48.882,
          "longitude": 2.4200001,
          "distance_km": 4.91
        },
        {
          "code_insee": "93061",
          "nom": "Le Pré-Saint-Gervais",
          "slug": "le-pre-saint-gervais",
          "code_postal": "93310",
          "population": 16865,
          "superficie_km2": 1.0,
          "latitude": 48.8849983,
          "longitude": 2.405,
          "distance_km": 5.14
        },
        {
          "code_insee": "93072",
          "nom": "Stains",
          "slug": "stains",
          "code_postal": "93240",
          "population": 40359,
          "superficie_km2": 5.0,
          "latitude": 48.9570007,
          "longitude": 2.385,
          "distance_km": 5.79
        },
        {
          "code_insee": "95268",
          "nom": "Garges-lès-Gonesse",
          "slug": "garges-les-gonesse",
          "code_postal": "95140",
          "population": 42841,
          "superficie_km2": 5.0,
          "latitude": 48.9700012,
          "longitude": 2.405,
          "distance_km": 5.99
        },
        {
          "code_insee": "93064",
          "nom": "Rosny-sous-Bois",
          "slug": "rosny-sous-bois",
          "code_postal": "93110",
          "population": 45655,
          "superficie_km2": 6.0,
          "latitude": 48.875,
          "longitude": 2.4860001,
          "distance_km": 6.12
        },
        {
          "code_insee": "93062",
          "nom": "Le Raincy",
          "slug": "le-raincy",
          "code_postal": "93340",
          "population": 14877,
          "superficie_km2": 2.0,
          "latitude": 48.8969994,
          "longitude": 2.52,
          "distance_km": 6.2
        },
        {
          "code_insee": "93006",
          "nom": "Bagnolet",
          "slug": "bagnolet",
          "code_postal": "93170",
          "population": 39366,
          "superficie_km2": 3.0,
          "latitude": 48.8689995,
          "longitude": 2.4230001,
          "distance_km": 6.22
        }
      ],
      "zonage_abc": "A",
      "reclassement_abc": "Non",
      "codes_postaux": [
        {
          "code_postal": "93700",
          "libelle_acheminement": "DRANCY"
        }
      ],
      "logement": {
        "logements_total": 30646,
        "residences_principales": 28161,
        "logements_vacants": 2150,
        "residences_secondaires": 333,
        "maisons": 10871,
        "appartements": 19058,
        "proprietaires": 12070,
        "locataires": 15341,
        "hlm": 7729,
        "construits_avant_1919": 385,
        "construits_1919_1945": 3588,
        "construits_1946_1970": 10124,
        "construits_1971_1990": 7409,
        "construits_1991_2005": 2428,
        "construits_2006_2019": 3832,
        "chauffage_electrique": 8160,
        "chauffage_fioul": 946,
        "chauffage_gaz_ville": 18211,
        "chauffage_gaz_bouteille": 111,
        "chauffage_autre": 731,
        "menages": 28161,
        "logements_avant_1990": 21506
      },
      "artisans": {
        "monte_escalier": 16,
        "chauffage_pac_clim": 247,
        "isolation": 308,
        "menuiserie": 185,
        "fenetres_velux": 185,
        "couverture_toiture": 107,
        "facade_peinture": 421,
        "portes_volets": 185,
        "piscine": 3,
        "vmc_ventilation": 71,
        "assainissement": 180
      },
      "revenus": {
        "revenu_median": 18080.0,
        "part_menages_imposes": 45.0,
        "taux_pauvrete": 29.0
      },
      "aides_etat": {
        "zone_climatique": "H1",
        "qpv": true,
        "action_coeur_de_ville": false,
        "petites_villes_de_demain": false
      }
    },
    {
      "code_insee": "93030",
      "nom": "Dugny",
      "nom_a": null,
      "nom_de": null,
      "slug": "dugny",
      "code_postal": "93440",
      "population": 11328,
      "superficie_km2": 4.0,
      "latitude": 48.9500008,
      "longitude": 2.424,
      "villes_proches": [
        {
          "code_insee": "93013",
          "nom": "Le Bourget",
          "slug": "le-bourget",
          "code_postal": "93350",
          "population": 14832,
          "superficie_km2": 2.0,
          "latitude": 48.9360008,
          "longitude": 2.428,
          "distance_km": 1.58
        },
        {
          "code_insee": "95088",
          "nom": "Bonneuil-en-France",
          "slug": "bonneuil-en-france",
          "code_postal": "95500",
          "population": 1166,
          "superficie_km2": 5.0,
          "latitude": 48.9650002,
          "longitude": 2.4349999,
          "distance_km": 1.85
        },
        {
          "code_insee": "95268",
          "nom": "Garges-lès-Gonesse",
          "slug": "garges-les-gonesse",
          "code_postal": "95140",
          "population": 42841,
          "superficie_km2": 5.0,
          "latitude": 48.9700012,
          "longitude": 2.405,
          "distance_km": 2.62
        },
        {
          "code_insee": "93027",
          "nom": "La Courneuve",
          "slug": "la-courneuve",
          "code_postal": "93120",
          "population": 47160,
          "superficie_km2": 8.0,
          "latitude": 48.9319992,
          "longitude": 2.4000001,
          "distance_km": 2.66
        },
        {
          "code_insee": "93007",
          "nom": "Le Blanc-Mesnil",
          "slug": "le-blanc-mesnil",
          "code_postal": "93150",
          "population": 58257,
          "superficie_km2": 8.0,
          "latitude": 48.9399986,
          "longitude": 2.461,
          "distance_km": 2.92
        },
        {
          "code_insee": "93072",
          "nom": "Stains",
          "slug": "stains",
          "code_postal": "93240",
          "population": 40359,
          "superficie_km2": 5.0,
          "latitude": 48.9570007,
          "longitude": 2.385,
          "distance_km": 2.95
        },
        {
          "code_insee": "93029",
          "nom": "Drancy",
          "slug": "drancy",
          "code_postal": "93700",
          "population": 71363,
          "superficie_km2": 8.0,
          "latitude": 48.9230003,
          "longitude": 2.4449999,
          "distance_km": 3.37
        },
        {
          "code_insee": "95019",
          "nom": "Arnouville",
          "slug": "arnouville",
          "code_postal": "95400",
          "population": 14585,
          "superficie_km2": 3.0,
          "latitude": 48.9860001,
          "longitude": 2.4170001,
          "distance_km": 4.04
        },
        {
          "code_insee": "93059",
          "nom": "Pierrefitte-sur-Seine",
          "slug": "pierrefitte-sur-seine",
          "code_postal": "93380",
          "population": 32379,
          "superficie_km2": 3.0,
          "latitude": 48.9609985,
          "longitude": 2.3629999,
          "distance_km": 4.62
        },
        {
          "code_insee": "95277",
          "nom": "Gonesse",
          "slug": "gonesse",
          "code_postal": "95500",
          "population": 25963,
          "superficie_km2": 20.0,
          "latitude": 48.9860001,
          "longitude": 2.457,
          "distance_km": 4.67
        },
        {
          "code_insee": "93008",
          "nom": "Bobigny",
          "slug": "bobigny",
          "code_postal": "93000",
          "population": 55056,
          "superficie_km2": 7.0,
          "latitude": 48.908001,
          "longitude": 2.4389999,
          "distance_km": 4.8
        },
        {
          "code_insee": "93005",
          "nom": "Aulnay-sous-Bois",
          "slug": "aulnay-sous-bois",
          "code_postal": "93600",
          "population": 86135,
          "superficie_km2": 16.0,
          "latitude": 48.9459992,
          "longitude": 2.493,
          "distance_km": 5.06
        },
        {
          "code_insee": "93001",
          "nom": "Aubervilliers",
          "slug": "aubervilliers",
          "code_postal": "93300",
          "population": 90071,
          "superficie_km2": 6.0,
          "latitude": 48.9119988,
          "longitude": 2.3840001,
          "distance_km": 5.14
        },
        {
          "code_insee": "93066",
          "nom": "Saint-Denis",
          "slug": "saint-denis",
          "code_postal": "93210",
          "population": 113942,
          "superficie_km2": 12.0,
          "latitude": 48.9300003,
          "longitude": 2.359,
          "distance_km": 5.24
        },
        {
          "code_insee": "95585",
          "nom": "Sarcelles",
          "slug": "sarcelles",
          "code_postal": "95200",
          "population": 58424,
          "superficie_km2": 8.0,
          "latitude": 48.9900017,
          "longitude": 2.382,
          "distance_km": 5.4
        },
        {
          "code_insee": "93079",
          "nom": "Villetaneuse",
          "slug": "villetaneuse",
          "code_postal": "93430",
          "population": 12663,
          "superficie_km2": 2.0,
          "latitude": 48.9570007,
          "longitude": 2.345,
          "distance_km": 5.82
        },
        {
          "code_insee": "93055",
          "nom": "Pantin",
          "slug": "pantin",
          "code_postal": "93500",
          "population": 60800,
          "superficie_km2": 5.0,
          "latitude": 48.8979988,
          "longitude": 2.4089999,
          "distance_km": 5.89
        },
        {
          "code_insee": "95427",
          "nom": "Montmagny",
          "slug": "montmagny",
          "code_postal": "95360",
          "population": 14775,
          "superficie_km2": 3.0,
          "latitude": 48.9700012,
          "longitude": 2.346,
          "distance_km": 6.11
        },
        {
          "code_insee": "95680",
          "nom": "Villiers-le-Bel",
          "slug": "villiers-le-bel",
          "code_postal": "95400",
          "population": 28836,
          "superficie_km2": 7.0,
          "latitude": 49.0079994,
          "longitude": 2.404,
          "distance_km": 6.61
        },
        {
          "code_insee": "95288",
          "nom": "Groslay",
          "slug": "groslay",
          "code_postal": "95410",
          "population": 8416,
          "superficie_km2": 3.0,
          "latitude": 48.9850006,
          "longitude": 2.3499999,
          "distance_km": 6.66
        }
      ],
      "zonage_abc": "A",
      "reclassement_abc": "Non",
      "codes_postaux": [
        {
          "code_postal": "93440",
          "libelle_acheminement": "DUGNY"
        }
      ],
      "logement": {
        "logements_total": 4522,
        "residences_principales": 4253,
        "logements_vacants": 253,
        "residences_secondaires": 15,
        "maisons": 337,
        "appartements": 4105,
        "proprietaires": 548,
        "locataires": 3295,
        "hlm": 2800,
        "construits_avant_1919": 20,
        "construits_1919_1945": 421,
        "construits_1946_1970": 1518,
        "construits_1971_1990": 1031,
        "construits_1991_2005": 865,
        "construits_2006_2019": 332,
        "chauffage_electrique": 838,
        "chauffage_fioul": 69,
        "chauffage_gaz_ville": 3257,
        "chauffage_gaz_bouteille": 43,
        "chauffage_autre": 45,
        "menages": 4253,
        "logements_avant_1990": 2990
      },
      "artisans": {
        "monte_escalier": 1,
        "chauffage_pac_clim": 14,
        "isolation": 8,
        "menuiserie": 3,
        "fenetres_velux": 3,
        "couverture_toiture": 4,
        "facade_peinture": 14,
        "portes_volets": 3,
        "piscine": 0,
        "vmc_ventilation": 1,
        "assainissement": 13
      },
      "revenus": {
        "revenu_median": 16900.0,
        "part_menages_imposes": 42.0,
        "taux_pauvrete": 31.0
      },
      "aides_etat": {
        "zone_climatique": "H1",
        "qpv": true,
        "action_coeur_de_ville": false,
        "petites_villes_de_demain": false
      }
    },
    {
      "code_insee": "93032",
      "nom": "Gagny",
      "nom_a": null,
      "nom_de": null,
      "slug": "gagny",
      "code_postal": "93220",
      "population": 40189,
      "superficie_km2": 7.0,
      "latitude": 48.882,
      "longitude": 2.5450001,
      "villes_proches": [
        {
          "code_insee": "93050",
          "nom": "Neuilly-sur-Marne",
          "slug": "neuilly-sur-marne",
          "code_postal": "93330",
          "population": 37531,
          "superficie_km2": 7.0,
          "latitude": 48.8619995,
          "longitude": 2.54,
          "distance_km": 2.25
        },
        {
          "code_insee": "93047",
          "nom": "Montfermeil",
          "slug": "montfermeil",
          "code_postal": "93370",
          "population": 27980,
          "superficie_km2": 5.0,
          "latitude": 48.8979988,
          "longitude": 2.5669999,
          "distance_km": 2.4
        },
        {
          "code_insee": "93062",
          "nom": "Le Raincy",
          "slug": "le-raincy",
          "code_postal": "93340",
          "population": 14877,
          "superficie_km2": 2.0,
          "latitude": 48.8969994,
          "longitude": 2.52,
          "distance_km": 2.47
        },
        {
          "code_insee": "93077",
          "nom": "Villemomble",
          "slug": "villemomble",
          "code_postal": "93250",
          "population": 30332,
          "superficie_km2": 4.0,
          "latitude": 48.8849983,
          "longitude": 2.5090001,
          "distance_km": 2.65
        },
        {
          "code_insee": "93014",
          "nom": "Clichy-sous-Bois",
          "slug": "clichy-sous-bois",
          "code_postal": "93390",
          "population": 29735,
          "superficie_km2": 4.0,
          "latitude": 48.908001,
          "longitude": 2.546,
          "distance_km": 2.89
        },
        {
          "code_insee": "93033",
          "nom": "Gournay-sur-Marne",
          "slug": "gournay-sur-marne",
          "code_postal": "93460",
          "population": 6882,
          "superficie_km2": 2.0,
          "latitude": 48.8610001,
          "longitude": 2.575,
          "distance_km": 3.2
        },
        {
          "code_insee": "93049",
          "nom": "Neuilly-Plaisance",
          "slug": "neuilly-plaisance",
          "code_postal": "93360",
          "population": 21415,
          "superficie_km2": 3.0,
          "latitude": 48.8639984,
          "longitude": 2.51,
          "distance_km": 3.25
        },
        {
          "code_insee": "77108",
          "nom": "Chelles",
          "slug": "chelles",
          "code_postal": "77500",
          "population": 54309,
          "superficie_km2": 16.0,
          "latitude": 48.8839989,
          "longitude": 2.5969999,
          "distance_km": 3.81
        },
        {
          "code_insee": "93057",
          "nom": "Les Pavillons-sous-Bois",
          "slug": "les-pavillons-sous-bois",
          "code_postal": "93320",
          "population": 24165,
          "superficie_km2": 3.0,
          "latitude": 48.908001,
          "longitude": 2.503,
          "distance_km": 4.22
        },
        {
          "code_insee": "93046",
          "nom": "Livry-Gargan",
          "slug": "livry-gargan",
          "code_postal": "93190",
          "population": 46028,
          "superficie_km2": 7.0,
          "latitude": 48.9199982,
          "longitude": 2.5350001,
          "distance_km": 4.29
        },
        {
          "code_insee": "93064",
          "nom": "Rosny-sous-Bois",
          "slug": "rosny-sous-bois",
          "code_postal": "93110",
          "population": 45655,
          "superficie_km2": 6.0,
          "latitude": 48.875,
          "longitude": 2.4860001,
          "distance_km": 4.38
        },
        {
          "code_insee": "93015",
          "nom": "Coubron",
          "slug": "coubron",
          "code_postal": "93470",
          "population": 5063,
          "superficie_km2": 4.0,
          "latitude": 48.9179993,
          "longitude": 2.576,
          "distance_km": 4.6
        },
        {
          "code_insee": "93010",
          "nom": "Bondy",
          "slug": "bondy",
          "code_postal": "93140",
          "population": 52905,
          "superficie_km2": 5.0,
          "latitude": 48.9020004,
          "longitude": 2.484,
          "distance_km": 4.98
        },
        {
          "code_insee": "94015",
          "nom": "Bry-sur-Marne",
          "slug": "bry-sur-marne",
          "code_postal": "94360",
          "population": 17400,
          "superficie_km2": 3.0,
          "latitude": 48.8380013,
          "longitude": 2.523,
          "distance_km": 5.15
        },
        {
          "code_insee": "93051",
          "nom": "Noisy-le-Grand",
          "slug": "noisy-le-grand",
          "code_postal": "93160",
          "population": 70374,
          "superficie_km2": 13.0,
          "latitude": 48.8359985,
          "longitude": 2.5639999,
          "distance_km": 5.3
        },
        {
          "code_insee": "77083",
          "nom": "Champs-sur-Marne",
          "slug": "champs-sur-marne",
          "code_postal": "77420",
          "population": 25695,
          "superficie_km2": 8.0,
          "latitude": 48.8479996,
          "longitude": 2.596,
          "distance_km": 5.31
        },
        {
          "code_insee": "94058",
          "nom": "Le Perreux-sur-Marne",
          "slug": "le-perreux-sur-marne",
          "code_postal": "94170",
          "population": 34213,
          "superficie_km2": 4.0,
          "latitude": 48.8419991,
          "longitude": 2.5039999,
          "distance_km": 5.36
        },
        {
          "code_insee": "77139",
          "nom": "Courtry",
          "slug": "courtry",
          "code_postal": "77181",
          "population": 6885,
          "superficie_km2": 4.0,
          "latitude": 48.9169998,
          "longitude": 2.6029999,
          "distance_km": 5.76
        },
        {
          "code_insee": "93074",
          "nom": "Vaujours",
          "slug": "vaujours",
          "code_postal": "93410",
          "population": 7478,
          "superficie_km2": 4.0,
          "latitude": 48.9319992,
          "longitude": 2.5810001,
          "distance_km": 6.15
        },
        {
          "code_insee": "94033",
          "nom": "Fontenay-sous-Bois",
          "slug": "fontenay-sous-bois",
          "code_postal": "94120",
          "population": 51812,
          "superficie_km2": 6.0,
          "latitude": 48.8510017,
          "longitude": 2.474,
          "distance_km": 6.23
        }
      ],
      "zonage_abc": "A",
      "reclassement_abc": "Non",
      "codes_postaux": [
        {
          "code_postal": "93220",
          "libelle_acheminement": "GAGNY"
        }
      ],
      "logement": {
        "logements_total": 16879,
        "residences_principales": 15909,
        "logements_vacants": 809,
        "residences_secondaires": 159,
        "maisons": 7481,
        "appartements": 9281,
        "proprietaires": 9171,
        "locataires": 6483,
        "hlm": 3037,
        "construits_avant_1919": 541,
        "construits_1919_1945": 1571,
        "construits_1946_1970": 5627,
        "construits_1971_1990": 4584,
        "construits_1991_2005": 1939,
        "construits_2006_2019": 1179,
        "chauffage_electrique": 4452,
        "chauffage_fioul": 787,
        "chauffage_gaz_ville": 10299,
        "chauffage_gaz_bouteille": 75,
        "chauffage_autre": 295,
        "menages": 15909,
        "logements_avant_1990": 12323
      },
      "artisans": {
        "monte_escalier": 10,
        "chauffage_pac_clim": 117,
        "isolation": 102,
        "menuiserie": 90,
        "fenetres_velux": 90,
        "couverture_toiture": 37,
        "facade_peinture": 123,
        "portes_volets": 90,
        "piscine": 1,
        "vmc_ventilation": 40,
        "assainissement": 81
      },
      "revenus": {
        "revenu_median": 22340.0,
        "part_menages_imposes": 60.0,
        "taux_pauvrete": 17.0
      },
      "aides_etat": {
        "zone_climatique": "H1",
        "qpv": true,
        "action_coeur_de_ville": false,
        "petites_villes_de_demain": false
      }
    },
    {
      "code_insee": "93033",
      "nom": "Gournay-sur-Marne",
      "nom_a": null,
      "nom_de": null,
      "slug": "gournay-sur-marne",
      "code_postal": "93460",
      "population": 6882,
      "superficie_km2": 2.0,
      "latitude": 48.8610001,
      "longitude": 2.575,
      "villes_proches": [
        {
          "code_insee": "77083",
          "nom": "Champs-sur-Marne",
          "slug": "champs-sur-marne",
          "code_postal": "77420",
          "population": 25695,
          "superficie_km2": 8.0,
          "latitude": 48.8479996,
          "longitude": 2.596,
          "distance_km": 2.11
        },
        {
          "code_insee": "93050",
          "nom": "Neuilly-sur-Marne",
          "slug": "neuilly-sur-marne",
          "code_postal": "93330",
          "population": 37531,
          "superficie_km2": 7.0,
          "latitude": 48.8619995,
          "longitude": 2.54,
          "distance_km": 2.56
        },
        {
          "code_insee": "93051",
          "nom": "Noisy-le-Grand",
          "slug": "noisy-le-grand",
          "code_postal": "93160",
          "population": 70374,
          "superficie_km2": 13.0,
          "latitude": 48.8359985,
          "longitude": 2.5639999,
          "distance_km": 2.89
        },
        {
          "code_insee": "77108",
          "nom": "Chelles",
          "slug": "chelles",
          "code_postal": "77500",
          "population": 54309,
          "superficie_km2": 16.0,
          "latitude": 48.8839989,
          "longitude": 2.5969999,
          "distance_km": 3.02
        },
        {
          "code_insee": "93032",
          "nom": "Gagny",
          "slug": "gagny",
          "code_postal": "93220",
          "population": 40189,
          "superficie_km2": 7.0,
          "latitude": 48.882,
          "longitude": 2.5450001,
          "distance_km": 3.2
        },
        {
          "code_insee": "77337",
          "nom": "Noisiel",
          "slug": "noisiel",
          "code_postal": "77186",
          "population": 15461,
          "superficie_km2": 4.0,
          "latitude": 48.8460007,
          "longitude": 2.6199999,
          "distance_km": 3.69
        },
        {
          "code_insee": "93047",
          "nom": "Montfermeil",
          "slug": "montfermeil",
          "code_postal": "93370",
          "population": 27980,
          "superficie_km2": 5.0,
          "latitude": 48.8979988,
          "longitude": 2.5669999,
          "distance_km": 4.16
        },
        {
          "code_insee": "94079",
          "nom": "Villiers-sur-Marne",
          "slug": "villiers-sur-marne",
          "code_postal": "94350",
          "population": 30669,
          "superficie_km2": 4.0,
          "latitude": 48.8260002,
          "longitude": 2.5450001,
          "distance_km": 4.47
        },
        {
          "code_insee": "77479",
          "nom": "Vaires-sur-Marne",
          "slug": "vaires-sur-marne",
          "code_postal": "77360",
          "population": 13518,
          "superficie_km2": 6.0,
          "latitude": 48.8699989,
          "longitude": 2.6359999,
          "distance_km": 4.57
        },
        {
          "code_insee": "94015",
          "nom": "Bry-sur-Marne",
          "slug": "bry-sur-marne",
          "code_postal": "94360",
          "population": 17400,
          "superficie_km2": 3.0,
          "latitude": 48.8380013,
          "longitude": 2.523,
          "distance_km": 4.58
        },
        {
          "code_insee": "93049",
          "nom": "Neuilly-Plaisance",
          "slug": "neuilly-plaisance",
          "code_postal": "93360",
          "population": 21415,
          "superficie_km2": 3.0,
          "latitude": 48.8639984,
          "longitude": 2.51,
          "distance_km": 4.77
        },
        {
          "code_insee": "77169",
          "nom": "Émerainville",
          "slug": "emerainville",
          "code_postal": "77184",
          "population": 7601,
          "superficie_km2": 5.0,
          "latitude": 48.8199997,
          "longitude": 2.609,
          "distance_km": 5.19
        },
        {
          "code_insee": "77258",
          "nom": "Lognes",
          "slug": "lognes",
          "code_postal": "77185",
          "population": 14650,
          "superficie_km2": 4.0,
          "latitude": 48.8330002,
          "longitude": 2.6340001,
          "distance_km": 5.32
        },
        {
          "code_insee": "93077",
          "nom": "Villemomble",
          "slug": "villemomble",
          "code_postal": "93250",
          "population": 30332,
          "superficie_km2": 4.0,
          "latitude": 48.8849983,
          "longitude": 2.5090001,
          "distance_km": 5.52
        },
        {
          "code_insee": "94058",
          "nom": "Le Perreux-sur-Marne",
          "slug": "le-perreux-sur-marne",
          "code_postal": "94170",
          "population": 34213,
          "superficie_km2": 4.0,
          "latitude": 48.8419991,
          "longitude": 2.5039999,
          "distance_km": 5.61
        },
        {
          "code_insee": "77468",
          "nom": "Torcy",
          "slug": "torcy",
          "code_postal": "77200",
          "population": 22444,
          "superficie_km2": 6.0,
          "latitude": 48.8530006,
          "longitude": 2.651,
          "distance_km": 5.63
        },
        {
          "code_insee": "93014",
          "nom": "Clichy-sous-Bois",
          "slug": "clichy-sous-bois",
          "code_postal": "93390",
          "population": 29735,
          "superficie_km2": 4.0,
          "latitude": 48.908001,
          "longitude": 2.546,
          "distance_km": 5.64
        },
        {
          "code_insee": "93062",
          "nom": "Le Raincy",
          "slug": "le-raincy",
          "code_postal": "93340",
          "population": 14877,
          "superficie_km2": 2.0,
          "latitude": 48.8969994,
          "longitude": 2.52,
          "distance_km": 5.67
        },
        {
          "code_insee": "77055",
          "nom": "Brou-sur-Chantereine",
          "slug": "brou-sur-chantereine",
          "code_postal": "77177",
          "population": 4992,
          "superficie_km2": 4.0,
          "latitude": 48.8899994,
          "longitude": 2.6400001,
          "distance_km": 5.74
        },
        {
          "code_insee": "94059",
          "nom": "Le Plessis-Trévise",
          "slug": "le-plessis-trevise",
          "code_postal": "94420",
          "population": 20218,
          "superficie_km2": 4.0,
          "latitude": 48.8059998,
          "longitude": 2.576,
          "distance_km": 6.12
        }
      ],
      "zonage_abc": "A",
      "reclassement_abc": "Non",
      "codes_postaux": [
        {
          "code_postal": "93460",
          "libelle_acheminement": "GOURNAY SUR MARNE"
        }
      ],
      "logement": {
        "logements_total": 3256,
        "residences_principales": 3038,
        "logements_vacants": 187,
        "residences_secondaires": 30,
        "maisons": 1914,
        "appartements": 1336,
        "proprietaires": 2083,
        "locataires": 912,
        "hlm": 262,
        "construits_avant_1919": 66,
        "construits_1919_1945": 222,
        "construits_1946_1970": 662,
        "construits_1971_1990": 859,
        "construits_1991_2005": 529,
        "construits_2006_2019": 450,
        "chauffage_electrique": 1244,
        "chauffage_fioul": 102,
        "chauffage_gaz_ville": 1599,
        "chauffage_gaz_bouteille": 10,
        "chauffage_autre": 81,
        "menages": 3038,
        "logements_avant_1990": 1809
      },
      "artisans": {
        "monte_escalier": 0,
        "chauffage_pac_clim": 10,
        "isolation": 6,
        "menuiserie": 11,
        "fenetres_velux": 11,
        "couverture_toiture": 7,
        "facade_peinture": 6,
        "portes_volets": 11,
        "piscine": 0,
        "vmc_ventilation": 2,
        "assainissement": 8
      },
      "revenus": {
        "revenu_median": 29080.0,
        "part_menages_imposes": 74.0,
        "taux_pauvrete": 8.0
      },
      "aides_etat": {
        "zone_climatique": "H1",
        "qpv": false,
        "action_coeur_de_ville": false,
        "petites_villes_de_demain": false
      }
    },
    {
      "code_insee": "93039",
      "nom": "L'Île-Saint-Denis",
      "nom_a": null,
      "nom_de": null,
      "slug": "l-ile-saint-denis",
      "code_postal": "93450",
      "population": 8664,
      "superficie_km2": 2.0,
      "latitude": 48.9399986,
      "longitude": 2.326,
      "villes_proches": [
        {
          "code_insee": "92078",
          "nom": "Villeneuve-la-Garenne",
          "slug": "villeneuve-la-garenne",
          "code_postal": "92390",
          "population": 25371,
          "superficie_km2": 3.0,
          "latitude": 48.9360008,
          "longitude": 2.3239999,
          "distance_km": 0.47
        },
        {
          "code_insee": "93031",
          "nom": "Épinay-sur-Seine",
          "slug": "epinay-sur-seine",
          "code_postal": "93800",
          "population": 53489,
          "superficie_km2": 5.0,
          "latitude": 48.9550018,
          "longitude": 2.3139999,
          "distance_km": 1.88
        },
        {
          "code_insee": "93079",
          "nom": "Villetaneuse",
          "slug": "villetaneuse",
          "code_postal": "93430",
          "population": 12663,
          "superficie_km2": 2.0,
          "latitude": 48.9570007,
          "longitude": 2.345,
          "distance_km": 2.35
        },
        {
          "code_insee": "92036",
          "nom": "Gennevilliers",
          "slug": "gennevilliers",
          "code_postal": "92230",
          "population": 49410,
          "superficie_km2": 12.0,
          "latitude": 48.9339981,
          "longitude": 2.2939999,
          "distance_km": 2.43
        },
        {
          "code_insee": "93066",
          "nom": "Saint-Denis",
          "slug": "saint-denis",
          "code_postal": "93210",
          "population": 113942,
          "superficie_km2": 12.0,
          "latitude": 48.9300003,
          "longitude": 2.359,
          "distance_km": 2.65
        },
        {
          "code_insee": "93070",
          "nom": "Saint-Ouen-sur-Seine",
          "slug": "saint-ouen-sur-seine",
          "code_postal": "93400",
          "population": 53207,
          "superficie_km2": 4.0,
          "latitude": 48.9099999,
          "longitude": 2.3329999,
          "distance_km": 3.37
        },
        {
          "code_insee": "95197",
          "nom": "Deuil-la-Barre",
          "slug": "deuil-la-barre",
          "code_postal": "95170",
          "population": 22510,
          "superficie_km2": 4.0,
          "latitude": 48.9710007,
          "longitude": 2.326,
          "distance_km": 3.45
        },
        {
          "code_insee": "93059",
          "nom": "Pierrefitte-sur-Seine",
          "slug": "pierrefitte-sur-seine",
          "code_postal": "93380",
          "population": 32379,
          "superficie_km2": 3.0,
          "latitude": 48.9609985,
          "longitude": 2.3629999,
          "distance_km": 3.57
        },
        {
          "code_insee": "95427",
          "nom": "Montmagny",
          "slug": "montmagny",
          "code_postal": "95360",
          "population": 14775,
          "superficie_km2": 3.0,
          "latitude": 48.9700012,
          "longitude": 2.346,
          "distance_km": 3.64
        },
        {
          "code_insee": "95210",
          "nom": "Enghien-les-Bains",
          "slug": "enghien-les-bains",
          "code_postal": "95880",
          "population": 11440,
          "superficie_km2": 2.0,
          "latitude": 48.9700012,
          "longitude": 2.3050001,
          "distance_km": 3.67
        },
        {
          "code_insee": "92004",
          "nom": "Asnières-sur-Seine",
          "slug": "asnieres-sur-seine",
          "code_postal": "92600",
          "population": 89662,
          "superficie_km2": 5.0,
          "latitude": 48.9150009,
          "longitude": 2.2880001,
          "distance_km": 3.93
        },
        {
          "code_insee": "92024",
          "nom": "Clichy",
          "slug": "clichy",
          "code_postal": "92110",
          "population": 64849,
          "superficie_km2": 3.0,
          "latitude": 48.9039993,
          "longitude": 2.306,
          "distance_km": 4.26
        },
        {
          "code_insee": "95555",
          "nom": "Saint-Gratien",
          "slug": "saint-gratien",
          "code_postal": "95210",
          "population": 20866,
          "superficie_km2": 3.0,
          "latitude": 48.9690018,
          "longitude": 2.2850001,
          "distance_km": 4.4
        },
        {
          "code_insee": "93072",
          "nom": "Stains",
          "slug": "stains",
          "code_postal": "93240",
          "population": 40359,
          "superficie_km2": 5.0,
          "latitude": 48.9570007,
          "longitude": 2.385,
          "distance_km": 4.71
        },
        {
          "code_insee": "92009",
          "nom": "Bois-Colombes",
          "slug": "bois-colombes",
          "code_postal": "92270",
          "population": 29765,
          "superficie_km2": 2.0,
          "latitude": 48.9150009,
          "longitude": 2.267,
          "distance_km": 5.13
        },
        {
          "code_insee": "93001",
          "nom": "Aubervilliers",
          "slug": "aubervilliers",
          "code_postal": "93300",
          "population": 90071,
          "superficie_km2": 6.0,
          "latitude": 48.9119988,
          "longitude": 2.3840001,
          "distance_km": 5.26
        },
        {
          "code_insee": "95288",
          "nom": "Groslay",
          "slug": "groslay",
          "code_postal": "95410",
          "population": 8416,
          "superficie_km2": 3.0,
          "latitude": 48.9850006,
          "longitude": 2.3499999,
          "distance_km": 5.3
        },
        {
          "code_insee": "93027",
          "nom": "La Courneuve",
          "slug": "la-courneuve",
          "code_postal": "93120",
          "population": 47160,
          "superficie_km2": 8.0,
          "latitude": 48.9319992,
          "longitude": 2.4000001,
          "distance_km": 5.48
        },
        {
          "code_insee": "95598",
          "nom": "Soisy-sous-Montmorency",
          "slug": "soisy-sous-montmorency",
          "code_postal": "95230",
          "population": 18008,
          "superficie_km2": 4.0,
          "latitude": 48.987999,
          "longitude": 2.3,
          "distance_km": 5.66
        },
        {
          "code_insee": "92044",
          "nom": "Levallois-Perret",
          "slug": "levallois-perret",
          "code_postal": "92300",
          "population": 68009,
          "superficie_km2": 2.0,
          "latitude": 48.8950005,
          "longitude": 2.2869999,
          "distance_km": 5.76
        }
      ],
      "zonage_abc": "A",
      "reclassement_abc": "Non",
      "codes_postaux": [
        {
          "code_postal": "93450",
          "libelle_acheminement": "L ILE ST DENIS"
        }
      ],
      "logement": {
        "logements_total": 3552,
        "residences_principales": 3346,
        "logements_vacants": 157,
        "residences_secondaires": 49,
        "maisons": 210,
        "appartements": 3266,
        "proprietaires": 1037,
        "locataires": 2265,
        "hlm": 1722,
        "construits_avant_1919": 115,
        "construits_1919_1945": 236,
        "construits_1946_1970": 1087,
        "construits_1971_1990": 1103,
        "construits_1991_2005": 267,
        "construits_2006_2019": 520,
        "chauffage_electrique": 598,
        "chauffage_fioul": 64,
        "chauffage_gaz_ville": 2627,
        "chauffage_gaz_bouteille": 14,
        "chauffage_autre": 43,
        "menages": 3346,
        "logements_avant_1990": 2541
      },
      "artisans": {
        "monte_escalier": 0,
        "chauffage_pac_clim": 16,
        "isolation": 11,
        "menuiserie": 11,
        "fenetres_velux": 11,
        "couverture_toiture": 1,
        "facade_peinture": 26,
        "portes_volets": 11,
        "piscine": 0,
        "vmc_ventilation": 8,
        "assainissement": 10
      },
      "revenus": {
        "revenu_median": 17380.0,
        "part_menages_imposes": 44.0,
        "taux_pauvrete": 31.0
      },
      "aides_etat": {
        "zone_climatique": "H1",
        "qpv": true,
        "action_coeur_de_ville": false,
        "petites_villes_de_demain": false
      }
    },